     2.11           OBSERVATION DATA    G (GPS)             RINEX VERSION / TYPE
teqc  2016Nov7      root                20180417 16:17:49UTCPGM / RUN BY / DATE
Linux 2.4.21-27.ELsmp|Opteron|gcc|Linux x86_64|=+           COMMENT
     2.11           OBSERVATION DATA    G (GPS)             COMMENT
teqc  2015Nov6      NOAA/NOS/NGS/CORS   20160214 02:40:11UTCCOMMENT
Solaris x86 5.10|AMD64|cc SC5.8 -xarch=amd64|=+|=+          COMMENT
teqc  2015Nov6      NOAA/NOS/NGS/CORS   20160214 02:36:27UTCCOMMENT
Spider V5.3.0.6216                      2016 02 13 01:16    COMMENT
BIT 2 OF LLI FLAGS DATA COLLECTED UNDER A/S CONDITION       COMMENT
SNR is mapped to RINEX snr flag value [1-9]                 COMMENT
LX:    >= 25dBHz -> 1; 26-27dBHz -> 2; 28-31dBHz -> 3       COMMENT
       32-35dBHz -> 4; 36-38dBHz -> 5; 39-41dBHz -> 6       COMMENT
       42-44dBHz -> 7; 45-48dBHz -> 8; >= 49dBHz -> 9       COMMENT
Site Information :                                          COMMENT
Bullhead City                                               COMMENT
Arizona                                                     COMMENT
teqc edited: all SBAS satellites excluded                   COMMENT
teqc edited: all Compass satellites excluded                COMMENT
teqc edited: all QZSS satellites excluded                   COMMENT
Forced Modulo Decimation to 30 seconds                      COMMENT
AZBH                                                        MARKER NAME
AZBH                                                        MARKER NUMBER
John Marshall       ASLDSC                                  OBSERVER / AGENCY
355164              LEICA GRX1200GGPRO  7.80/3.055          REC # / TYPE / VERS
07230045            LEIAX1202GG     NONE                    ANT # / TYPE
 -2174939.2040 -4749390.0760  3647716.6390                  APPROX POSITION XYZ
        0.0000        0.0000        0.0000                  ANTENNA: DELTA H/E/N
     1     1                                                WAVELENGTH FACT L1/2
     8    L1    L2    C1    C2    P1    P2    S1    S2      # / TYPES OF OBSERV
    30.0000                                                 INTERVAL
teqc.w windowed: start @ 2016 Feb 13 00:00:00.000           COMMENT
teqc.w windowed:  end  @ 2016 Feb 13 05:00:00.000           COMMENT
teqc.w edited: all GLONASS satellites excluded              COMMENT
  2016     2    13     1    52   30.0000000     GPS         TIME OF FIRST OBS
                                                            END OF HEADER
 16  2 13  1 52 30.0000000  0 12G01G05G07G08G09G11G13G17G23G27G28G30
 131981366.126 6 102842640.97044  25115217.220
  25115221.600          41.750          34.250
 129313643.045 6 100763895.69444  24607562.820
  24607565.180          41.750          34.500
 107837136.959 9  84029013.40348  20520687.200
  20520686.640          49.500          45.250
 117748400.943 8  91752078.80246  22406745.640
  22406747.860          47.500          40.750
 116447213.812 8  90738134.79947  22159141.120
  22159143.180          47.500          42.000
 122768209.920 7  95663562.61444  23362003.620
  23362003.360          44.250          35.500
 126695411.347 7  98723721.56544  24109330.820
  24109332.000          42.500          34.500
 126908611.255 7  98889825.87947  24149897.340
  24149900.120          43.000          42.750
 130410003.662 6 101618205.40843  24816190.220
  24816190.040          41.750          30.000
 130258766.579 6 101500401.85844  24787392.020
  24787393.920          40.500          35.000
 112518306.424 9  87676628.05446  21411503.820
  21411503.040          49.500          41.750
 109043460.178 9  84969009.90648  20750251.200
  20750253.280          50.250          46.250
 16  2 13  1 53  0.0000000  0 12G01G05G07G08G09G11G13G17G23G27G28G30
 131906047.076 6 102783950.85944  25100885.100
  25100888.060          40.250          33.250
 129350881.708 7 100792912.83044  24614649.460
  24614651.720          42.250          35.250
 107844553.777 9  84034792.74648  20522098.520
  20522098.160          49.500          45.500
 117810384.015 8  91800377.31346  22418540.480
  22418543.100          47.000          40.750
 116542500.391 8  90812384.06047  22177273.340
  22177275.520          47.250          42.000
 122705378.498 7  95614603.12244  23350047.100
  23350046.680          44.250          34.750
 126592964.888 6  98643893.25844  24089835.840
  24089837.540          41.750          35.250
 126801357.285 8  98806251.43744  24129488.280
  24129490.140          46.000          35.250
 130526136.104 6 101708698.27844  24838289.460
  24838289.040          41.500          33.500
 130357759.629 6 101577539.32444  24806229.680
  24806231.540          40.000          33.500
 112485854.192 9  87651340.62546  21405328.280
  21405327.340          49.500          41.500
 109009204.066 9  84942316.85348  20743732.460
  20743734.720          50.500          45.750
 16  2 13  1 53 30.0000000  0 12G01G05G07G08G09G11G13G17G23G27G28G30
 131830725.153 6 102725258.55444  25086551.800
  25086554.860          40.500          35.500
 129388489.929 7 100822217.94445  24621806.580
  24621808.340          43.750          36.750
 107852257.359 9  84040795.55448  20523564.620
  20523564.060          49.750          45.500
 117872831.630 8  91849037.81946  22430423.740
  22430426.260          46.750          41.250
 116638084.247 8  90886864.96147  22195462.200
  22195464.520          47.250          42.000
 122642865.245 7  95565891.57044  23338151.140
  23338150.680          44.250          34.250
 126490719.132 6  98564221.38144  24070378.780
  24070380.520          40.000          35.750
 126694180.870 8  98722737.52046  24109093.020
  24109095.020          46.500          39.000
 130642306.917 6 101799220.98443  24860396.000
  24860396.180          40.000          31.500
 130456984.079 5 101654857.14944  24825111.200
  24825112.500          36.500          35.500
 112453707.382 9  87626291.19647  21399210.780
  21399209.900          49.000          42.000
 108975163.031 9  84915791.39448  20737254.620
  20737256.880          50.000          46.000
 16  2 13  1 54  0.0000000  0 12G01G05G07G08G09G11G13G17G23G27G28G30
 131755405.089 6 102666567.62845  25072218.680
  25072222.380          40.750          37.000
 129426467.235 7 100851810.67045  24629033.740
  24629035.100          44.000          36.500
 107860250.289 9  84047023.83148  20525085.780
  20525085.080          49.750          45.500
 117935743.330 8  91898059.94346  22442395.560
  22442397.780          47.000          41.000
 116733964.463 8  90961576.80547  22213707.600
  22213710.080          47.250          42.000
 122580674.570 7  95517431.35345  23326316.380
  23326316.180          44.000          37.250
 126388678.030 6  98484708.94545  24050960.520
  24050962.580          41.250          36.250
 126587086.508 7  98639287.45545  24088713.500
  24088715.100          42.000          36.250
 130758515.376 6 101889773.05944  24882509.520
  24882509.860          41.000          34.750
 130556438.794 5 101732354.33444  24844036.320
  24844038.420          38.500          33.750
 112421866.436 9  87601480.10046  21393151.500
  21393150.640          49.000          41.750
 108941339.807 9  84889435.65448  20730818.240
  20730820.340          50.250          45.750
 16  2 13  1 54 30.0000000  0 12G01G05G07G08G09G11G13G17G23G27G28G30
 131680086.051 6 102607877.50744  25057885.720
  25057890.160          39.000          35.750
 129464807.490 7 100881686.15944  24636329.460
  24636330.600          42.250          35.000
 107868530.065 9  84053475.61348  20526661.360
  20526660.760          49.500          46.000
 117999113.206 8  91947439.08246  22454454.580
  22454456.800          47.000          41.250
 116830134.936 8  91036514.81547  22232008.380
  22232010.760          47.000          42.500
 122518805.879 7  95469222.02645  23314543.000
  23314542.860          44.000          36.500
 126286840.950 7  98405355.46044  24031581.420
  24031582.780          42.500          33.000
 126480072.719 8  98555900.23645  24068349.660
  24068351.400          46.750          38.750
 130874755.318 6 101980349.67244  24904628.880
  24904629.580          40.500          33.750
 130656117.342 6 101810025.94645  24863004.760
  24863007.400          41.750          38.250
 112390327.384 9  87576904.24647  21387149.780
  21387148.960          49.250          42.750
 108907731.864 9  84863247.67048  20724422.880
  20724424.720          50.500          45.750
 16  2 13  1 55  0.0000000  0 12G01G05G07G08G09G11G13G17G23G27G28G30
 131604771.266 6 102549190.77244  25043553.700
  25043558.140          40.500          35.000
 129503508.601 7 100911842.87945  24643693.580
  24643695.940          42.250          36.250
 107877098.043 9  84060151.95748  20528291.660
  20528291.160          49.750          45.500
 118062939.296 8  91997173.70746  22466600.180
  22466602.600          47.000          40.000
 116926593.416 8  91111677.26447  22250363.980
  22250366.100          46.750          42.000
 122457262.526 7  95421266.24345  23302831.820
  23302831.320          43.500          36.500
 126185210.900 7  98326163.24443  24012242.160
  24012242.200          44.000          30.000
 126373142.945 8  98472578.45344  24048001.100
  24048002.640          45.000          33.750
 130991024.583 6 102070949.06744  24926753.820
  24926754.620          40.250          32.750
 130756017.263 6 101887870.08045  24882015.680
  24882017.560          41.250          36.250
 112359089.704 9  87552563.22747  21381205.600
  21381204.660          49.500          42.000
 108874340.583 9  84837228.51148  20718068.700
  20718070.360          50.500          45.500
 16  2 13  1 55 30.0000000  0 12G01G05G07G08G09G11G13G17G23G27G28G30
 131529464.637 6 102490510.30344  25029223.240
  25029227.900          39.750          34.750
 129542569.585 7 100942280.00945  24651126.540
  24651129.280          42.250          36.500
 107885956.039 9  84067054.30248  20529977.320
  20529976.540          50.000          45.500
 118127220.261 8  92047262.79846  22478832.420
  22478834.940          47.250          41.500
 117023338.204 8  91187062.80447  22268773.920
  22268775.960          46.500          42.500
 122396048.158 7  95373566.77445  23291183.020
  23291182.320          42.750          37.750
 126083791.527 7  98247135.20444  23992943.140
  23992942.240          42.750          33.750
 126266301.147 5  98389325.28746  24027669.800
  24027672.060          38.500          39.250
 131107321.618 6 102161570.15245  24948884.280
  24948885.160          40.250          37.000
 130856136.780 6 101965885.31044  24901067.680
  24901069.220          39.500          34.750
 112328153.757 9  87528457.33347  21375318.780
  21375317.760          49.500          42.250
 108841168.003 9  84811379.76648  20711756.160
  20711757.700          50.500          45.250
 16  2 13  1 56  0.0000000  0 12G01G05G07G08G09G11G13G17G23G27G28G30
 131454171.737 6 102431840.52744  25014895.300
  25014899.720          41.000          35.000
 129581989.955 7 100972997.19945  24658627.960
  24658631.040          43.250          38.000
 107895107.336 9  84074185.20948  20531718.920
  20531717.760          49.750          45.250
 118191956.778 8  92097706.84146  22491151.220
  22491154.200          47.000          41.000
 117120369.407 8  91262671.50546  22287238.280
  22287240.460          46.750          41.750
 122335167.973 7  95326127.74945  23279597.340
  23279597.320          42.500          37.250
 125982587.912 6  98168275.27744  23973684.440
  23973683.740          41.500          32.750
 126159550.882 7  98306143.28945  24007355.800
  24007356.860          42.750          36.500
 131223646.306 6 102252212.77944  24971020.260
  24971020.840          40.500          35.250
 130956475.799 4 102044071.59545  24920160.580
  24920162.980          35.750          37.000
 112297521.025 9  87504587.70747  21369489.620
  21369488.660          49.500          42.250
 108808217.798 9  84785704.31248  20705486.000
  20705487.520          50.500          45.500
 16  2 13  1 56 30.0000000  0 12G01G05G07G08G09G11G13G17G23G27G28G30
 131378893.701 6 102373182.39444  25000570.180
  25000574.920          40.250          32.750
 129621765.920 7 101003991.44145  24666197.220
  24666200.720          42.500          36.750
 107904551.250 9  84081544.12448  20533516.080
  20533515.000          49.750          45.500
 118257144.387 8  92148502.38046  22503555.900
  22503559.000          47.000          40.750
 117217682.666 8  91338499.99647  22305756.340
  22305758.760          46.750          43.250
 122274623.191 7  95278950.06245  23268075.700
  23268075.940          43.500          36.500
 125881601.094 6  98089584.35544  23954466.480
  23954466.980          40.250          35.250
 126052893.350 7  98223033.82745  23987058.960
  23987061.040          44.500          36.500
 131339994.483 6 102342873.74645  24993160.520
  24993161.300          40.250          37.000
 131057029.591 5 102122425.17146  24939295.020
  24939297.700          36.500          39.000
 112267188.766 9  87480952.21547  21363717.680
  21363716.720          49.500          42.500
 108775489.319 9  84760201.63848  20699258.020
  20699259.540          50.500          45.750
 16  2 13  1 57  0.0000000  0 11G01G05G07G08G09G11G13G17G27G28G30
 131303633.027 6 102314537.76145  24986248.340
  24986253.020          39.750          36.250
 129661894.585 7 101035260.53645  24673833.600
  24673837.220          43.500          37.000
 107914288.458 9  84089131.56448  20535368.980
  20535368.080          49.750          45.500
 118322780.321 8  92199647.30146  22516046.040
  22516048.660          47.000          40.000
 117315274.871 8  91414545.85847  22324327.620
  22324330.140          47.000          42.000
 122214416.063 7  95232035.49145  23256618.700
  23256619.040          43.250          36.250
 125780833.046 7  98011063.94744  23935290.520
  23935292.200          42.500          35.250
 125946330.824 7  98139998.20246  23966780.620
  23966782.800          43.500          40.000
 131157795.023 5 102200943.68946  24958469.540
  24958472.800          38.500          39.750
 112237155.671 9  87457549.84047  21358002.640
  21358001.620          49.750          42.500
 108742983.154 9  84734872.17848  20693072.400
  20693073.760          50.500          45.750
 16  2 13  1 57 30.0000000  0 11G01G05G07G08G09G11G13G17G27G28G30
 131228389.104 6 102255906.15943  24971929.960
  24971934.600          40.500          31.500
 129702370.053 7 101066799.82546  24681536.120
  24681539.880          42.750          40.000
 107924316.095 9  84096945.32448  20537277.160
  20537276.300          50.000          45.500
 118388859.105 8  92251137.27946  22528620.480
  22528622.720          46.750          41.000
 117413139.943 8  91490804.33346  22342950.840
  22342953.320          47.250          41.750
 122154545.830 7  95185383.42044  23245225.900
  23245226.220          43.000          35.750
 125680283.489 7  97932713.67245  23916157.000
  23916158.680          44.000          36.000
 125839862.481 7  98057035.99745  23946520.700
  23946522.960          44.250          38.000
 131258765.752 6 102279622.19646  24977683.320
  24977687.080          39.000          39.750
 112207417.583 9  87434377.33047  21352343.860
  21352342.760          49.750          42.250
 108710696.908 9  84709714.08448  20686928.600
  20686929.960          50.750          45.750
 16  2 13  1 58  0.0000000  0 11G01G05G07G08G09G11G13G17G27G28G30
 131153169.304 6 102197293.37543  24957616.020
  24957620.540          39.500          29.750
 129743194.306 7 101098610.92945  24689304.480
  24689308.460          43.500          38.250
 107934639.263 9  84104989.37048  20539241.600
  20539240.800          50.000          45.750
 118455382.859 8  92302973.98946  22541279.720
  22541281.480          47.250          41.000
 117511279.748 8  91567276.90247  22361626.360
  22361628.740          47.000          42.500
 122095020.309 7  95138999.96944  23233898.540
  23233898.920          43.250          35.750
 125579959.439 8  97854539.17945  23897066.440
  23897067.840          45.000          36.000
 125733495.117 8  97974152.44046  23926279.660
  23926281.380          46.000          39.000
 131359943.509 6 102358461.98044  24996936.840
  24996940.600          40.250          33.000
 112177978.091 9  87411437.49547  21346741.780
  21346740.680          49.500          42.500
 108678636.073 9  84684731.64048  20680827.660
  20680829.040          50.750          45.500
 16  2 13  1 58 30.0000000  0 11G01G05G07G08G09G11G13G17G27G28G30
 131077973.814 6 102138699.54644  24943306.460
  24943311.540          39.000          35.250
 129784362.143 7 101130689.73145  24697138.620
  24697142.340          42.500          38.250
 107945256.250 9  84113262.35748  20541261.880
  20541261.300          49.750          45.500
 118522345.987 8  92355153.06446  22554022.580
  22554023.960          47.250          40.500
 117609688.937 8  91643959.37546  22380353.040
  22380355.480          47.000          41.500
 122035839.216 7  95092884.90845  23222636.600
  23222637.180          43.750          36.750
 125479860.488 7  97776540.05244  23878018.480
  23878019.440          43.250          33.750
 125627228.076 8  97891347.08545  23906057.640
  23906059.200          46.250          37.250
 131461322.700 6 102437458.84044  25016229.040
  25016232.240          40.250          33.750
 112148833.633 9  87388727.56547  21341195.820
  21341194.800          50.000          42.500
 108646799.053 9  84659923.60348  20674769.240
  20674770.480          50.750          45.750
 16  2 13  1 59  0.0000000  0 11G01G05G07G08G09G11G13G17G27G28G30
 131002809.883 6 102080130.29043  24929003.160
  24929008.360          40.250          31.750
 129825875.481 6 101163037.80546  24705038.180
  24705041.740          41.750          39.250
 107956172.543 9  84121768.56548  20543339.020
  20543338.620          49.750          45.000
 118589750.619 8  92407676.16246  22566849.180
  22566850.780          46.250          40.750
 117708368.989 8  91720852.90546  22399131.140
  22399133.620          46.500          41.250
 121977009.378 7  95047043.54145  23211441.940
  23211442.260          44.500          36.250
 125379993.568 7  97698721.76543  23859013.900
  23859015.060          42.250          31.750
 125521068.382 8  97808625.37546  23885856.280
  23885857.580          45.250          39.000
 131562904.722 6 102516613.81043  25035559.640
  25035562.660          40.250          31.500
 112119987.550 9  87366250.13547  21335706.640
  21335705.420          49.750          42.250
 108615191.042 9  84635294.01248  20668754.320
  20668755.620          50.500          45.750
 16  2 13  1 59 30.0000000  0 11G01G05G07G08G09G11G13G17G27G28G30
 130927677.705 6 102021585.81044  24914706.040
  24914711.160          40.000          35.750
 129867729.269 6 101195651.09946  24713002.800
  24713005.900          41.250          39.000
 107967386.077 9  84130506.38648  20545472.800
  20545472.280          49.750          45.250
 118657591.632 8  92460539.30746  22579758.740
  22579760.740          46.250          40.250
 117807314.762 8  91797953.48546  22417959.660
  22417962.240          46.000          41.250
 121918530.965 7  95001476.00845  23200314.040
  23200313.940          44.750          37.000
 125280359.183 6  97621084.62944  23840053.560
  23840055.140          40.500          32.500
 125415015.981 7  97725987.22845  23865674.940
  23865675.880          43.500          37.500
 131664684.243 6 102595922.57945  25054927.840
  25054930.840          40.500          37.000
 112091436.312 9  87344002.45547  21330273.540
  21330272.220          50.000          42.500
 108583810.631 9  84610841.76348  20662782.660
  20662784.120          50.500          45.750
                            4  1
RINEX FILE SPLICE; other post-header comments skipped       COMMENT
 16  2 13  2  0  0.0000000  0 11G01G05G07G08G09G11G13G17G27G28G30
 130852582.994 6 101963070.47444  24900416.100
  24900421.200          39.750          32.500
 129909923.336 5 101228529.55646  24721031.060
  24721035.120          38.250          40.500
 107978900.348 9  84139478.55648  20547663.840
  20547663.200          49.750          45.000
 118725869.706 8  92513743.01146  22592751.380
  22592753.940          46.250          40.500
 117906526.187 8  91875261.07147  22436838.840
  22436841.640          46.500          42.000
 121860409.590 7  94956186.69445  23189253.940
  23189254.000          44.000          38.750
 125180962.426 7  97543632.68843  23821138.340
  23821140.040          42.750          30.250
 125309076.123 7  97643436.82144  23845515.060
  23845516.000          43.750          34.750
 131766661.194 5 102675385.07945  25074333.300
  25074336.620          36.500          38.250
 112063181.731 9  87321985.93647  21324896.840
  21324895.480          49.750          42.500
 108552661.495 9  84586569.73848  20656855.180
  20656856.720          50.750          46.000
 16  2 13  2  0 30.0000000  0 11G01G05G07G08G09G11G13G17G27G28G30
 130777525.989 6 101904584.60644  24886133.300
  24886137.840          40.500          34.500
 129952452.582 5 101261669.17545  24729123.220
  24729127.820          36.000          37.500
 107990713.537 9  84148683.65048  20549911.800
  20549911.040          49.500          45.250
 118794579.628 8  92567283.22746  22605826.240
  22605829.000          46.250          40.250
 118005998.010 8  91952771.56846  22455767.660
  22455770.500          46.750          41.750
 121802645.081 7  94911175.46845  23178261.800
  23178261.920          44.750          38.000
 125081803.170 7  97466365.79944  23802269.420
  23802271.080          44.250          33.750
 125203248.086 7  97560973.51144  23825376.220
  23825376.800          43.500          35.750
 131868830.085 5 102754997.17346  25093775.400
  25093778.840          38.250          39.750
 112035220.212 9  87300197.78547  21319575.800
  21319574.520          50.000          42.250
 108521742.115 9  84562476.73648  20650971.400
  20650973.120          50.750          46.000
 16  2 13  2  1  0.0000000  0 10G01G07G08G09G11G13G17G27G28G30
 130702509.331 6 101846130.10144  24871858.140
  24871862.460          41.500          35.250
 108002826.372 9  84158122.23748  20552216.740
  20552216.060          49.500          45.250
 118863718.375 8  92621157.58746  22618982.900
  22618985.620          46.500          39.750
 118105727.190 8  92030482.60146  22474745.420
  22474748.320          46.500          41.500
 121745240.040 8  94866444.34845  23167338.100
  23167338.200          45.000          38.250
 124982884.041 7  97389286.02345  23783446.220
  23783447.500          44.500          36.250
 125097534.287 7  97478599.21944  23805259.360
  23805259.140          44.000          33.750
 131971187.781 6 102834756.35945  25113253.440
  25113256.100          39.750          38.750
 112007550.493 9  87278637.00547  21314310.280
  21314309.240          49.750          42.500
 108491053.199 9  84538563.31048  20645131.440
  20645133.440          50.750          46.500
 16  2 13  2  1 30.0000000  0 11G01G05G07G08G09G11G13G17G27G28G30
 130627545.948 6 101787717.15545  24857592.980
  24857597.780          40.000          36.000
 130038476.535 5 101328705.08644  24745500.120
  24745504.860          38.750          35.500
 108015249.507 9  84167802.61948  20554580.740
  20554580.120          49.500          45.250
 118933293.888 8  92675372.27346  22632222.660
  22632225.580          46.250          40.250
 118205721.095 8  92108399.91546  22493773.680
  22493776.640          46.250          40.250
 121688207.161 8  94822003.21945  23156485.020
  23156484.860          45.250          38.000
 124884217.620 7  97312403.17644  23764670.840
  23764672.280          44.250          35.250
 124991947.219 7  97396323.70645  23785166.660
  23785166.980          44.500          36.000
 132073741.404 7 102914668.34344  25132769.180
  25132771.200          42.500          32.250
 111980181.359 9  87257310.44947  21309101.900
  21309101.160          49.750          42.250
 108460605.868 9  84514838.14148  20639337.440
  20639339.680          50.750          46.250
 16  2 13  2  2  0.0000000  0 11G01G05G07G08G09G11G13G17G27G28G30
 130552617.066 6 101729331.04144  24843334.440
  24843339.260          40.500          35.500
 130081993.602 6 101362614.49144  24753781.800
  24753785.060          41.000          34.500
 108027961.958 9  84177708.43348  20556999.800
  20556999.080          49.500          45.000
 119003281.646 8  92729908.22746  22645540.860
  22645543.740          45.000          40.500
 118305955.282 8  92186504.44346  22512847.720
  22512850.380          46.750          40.000
 121631527.366 8  94777837.20245  23145699.220
  23145698.920          46.250          36.750
 124785784.841 7  97235702.37745  23745939.640
  23745941.440          43.000          36.000
 124886467.422 7  97314131.75745  23765094.380
  23765095.380          44.750          38.250
 132176466.546 7 102994713.94043  25152317.620
  25152319.300          42.250          30.000
 111953090.661 9  87236200.85047  21303946.640
  21303945.920          50.000          42.250
 108430379.461 9  84491285.11348  20633585.460
  20633587.720          50.750          46.250
 16  2 13  2  2 30.0000000  0 11G01G05G07G08G09G11G13G17G27G28G30
 130477742.265 6 101670987.10744  24829085.980
  24829090.500          40.000          34.000
 130125840.378 7 101396780.81543  24762126.520
  24762128.340          42.750          31.250
 108040981.480 9  84187853.53147  20559477.500
  20559476.520          49.750          44.500
 119073695.937 7  92784776.51246  22658940.180
  22658942.920          44.750          39.500
 118406443.754 8  92264807.14546  22531970.240
  22531972.600          46.500          41.250
 121575220.005 8  94733961.40045  23134984.500
  23134983.900          46.000          37.500
 124687604.822 6  97159198.59344  23727256.240
  23727258.140          41.750          34.250
 124781113.971 8  97232038.27445  23745046.520
  23745047.460          45.500          37.250
 132279377.082 7 103074904.02244  25171901.500
  25171902.620          43.250          32.000
 111926293.659 9  87215320.09447  21298847.220
  21298846.580          49.750          42.500
 108400391.766 9  84467918.10148  20627879.040
  20627881.120          50.750          46.000
 16  2 13  2  3  0.0000000  0 11G01G05G07G08G09G11G13G17G27G28G30
 130402913.954 6 101612679.38443  24814846.540
  24814850.480          40.500          29.750
 130170003.496 7 101431193.66642  24770531.120
  24770531.660          43.500          27.000
 108054298.262 9  84198230.25748  20562011.680
  20562010.800          49.750          45.000
 119144523.996 8  92839967.21946  22672418.120
  22672421.220          45.500          39.750
 118507173.325 8  92343297.69746  22551138.440
  22551140.900          46.500          41.000
 121519277.454 8  94690369.86744  23124338.960
  23124338.340          46.250          35.500
 124589670.097 7  97082885.88443  23708619.640
  23708621.460          42.500          31.750
 124675879.311 8  97150037.36045  23725021.240
  23725022.260          45.750          37.500
 132382459.693 6 103155228.15544  25191517.980
  25191518.280          40.000          34.500
 111899779.036 9  87194659.37747  21293801.640
  21293800.880          49.750          43.000
 108370633.352 9  84444729.75748  20622216.320
  20622218.280          51.000          46.250
 16  2 13  2  3 30.0000000  0 11G01G05G07G08G09G11G13G17G27G28G30
 130328150.583 6 101554422.26144  24800619.780
  24800624.180          40.250          35.750
 130214495.746 7 101465862.95544  24778998.120
  24778997.580          43.750          33.500
 108067928.356 9  84208851.11948  20564605.380
  20564604.660          49.500          45.250
 119215778.514 8  92895490.21946  22685977.280
  22685980.300          45.750          40.000
 118608156.607 8  92421985.96446  22570354.960
  22570357.360          46.250          40.000
 121463717.588 8  94647076.51245  23113766.180
  23113765.560          45.500          36.750
 124491998.550 7  97006778.21145  23690033.500
  23690034.500          43.500          36.250
 124570780.562 8  97068142.38146  23705021.480
  23705022.880          45.500          39.250
 132485727.017 6 103235696.16944  25211169.000
  25211169.160          39.250          35.000
 111873561.422 9  87174230.09247  21288812.380
  21288811.720          49.250          42.750
 108341120.629 9  84421732.84048  20616600.320
  20616602.180          50.750          46.250
 16  2 13  2  4  0.0000000  0 10G01G05G07G08G09G11G13G17G28G30
 130253448.938 6 101496213.22544  24786404.500
  24786409.060          39.500          33.750
 130259308.875 7 101500782.31744  24787526.300
  24787525.500          44.750          32.750
 108081866.982 9  84219712.40347  20567257.780
  20567256.840          49.500          44.250
 119287450.958 8  92951338.88045  22699616.200
  22699619.080          45.250          38.500
 118709384.849 8  92500865.07746  22589618.080
  22589620.620          46.500          40.000
 121408537.033 8  94604078.72844  23103265.460
  23103264.800          46.000          35.500
 124394586.977 7  96930873.12444  23671497.000
  23671497.420          44.250          34.750
 124465814.471 8  96986350.77746  23685046.800
  23685048.320          45.250          40.250
 111847633.692 9  87154026.70347  21283878.380
  21283877.760          49.500          42.250
 108311848.662 9  84398923.53648  20611030.100
  20611031.660          50.750          46.000
 16  2 13  2  4 30.0000000  0 10G01G05G07G08G09G11G13G17G28G30
 130178806.088 6 101438050.03144  24772200.320
  24772204.860          39.500          34.250
 130304434.253 7 101535944.95244  24796113.460
  24796112.560          44.000          32.500
 108096108.591 9  84230809.77347  20569967.780
  20569966.680          49.500          44.750
 119359533.005 8  93007506.70346  22713333.060
  22713335.860          45.000          39.750
 118810849.489 8  92579928.42746  22608926.140
  22608928.820          46.250          40.250
 121353732.596 8  94561374.03845  23092836.380
  23092835.600          46.250          37.250
 124297432.104 7  96855168.04944  23653009.300
  23653009.300          44.500          34.750
 124360977.677 7  96904659.93746  23665096.540
  23665098.460          44.250          39.250
 111821988.927 9  87134043.80647  21278998.260
  21278997.600          49.500          42.750
 108282812.699 9  84376298.14348  20605504.780
  20605506.020          51.000          45.750
 16  2 13  2  5  0.0000000  0 10G01G05G07G08G09G11G13G17G28G30
 130104228.382 6 101379937.52144  24758008.660
  24758012.840          40.750          35.000
 130349872.293 7 101571351.27644  24804760.160
  24804760.060          44.500          33.500
 108110658.192 9  84242147.14248  20572736.460
  20572735.580          49.500          45.000
 119432025.313 8  93063994.24446  22727127.940
  22727130.360          45.000          40.750
 118912551.136 8  92659176.44146  22628279.340
  22628282.000          46.000          40.000
 121299310.343 8  94518967.11445  23082479.980
  23082479.320          46.000          36.000
 124200539.855 7  96779667.68745  23634571.240
  23634571.600          44.000          36.000
 124256275.959 7  96823074.26445  23645172.380
  23645173.860          43.250          38.250
 111796629.707 9  87114283.41747  21274172.600
  21274171.800          49.500          42.500
 108254017.141 9  84353860.07548  20600025.120
  20600026.280          50.750          45.750
 16  2 13  2  5 30.0000000  0 10G01G05G07G08G09G11G13G17G28G30
 130029722.503 6 101321881.05745  24743830.600
  24743834.680          39.000          36.750
 130395624.211 7 101607002.15244  24813466.060
  24813466.880          44.000          34.500
 108125519.306 9  84253727.23147  20575564.440
  20575563.780          49.750          44.750
 119504929.350 8  93120802.59946  22741001.140
  22741003.580          45.750          39.500
 119014490.831 8  92738609.96046  22647677.760
  22647680.400          46.500          40.500
 121245276.602 8  94476862.95144  23072197.500
  23072197.160          46.000          35.500
 124103916.776 7  96704377.04445  23616184.560
  23616184.980          43.000          36.000
 124151715.630 7  96741598.82744  23625274.620
  23625276.300          43.500          34.500
 111771558.598 9  87094747.51647  21269401.760
  21269400.900          49.750          42.500
 108225466.846 9  84331613.11048  20594592.080
  20594593.360          51.000          45.750
 16  2 13  2  6  0.0000000  0 10G01G05G07G08G09G11G13G17G28G30
 129955290.233 5 101263881.94545  24729666.240
  24729671.160          37.250          38.750
 130441686.597 7 101642894.88345  24822231.520
  24822232.760          43.000          36.750
 108140692.096 9  84265550.19147  20578451.660
  20578451.000          49.750          44.500
 119578241.007 8  93177928.57446  22754951.720
  22754954.300          45.500          39.000
 119116664.478 8  92818225.76846  22667120.840
  22667123.420          46.000          41.000
 121191632.753 8  94435062.59344  23061989.300
  23061989.060          45.750          35.500
 124007564.072 7  96629297.11744  23597848.640
  23597849.780          42.250          34.000
 124047297.143 7  96660233.89845  23605404.700
  23605406.120          44.000          36.500
 111746773.717 9  87075434.65047  21264685.420
  21264684.640          49.750          42.750
 108197161.541 9  84309557.04448  20589205.780
  20589207.300          51.000          46.000
 16  2 13  2  6 30.0000000  0 10G01G05G07G08G09G11G13G17G28G30
 129880931.576 5 101205940.16545  24715516.460
  24715521.040          38.000          38.250
 130488053.464 7 101679024.91645  24831054.500
  24831056.320          42.000          38.000
 108156173.836 9  84277613.90648  20581397.700
  20581396.820          49.750          45.000
 119651955.084 8  93235368.12346  22768978.960
  22768981.680          45.750          39.000
 119219066.503 8  92898019.54046  22686607.400
  22686609.960          46.500          40.500
 121138378.171 8  94393565.58944  23051855.300
  23051854.980          45.750          34.000
 123911481.778 7  96554427.88344  23579564.500
  23579565.880          44.000          35.250
 123943020.100 8  96578979.20745  23585561.500
  23585562.780          45.500          38.750
 111722270.472 9  87056341.24947  21260022.640
  21260021.980          49.750          43.000
 108169099.536 9  84287690.56948  20583865.740
  20583867.280          50.750          45.750
 16  2 13  2  7  0.0000000  0 10G01G05G07G08G09G11G13G17G28G30
 129806650.848 6 101148059.09744  24701381.620
  24701385.520          39.500          35.000
 130534723.510 6 101715391.15945  24839935.660
  24839937.580          39.500          38.250
 108171966.999 9  84289920.27547  20584403.120
  20584402.140          49.750          44.500
 119726070.481 8  93293120.38846  22783082.720
  22783085.600          45.750          39.250
 119321695.541 8  92977990.17946  22706137.140
  22706139.680          46.000          40.250
 121085517.149 8  94352375.24444  23041796.000
  23041795.500          45.250          35.250
 123815673.892 8  96479772.43144  23561333.200
  23561334.040          45.500          35.250
 123838888.889 8  96497838.10245  23565746.200
  23565746.740          46.250          37.250
 111698049.480 9  87037467.78447  21255413.540
  21255412.920          49.750          42.500
 108141283.283 9  84266015.59548  20578572.220
  20578573.800          50.500          46.000
 16  2 13  2  7 30.0000000  0 10G01G05G07G08G09G11G13G17G28G30
 129732451.161 5 101090241.25144  24687261.760
  24687265.580          38.250          35.500
 130581694.129 5 101751991.57745  24848873.500
  24848875.760          38.250          38.250
 108188072.571 9  84302470.08247  20587467.900
  20587467.220          49.750          44.750
 119800584.537 8  93351183.29945  22797262.320
  22797264.860          45.500          38.500
 119424548.989 8  93058135.70946  22725709.540
  22725712.100          46.250          40.250
 121033052.181 8  94311493.49244  23031811.920
  23031811.900          45.250          34.250
 123720143.373 8  96405333.07944  23543154.800
  23543154.740          45.750          34.750
 123734905.676 8  96416812.37845  23545958.860
  23545959.240          46.750          37.500
 111674109.932 9  87018813.63847  21250858.060
  21250857.440          49.750          43.000
 108113714.050 9  84244533.09548  20573325.740
  20573327.460          50.500          45.750
 16  2 13  2  8  0.0000000  0 10G01G05G07G08G09G11G13G17G28G30
 129658337.866 6 101032490.67545  24673158.380
  24673162.940          39.500          37.500
 130628965.164 4 101788826.03245  24857868.680
  24857871.180          35.000          38.000
 108204493.495 9  84315265.62447  20590592.680
  20590592.100          49.500          44.750
 119875497.146 8  93409556.76145  22811517.740
  22811520.480          45.000          38.750
 119527626.381 8  93138455.72446  22745324.480
  22745327.020          46.000          39.500
 120980987.791 8  94270923.88444  23021904.400
  23021904.500          46.000          35.750
 123624894.961 8  96331113.60344  23525029.840
  23525029.380          45.000          34.500
 123631075.138 8  96335905.59245  23526200.600
  23526201.020          46.500          37.750
 111650452.945 9  87000379.64947  21246356.300
  21246355.600          49.750          42.750
 108086395.173 9  84223245.67348  20568127.180
  20568128.940          50.750          45.750
 16  2 13  2  8 30.0000000  0 10G01G05G07G08G09G11G13G17G28G30
 129584309.619 6 100974806.36544  24659071.320
  24659075.840          40.250          35.250
 130676529.439 6 101825889.01546  24866919.480
  24866922.200          40.250          39.250
 108221226.345 9  84328304.21148  20593776.920
  20593776.220          49.750          45.500
 119950801.531 8  93468235.52146  22825847.860
  22825850.320          45.500          39.750
 119630920.665 8  93218944.73746  22764980.700
  22764983.360          46.000          39.500
 120929322.981 8  94230665.63644  23012073.200
  23012072.800          46.000          34.500
 123529927.098 7  96257112.73244  23506957.920
  23506957.600          44.000          35.500
 123527395.495 8  96255116.38746  23506470.700
  23506471.220          46.250          39.250
 111627073.064 9  86982161.59647  21241907.220
  21241906.460          49.750          42.750
 108059323.477 9  84202150.86748  20562975.700
  20562977.420          50.750          46.000
 16  2 13  2  9  0.0000000  0 10G01G05G07G08G09G11G13G17G28G30
 129510374.158 6 100917194.38345  24645002.080
  24645006.560          39.750          36.750
 130724389.049 7 101863182.17545  24876027.200
  24876029.200          42.250          38.000
 108238276.542 9  84341590.08248  20597021.640
  20597020.700          50.000          45.500
 120026499.647 8  93527221.07646  22840252.740
  22840255.040          46.000          40.000
 119734433.920 8  93299604.40646  22784678.600
  22784681.260          46.250          39.250
 120878064.821 8  94190724.27844  23002319.040
  23002318.420          45.750          34.000
 123435247.279 7  96183336.33044  23488940.640
  23488940.800          44.250          35.000
 123423874.155 8  96174450.52044  23486771.040
  23486771.520          45.250          35.750
 111603974.392 9  86964162.65647  21237511.540
  21237510.820          49.750          42.500
 108032504.913 9  84181253.30748  20557872.300
  20557874.060          50.750          46.250
 16  2 13  2  9 30.0000000  0 10G01G05G07G08G09G11G13G17G28G30
 129436532.063 6 100859655.12345  24630950.580
  24630954.660          41.250          36.750
 130772538.837 7 101900701.45746  24885190.160
  24885191.860          44.500          39.000
 108255642.421 9  84355121.94948  20600326.220
  20600325.360          49.500          45.500
 120102586.439 8  93586509.48746  22854731.420
  22854734.140          45.250          40.000
 119838160.952 8  93380430.66145  22804417.160
  22804419.720          46.000          38.500
 120827213.096 8  94151099.59444  22992642.140
  22992641.460          45.750          33.250
 123340855.686 7  96109784.50844  23470978.420
  23470978.840          44.500          35.000
 123320511.052 8  96093907.98245  23467101.440
  23467102.100          45.250          38.000
 111581153.358 9  86946380.06247  21233168.640
  21233168.080          49.500          43.250
 108005938.100 9  84160551.91348  20552816.880
  20552818.500          50.750          46.000
 16  2 13  2 10  0.0000000  0 10G01G05G07G08G09G11G13G17G28G30
 129362784.450 6 100802189.45144  24616917.340
  24616920.840          40.750          35.000
 130820974.097 8 101938443.20246  24894407.560
  24894409.020          45.000          39.000
 108273322.980 9  84368899.00748  20603690.520
  20603689.940          49.500          45.500
 120179057.336 8  93646097.20046  22869283.420
  22869285.960          45.000          39.750
 119942096.988 8  93461419.77046  22824195.600
  22824198.020          46.000          39.000
 120776768.576 8  94111792.22744  22983042.960
  22983042.300          46.250          33.750
 123246753.038 7  96036457.83945  23453071.360
  23453072.160          44.500          36.000
 123217306.215 8  96013488.76745  23447462.020
  23447462.800          45.000          38.000
 111558606.878 9  86928811.41147  21228878.080
  21228877.420          49.500          43.250
 107979622.219 9  84140046.04648  20547809.280
  20547810.440          50.750          46.000
 16  2 13  2 10 30.0000000  0 10G01G05G07G08G09G11G13G17G28G30
 129289138.339 6 100744802.93245  24602902.640
  24602906.160          40.750          38.000
 130869696.547 8 101976408.77045  24903679.340
  24903680.620          45.750          36.750
 108291322.843 9  84382924.88148  20607115.780
  20607115.000          49.750          45.250
 120255913.964 8  93705985.49546  22883908.720
  22883910.820          45.250          39.750
 120046243.436 8  93542572.85246  22844014.160
  22844016.200          46.000          39.000
 120726738.005 8  94072807.42244  22973522.620
  22973521.760          46.250          35.000
 123152946.130 8  95963361.62344  23435220.460
  23435221.140          45.000          34.750
 123114266.231 8  95933197.97746  23427854.060
  23427854.940          46.000          39.250
 111536337.721 9  86911458.84947  21224640.360
  21224639.520          49.500          43.500
 107953562.522 9  84119739.81148  20542850.320
  20542851.160          50.750          45.750
 16  2 13  2 11  0.0000000  0 10G01G05G07G08G09G11G13G17G28G30
 129215597.586 6 100687498.50144  24588907.760
  24588911.780          41.000          35.500
 130918703.789 8 102014596.25644  24913005.300
  24913006.340          46.000          32.500
 108309643.770 9  84397200.94048  20610602.180
  20610601.220          49.500          45.500
 120333154.741 8  93766173.10746  22898607.180
  22898609.520          45.750          39.250
 120150598.356 8  93623888.34845  22863872.440
  22863874.220          45.750          38.250
 120677124.598 8  94034147.69044  22964081.480
  22964080.540          45.750          34.500
 123059438.791 8  95890498.83144  23417426.680
  23417427.140          45.000          34.250
 123011395.115 8  95853038.77645  23408278.400
  23408279.260          46.500          37.750
 111514346.263 9  86894322.66547  21220455.660
  21220454.520          49.750          43.000
 107927760.957 9  84099634.72048  20537940.360
  20537941.340          50.750          46.250
 16  2 13  2 11 30.0000000  0 10G01G05G07G08G09G11G13G17G28G30
 129142161.642 6 100630275.70145  24574933.300
  24574937.440          41.500          37.250
 130967989.592 8 102053000.82942  24922384.000
  24922384.720          45.000          27.250
 108328282.968 9  84411724.99748  20614149.200
  20614148.200          50.000          45.000
 120410773.351 8  93826655.17646  22913377.420
  22913379.480          45.750          39.250
 120255155.410 8  93705361.36145  22883769.000
  22883770.720          46.000          37.750
 120627927.389 8  93995812.23344  22954719.580
  22954718.640          46.250          34.750
 122966229.812 8  95817868.47444  23399689.660
  23399689.960          45.500          35.000
 122908690.980 8  95773009.69145  23388734.580
  23388735.440          46.250          38.000
 111492627.606 9  86877399.06547  21216322.860
  21216321.360          50.250          42.500
 107902215.137 9  84079728.90548  20533079.160
  20533080.340          51.000          46.000
 16  2 13  2 12  0.0000000  0 10G01G05G07G08G09G11G13G17G28G30
 129068837.362 6 100573139.94645  24560980.200
  24560984.280          41.500          37.750
 131017555.155 7 102091623.39842  24931815.980
  24931815.900          42.750          27.250
 108347245.018 9  84426500.63048  20617757.660
  20617756.640          49.500          45.000
 120488770.845 7  93887432.45046  22928219.720
  22928221.920          44.500          39.750
 120359915.749 7  93786992.78345  22903704.020
  22903705.760          44.750          38.750
 120579152.554 8  93957805.92445  22945437.780
  22945437.080          46.000          37.000
 122873325.853 7  95745475.84144  23382010.460
  23382010.820          44.250          33.250
 122806159.999 8  95693115.51445  23369223.440
  23369224.300          46.250          37.250
 111471184.552 9  86860690.22747  21212242.580
  21212240.720          50.000          43.250
 107876929.974 9  84060026.20548  20528267.500
  20528268.900          50.750          46.250
 16  2 13  2 12 30.0000000  0 10G01G05G07G08G09G11G13G17G28G30
 128995625.036 6 100516091.43145  24547048.240
  24547052.900          40.750          36.500
 131067395.120 6 102130459.77843  24941299.960
  24941299.940          40.250          28.750
 108366527.997 9  84441526.34048  20621426.840
  20621426.060          49.250          45.000
 120567142.129 7  93948500.96946  22943133.220
  22943135.860          44.750          39.000
 120464873.878 8  93868778.32246  22923676.760
  22923678.740          45.000          39.750
 120530799.649 8  93920128.38044  22936236.420
  22936235.880          45.750          35.500
 122780727.078 7  95673320.99244  23364389.420
  23364389.900          43.750          35.750
 122703802.179 8  95613356.24845  23349745.380
  23349745.900          45.250          38.500
 111450013.296 9  86844193.17147  21208213.940
  21208212.080          50.000          42.750
 107851903.937 9  84040525.41548  20523505.080
  20523506.680          50.750          46.250
 16  2 13  2 13  0.0000000  0 10G01G05G07G08G09G11G13G17G28G30
 128922526.762 6 100459131.75245  24533137.720
  24533142.660          41.000          36.500
 131117505.898 5 102169507.15444  24950835.620
  24950835.480          37.500          33.500
 108386131.466 9  84456801.77748  20625157.060
  20625156.480          49.250          45.000
 120645883.620 7  94009857.98546  22958117.380
  22958119.900          44.500          40.750
 120570026.003 8  93950715.01645  22943686.540
  22943688.620          45.250          38.500
 120482870.388 8  93882780.97245  22927115.920
  22927115.440          46.000          37.750
 122688435.068 7  95601405.22444  23346826.600
  23346827.520          44.250          34.250
 122601619.121 8  95533733.16345  23330300.520
  23330301.000          45.500          37.250
 111429111.813 9  86827906.33247  21204236.640
  21204234.580          50.000          42.750
 107827137.191 9  84021226.66948  20518792.100
  20518793.720          50.750          46.500
 16  2 13  2 13 30.0000000  0 10G01G05G07G08G09G11G13G17G28G30
 128849551.346 6 100402267.82844  24519250.880
  24519255.380          41.250          34.500
 131167890.322 5 102208767.66244  24960422.740
  24960423.500          38.500          33.500
 108406062.226 9  84472332.24948  20628949.780
  20628949.240          49.750          45.250
 120724998.344 7  94071505.85546  22973172.620
  22973175.000          44.750          39.000
 120675375.291 8  94032805.37345  22963733.740
  22963735.960          45.750          38.000
 120435373.229 8  93845770.24744  22918077.600
  22918076.740          46.000          35.500
 122596458.300 7  95529735.06245  23329323.720
  23329324.760          44.750          37.250
 122499618.864 8  95454252.55845  23310890.220
  23310891.180          45.000          38.500
 111408484.881 9  86811833.43147  21200311.500
  21200309.520          50.000          43.000
 107802636.716 9  84002135.40348  20514129.800
  20514131.380          50.750          46.250
 16  2 13  2 14  0.0000000  0 10G01G05G07G08G09G11G13G17G28G30
 128776697.202 7 100345498.41544  24505387.280
  24505391.360          42.250          35.250
 131218541.120 5 102248235.77146  24970060.600
  24970062.680          38.750          39.000
 108426316.209 9  84488114.58247  20632804.040
  20632803.320          49.750          44.500
 120804478.906 8  94133438.74846  22988297.340
  22988299.980          45.500          39.250
 120780914.284 8  94115043.53445  22983817.320
  22983819.360          46.250          38.250
 120388305.946 8  93809094.50444  22909120.720
  22909120.160          45.250          35.250
 122504795.032 8  95458309.19444  23311880.820
  23311881.640          45.500          35.500
 122397798.629 8  95374912.22045  23291514.140
  23291515.280          46.000          38.500
 111388126.822 9  86795970.04547  21196437.400
  21196435.700          50.000          43.000
 107778399.044 9  83983248.93748  20509517.440
  20509519.060          50.750          45.750
 16  2 13  2 14 30.0000000  0 10G01G05G07G08G09G11G13G17G28G30
 128703964.537 7 100288823.63345  24491546.720
  24491550.900          43.000          36.000
 131269452.524 6 102287906.98345  24979748.780
  24979750.540          40.500          37.500
 108446891.153 9  84504147.01047  20636719.320
  20636718.380          49.500          44.750
 120884320.299 8  94195652.83146  23003490.620
  23003492.960          45.250          40.000
 120886637.394 8  94197425.18945  23003936.040
  23003937.800          46.000          37.500
 120341667.675 8  93772753.02645  22900245.560
  22900245.400          46.250          38.000
 122413444.950 8  95387127.36645  23294497.560
  23294498.260          45.750          36.750
 122296158.615 8  95295712.29545  23272172.720
  23272173.760          46.500          38.750
 111368033.663 9  86780313.06647  21192613.700
  21192611.960          49.750          42.750
 107754422.433 9  83964565.87948  20504954.760
  20504956.500          50.750          46.000
 16  2 13  2 15  0.0000000  0 10G01G05G07G08G09G11G13G17G28G30
 128631361.797 7 100232250.06745  24477730.900
  24477735.280          43.500          36.750
 131320627.320 7 102327783.40344  24989487.300
  24989488.900          42.500          35.250
 108467793.500 9  84520434.55747  20640696.960
  20640695.980          49.750          44.750
 120964524.853 7  94258149.88545  23018752.820
  23018755.180          44.750          38.750
 120992547.311 8  94279952.39546  23024090.160
  23024091.840          45.000          39.750
 120295466.711 8  93736752.36045  22891453.940
  22891453.540          45.750          38.500
 122322416.107 8  95316195.85745  23277175.260
  23277176.120          45.250          36.250
 122194706.498 8  95216658.77546  23252867.120
  23252867.840          46.750          39.750
 111348209.856 9  86764865.97747  21188841.200
  21188839.540          49.750          43.250
 107730713.536 9  83946091.42548  20500443.140
  20500444.960          50.750          46.500
 16  2 13  2 15 30.0000000  0 10G01G05G07G08G09G11G13G17G28G30
 128558888.991 7 100175777.78845  24463939.920
  24463944.180          42.500          38.000
 131372060.173 7 102367860.93046  24999274.680
  24999276.020          42.250          39.750
 108489020.914 9  84536975.40948  20644736.420
  20644735.500          49.750          45.000
 121045087.105 7  94320925.67546  23034083.320
  23034085.820          44.250          40.500
 121098638.177 8  94362620.60045  23044278.640
  23044280.160          45.250          38.500
 120249702.110 8  93701091.69145  22882745.200
  22882744.720          45.500          36.750
 122231708.251 8  95245514.47245  23259914.020
  23259914.920          45.000          36.000
 122093441.704 8  95137751.24046  23233597.280
  23233597.720          47.500          39.000
 111328651.076 9  86749625.38647  21185119.080
  21185117.680          49.750          43.000
 107707270.408 9  83927824.07248  20495981.980
  20495983.940          50.500          46.000
 16  2 13  2 16  0.0000000  0 10G01G05G07G08G09G11G13G17G28G30
 128486552.569 6 100119411.76745  24450174.620
  24450179.060          41.750          38.000
 131423750.781 7 102408139.30345  25009111.280
  25009112.240          43.000          36.000
 108510577.372 9  84553772.66347  20648838.500
  20648837.580          49.750          44.250
 121126007.760 7  94383980.73445  23049482.060
  23049484.320          44.500          38.250
 121204910.725 7  94445430.34945  23064501.340
  23064503.200          43.500          37.500
 120204379.715 8  93665775.58245  22874120.400
  22874119.980          45.250          38.500
 122141327.611 7  95175088.06544  23242715.020
  23242715.880          44.750          34.250
 121992370.217 8  95058994.31546  23214364.080
  23214364.300          47.000          39.000
 111309359.707 9  86734593.17147  21181447.880
  21181446.640          49.500          43.000
 107684097.690 9  83909767.43248  20491572.300
  20491574.260          50.750          46.000
 16  2 13  2 16 30.0000000  0 10G01G05G07G08G09G11G13G17G28G30
 128414352.672 7 100063152.17746  24436435.100
  24436440.040          42.750          39.000
 131475693.885 7 102448614.40345  25018996.060
  25018996.460          43.500          38.250
 108532460.837 9  84570824.72348  20653002.920
  20653001.820          50.000          45.000
 121207281.418 8  94447310.87446  23064948.300
  23064950.300          45.000          39.000
 121311359.290 7  94528377.25546  23084757.540
  23084759.680          43.000          39.000
 120159499.067 8  93630803.69145  22865579.800
  22865579.680          45.750          37.250
 122051274.049 8  95104916.50144  23225578.400
  23225579.160          45.500          34.500
 121891491.267 8  94980387.41246  23195167.560
  23195167.480          46.500          39.500
 111290332.020 9  86719766.42847  21177826.800
  21177825.960          49.500          43.250
 107661193.616 9  83891920.11348  20487213.840
  20487215.440          50.750          45.750
 16  2 13  2 17  0.0000000  0 11G01G05G07G08G09G11G13G17G19G28G30
 128342292.935 7 100007001.77145  24422722.600
  24422727.320          42.500          36.000
 131527887.267 7 102489284.56245  25028928.660
  25028928.940          43.250          37.000
 108554672.503 9  84588132.53748  20657229.720
  20657228.680          49.750          45.250
 121288905.837 8  94510914.30646  23080481.060
  23080482.880          45.000          39.500
 121417981.598 7  94611459.53746  23105046.760
  23105049.240          43.250          39.500
 120115063.083 8  93596178.31545  22857124.100
  22857123.660          45.500          38.500
 121961550.664 8  95035002.19244  23208504.920
  23208504.880          45.750          35.500
 121790807.641 8  94901932.72845  23176007.940
  23176007.660          46.250          38.250
 133120738.877 5 103730454.89145  25332035.200
  25332036.060          38.250          36.250
 111271567.231 9  86705144.55247  21174255.880
  21174255.440          49.500          43.750
 107638559.921 9  83874283.48848  20482906.800
  20482908.080          50.750          45.750
 16  2 13  2 17 30.0000000  0 11G01G05G07G08G09G11G13G17G19G28G30
 128270374.871 6  99950961.75245  24409036.960
  24409041.480          41.500          38.250
 131580326.630 7 102530146.42944  25038907.660
  25038907.440          42.500          33.500
 108577211.463 9  84605695.36148  20661518.640
  20661517.820          49.500          45.000
 121370876.871 7  94574787.85246  23096079.680
  23096081.500          44.250          39.500
 121524773.441 7  94694673.94446  23125368.220
  23125371.160          42.750          39.000
 120071072.761 8  93561900.19145  22848753.000
  22848752.700          45.250          37.750
 121872158.588 8  94965346.08645  23191494.300
  23191494.340          45.750          37.000
 121690320.445 8  94823631.08145  23156885.720
  23156885.500          45.000          38.500
 132999469.879 5 103635959.86145  25308956.120
  25308958.440          38.750          37.500
 111253062.762 9  86690725.50947  21170734.660
  21170734.280          49.500          43.250
 107616196.213 9  83856857.24948  20478651.120
  20478652.420          50.750          45.750
 16  2 13  2 18  0.0000000  0 11G01G05G07G08G09G11G13G17G19G28G30
 128198609.351 6  99895040.60444  24395380.420
  24395384.740          40.250          35.000
 131633016.808 6 102571203.71144  25048934.520
  25048933.840          39.750          35.000
 108600086.372 9  84623519.96348  20665871.460
  20665870.600          49.250          45.000
 121453199.697 7  94638935.49546  23111745.180
  23111747.120          44.000          39.250
 121631739.879 7  94778024.37146  23145723.200
  23145726.580          43.750          39.750
 120027537.916 8  93527976.98045  22840468.440
  22840468.040          45.000          38.000
 121783108.399 8  94895956.38144  23174548.740
  23174548.360          45.250          35.500
 121590040.135 8  94745490.67245  23137802.800
  23137802.760          46.000          38.500
 132878173.649 6 103541443.58644  25285874.280
  25285876.140          40.250          33.250
 111234825.497 9  86676514.67847  21167264.320
  21167263.660          49.500          43.750
 107594111.559 9  83839648.43448  20474448.660
  20474449.940          50.750          46.250
 16  2 13  2 18 30.0000000  0 11G01G05G07G08G09G11G13G17G19G28G30
 128126994.534 6  99839236.88445  24381752.460
  24381756.980          39.750          36.500
 131685950.095 6 102612450.44243  25059006.980
  25059007.180          39.750          30.250
 108623293.166 9  84641603.18547  20670287.500
  20670286.580          49.500          44.250
 121535866.655 7  94703351.29845  23127476.140
  23127478.080          44.000          36.750
 121738873.171 7  94861504.84346  23166110.120
  23166113.320          44.000          40.000
 119984456.063 8  93494406.75445  22832270.260
  22832269.620          45.250          38.500
 121694398.108 8  94826831.53144  23157667.660
  23157667.360          45.500          32.750
 121489963.642 8  94667509.05646  23118758.880
  23118758.900          46.500          39.500
 132756847.437 6 103446903.88644  25262786.500
  25262788.020          41.250          34.750
 111216849.401 9  86662507.35747  21163843.700
  21163842.820          49.750          43.000
 107572302.213 9  83822654.16348  20470298.520
  20470299.880          50.750          46.250
 16  2 13  2 19  0.0000000  0 11G01G05G07G08G09G11G13G17G19G28G30
 128055532.802 6  99783552.46444  24368153.640
  24368158.600          39.750          35.500
 131739123.360 6 102653884.16644  25069125.060
  25069125.420          39.000          32.000
 108646831.500 9  84659944.75947  20674766.660
  20674765.860          49.500          44.750
 121618874.515 7  94768032.75545  23143271.620
  23143273.780          43.500          38.000
 121846169.896 7  94945112.65146  23186528.020
  23186531.380          43.500          40.250
 119941828.926 7  93461190.85245  22824158.540
  22824157.820          44.750          37.000
 121606029.463 8  94757972.90444  23140851.580
  23140851.460          45.750          35.500
 121390092.749 8  94589687.66746  23099754.100
  23099754.020          47.250          39.000
 132635493.200 6 103352342.32245  25239693.380
  25239695.160          40.250          36.500
 111199132.700 9  86648702.16047  21160472.380
  21160471.400          49.750          43.500
 107550768.602 9  83805874.73848  20466200.640
  20466202.160          50.500          46.000
 16  2 13  2 19 30.0000000  0 11G01G05G07G08G09G11G13G17G19G28G30
 127984228.768 5  99727990.92045  24354585.060
  24354589.740          38.750          37.500
 131792535.092 6 102695503.65044  25079288.320
  25079290.880          40.250          32.750
 108670703.662 9  84678546.44847  20679309.360
  20679308.500          49.500          44.750
 121702222.202 7  94832979.02145  23159131.900
  23159134.340          42.750          38.000
 121953628.911 7  95028846.92746  23206976.760
  23206980.120          43.750          40.000
 119899660.186 7  93428332.14146  22816133.820
  22816133.440          44.750          39.000
 121518006.697 8  94689383.79044  23124101.260
  23124101.200          45.250          35.250
 121290431.734 8  94512029.81846  23080789.220
  23080789.240          47.000          40.250
 132514114.493 6 103257761.73944  25216595.680
  25216597.340          41.750          33.750
 111181675.683 9  86635099.32047  21157150.420
  21157149.240          49.750          43.250
 107529513.523 9  83789312.34348  20462155.880
  20462157.460          50.750          46.250
 16  2 13  2 20  0.0000000  0 11G01G05G07G08G09G11G13G17G19G28G30
 127913083.662 6  99672553.29643  24341046.560
  24341051.240          39.250          30.500
 131846180.509 6 102737305.28844  25089496.860
  25089499.600          41.500          33.500
 108694908.705 9  84697407.53047  20683915.520
  20683914.560          49.750          44.250
 121785905.037 7  94898186.43145  23175055.940
  23175058.540          43.500          37.500
 122061245.650 7  95112704.10345  23227455.740
  23227458.900          43.750          38.750
 119857950.299 8  93395830.97645  22808196.700
  22808196.360          45.250          37.000
 121430330.787 8  94621064.94044  23107416.920
  23107416.780          45.500          35.250
 121190981.150 8  94434535.93046  23061864.440
  23061864.700          47.500          39.750
 132392712.157 7 103163162.76545  25193493.720
  25193495.280          42.000          36.250
 111164475.633 9  86621696.71347  21153877.380
  21153876.080          49.750          43.250
 107508536.428 9  83772966.58348  20458164.120
  20458165.640          50.750          46.250
 16  2 13  2 20 30.0000000  0 11G01G05G07G08G09G11G13G17G19G28G30
 127842097.668 6  99617239.60045  24327538.440
  24327542.600          39.250          38.000
 131900054.313 6 102779284.87745  25099748.860
  25099751.640          41.000          37.250
 108719444.269 9  84716526.15747  20688584.540
  20688583.620          49.500          44.500
 121869917.664 7  94963650.82545  23191042.860
  23191045.220          43.500          37.750
 122169014.411 7  95196679.74046  23247963.340
  23247966.380          43.250          39.000
 119816698.759 7  93363686.97445  22800346.800
  22800346.540          44.750          38.250
 121343001.598 8  94553016.25744  23090798.660
  23090798.000          45.750          34.500
 121091740.157 8  94357205.37246  23042979.580
  23042979.920          46.500          39.750
 132271286.020 6 103068545.23044  25170387.480
  25170388.980          41.250          32.250
 111147528.231 9  86608490.96747  21150652.320
  21150651.080          49.500          43.500
 107487835.437 9  83756835.95648  20454224.860
  20454226.400          50.750          46.500
 16  2 13  2 21  0.0000000  0 11G01G05G07G08G09G11G13G17G19G28G30
 127771281.433 6  99562058.18445  24314062.540
  24314066.580          39.000          36.750
 131954160.902 6 102821445.81544  25110044.820
  25110047.540          41.250          35.500
 108744318.632 9  84735908.79148  20693317.940
  20693317.120          49.500          45.000
 121954264.917 7  95029375.95145  23207093.700
  23207095.760          42.750          37.500
 122276940.015 7  95280777.56545  23268501.000
  23268504.040          43.500          38.000
 119775915.386 7  93331907.75046  22792585.600
  22792585.540          44.750          39.750
 121256029.190 8  94485245.59644  23074248.200
  23074247.700          45.750          35.250
 120992719.037 8  94280046.13845  23024136.460
  23024136.800          47.000          38.750
 132149845.887 6 102973916.76245  25147277.980
  25147279.500          40.500          36.500
 111130840.364 9  86595487.45147  21147476.500
  21147475.420          49.250          43.500
 107467419.349 9  83740927.32148  20450339.900
  20450341.340          50.750          46.500
 16  2 13  2 21 30.0000000  0 11G01G05G07G08G09G11G13G17G19G28G30
 127700632.381 6  99507007.03845  24300618.420
  24300622.320          39.500          36.750
 132008491.831 6 102863781.58145  25120383.980
  25120386.340          41.250          36.500
 108769526.875 9  84755551.58547  20698114.940
  20698113.960          49.500          44.250
 122038938.655 7  95095355.47845  23223206.600
  23223208.680          43.250          37.250
 122385014.136 7  95364991.17545  23289067.020
  23289069.700          44.000          38.250
 119735596.762 8  93300490.69045  22784913.280
  22784913.140          45.500          38.750
 121169410.950 8  94417750.89944  23057765.120
  23057764.600          45.250          34.750
 120893914.373 8  94203055.55846  23005334.480
  23005334.660          46.500          39.750
 132028388.464 6 102879274.83145  25124165.060
  25124166.640          41.750          38.250
 111114405.022 9  86582680.73047  21144348.840
  21144347.900          49.500          43.000
 107447283.829 9  83725237.31848  20446508.340
  20446509.700          50.750          46.500
 16  2 13  2 22  0.0000000  0 11G01G05G07G08G09G11G13G17G19G28G30
 127630155.810 6  99452090.31645  24287206.860
  24287211.120          39.750          37.250
 132063046.542 7 102906291.71346  25130766.060
  25130767.700          42.000          39.250
 108795071.720 9  84775456.66247  20702975.940
  20702974.940          49.500          44.750
 122123938.223 7  95161588.91645  23239381.660
  23239383.620          43.750          37.500
 122493236.169 7  95449320.03945  23309661.280
  23309663.600          43.750          38.750
 119695747.137 8  93269439.08545  22777330.560
  22777330.040          46.000          37.750
 121083151.448 8  94350535.73945  23041350.240
  23041350.140          45.250          37.000
 120795330.614 8  94126237.10845  22986574.580
  22986574.380          46.500          38.750
 131906918.427 6 102784623.04745  25101049.920
  25101051.200          41.750          36.250
 111098223.349 9  86570071.64947  21141269.500
  21141268.800          49.750          43.000
 107427432.215 9  83709768.54548  20442730.660
  20442732.200          51.000          46.750
 16  2 13  2 22 30.0000000  0 11G01G05G07G08G09G11G13G17G19G28G30
 127559856.182 6  99397311.44845  24273829.300
  24273833.360          39.000          36.250
 132117824.244 7 102948975.59145  25141190.160
  25141191.600          42.000          38.000
 108820955.316 9  84795625.71047  20707901.440
  20707900.520          49.500          44.750
 122209262.271 7  95228075.17745  23255618.520
  23255620.400          44.250          38.250
 122601604.866 7  95533763.17045  23330283.020
  23330285.520          43.500          38.500
 119656370.250 8  93238755.81345  22769837.440
  22769836.880          45.750          37.750
 120997254.966 8  94283603.46745  23025004.440
  23025004.800          45.750          36.000
 120696971.595 8  94049593.77446  22967857.360
  22967857.020          46.000          40.000
 131785439.590 5 102689964.31744  25077933.000
  25077933.640          38.500          33.750
 111082295.875 9  86557660.65547  21138238.680
  21138237.840          49.750          43.250
 107407867.127 9  83694523.03848  20439007.600
  20439009.180          51.000          46.500
 16  2 13  2 23  0.0000000  0 11G01G05G07G08G09G11G13G17G19G28G30
 127489735.141 6  99342671.72945  24260485.640
  24260489.920          39.000          38.000
 132172819.643 6 102991829.15545  25151655.320
  25151656.280          40.500          37.000
 108847176.973 9  84816058.17647  20712891.200
  20712890.340          49.500          44.500
 122294906.900 7  95294811.26245  23271916.400
  23271918.220          44.000          37.750
 122710115.936 7  95618317.25645  23350932.160
  23350934.640          44.250          38.750
 119617466.744 8  93208441.42145  22762434.260
  22762433.680          46.000          37.750
 120911722.745 8  94216955.04444  23008728.040
  23008728.680          45.750          35.750
 120598838.262 8  93973126.30046  22949182.860
  22949182.940          46.750          39.000
 131663952.905 4 102595299.56944  25054813.840
  25054815.180          35.750          34.250
 111066619.873 9  86545445.62147  21135255.680
  21135254.660          49.750          43.000
 107388588.315 9  83679500.60948  20435339.020
  20435340.460          51.000          46.750
 16  2 13  2 23 30.0000000  0 11G01G05G07G08G09G11G13G17G19G28G30
 127419793.396 6  99288171.74345  24247176.200
  24247180.380          40.000          37.500
 132228027.763 6 103034848.43944  25162161.540
  25162161.980          41.250          34.000
 108873734.764 9  84836752.55647  20717944.880
  20717944.120          49.250          44.750
 122380866.802 7  95361792.99645  23288274.060
  23288276.200          43.500          37.500
 122818764.238 7  95702978.24946  23371607.300
  23371609.820          43.250          39.000
 119579036.231 8  93178495.61245  22755121.360
  22755120.380          46.000          38.000
 120826555.147 8  94150590.71345  22992521.080
  22992521.780          45.750          36.250
 120500930.860 8  93896834.87446  22930551.660
  22930551.640          46.500          40.250
 131542458.695 6 102500628.93345  25031694.320
  25031695.460          41.000          38.000
 111051191.652 9  86533423.65047  21132319.800
  21132318.720          49.500          43.500
 107369594.520 9  83664700.26848  20431724.480
  20431726.040          50.750          46.750
 16  2 13  2 24  0.0000000  0 11G01G05G07G08G09G11G13G17G19G28G30
 127350037.826 6  99233816.79745  24233902.520
  24233906.020          40.000          36.000
 132283449.858 6 103078034.46343  25172708.120
  25172708.440          40.000          31.500
 108900633.372 9  84857712.51947  20723063.600
  20723062.660          49.500          44.500
 122467143.362 7  95429021.50445  23304691.860
  23304694.040          43.500          37.250
 122927550.995 7  95787747.14046  23392308.500
  23392311.400          42.250          39.000
 119541085.079 8  93148923.33145  22747899.420
  22747898.460          45.750          38.750
 120741758.633 8  94084515.56545  22976384.960
  22976385.540          46.250          37.000
 120403255.419 8  93820724.21646  22911964.540
  22911964.680          46.750          41.500
 131420963.321 6 102405957.38746  25008574.740
  25008575.480          40.750          39.000
 111036014.287 9  86521597.14947  21129431.660
  21129430.540          49.750          43.250
 107350890.913 9  83650126.03948  20428165.180
  20428167.000          50.750          47.000
 16  2 13  2 24 30.0000000  0 11G01G05G07G08G09G11G13G17G19G28G30
 127280472.040 6  99179609.77345  24220664.480
  24220667.960          39.500          37.000
 132339083.637 6 103121385.40544  25183294.720
  25183295.060          40.500          33.750
 108927873.892 9  84878938.90848  20728247.400
  20728246.340          49.500          45.000
 122553734.100 7  95496494.79645  23321169.340
  23321171.600          44.250          37.750
 123036473.868 7  95872622.07745  23413035.900
  23413038.780          42.750          38.250
 119503615.841 8  93119726.55945  22740769.100
  22740768.280          46.250          37.500
 120657336.244 8  94018731.94044  22960320.000
  22960320.320          45.750          35.250
 120305814.620 8  93744796.39146  22893422.020
  22893422.280          46.250          41.750
 131299469.633 6 102311287.12945  24985455.380
  24985455.820          40.000          36.250
 111021087.111 9  86509965.61647  21126591.100
  21126589.800          49.500          43.500
 107332479.116 9  83635779.19448  20424661.580
  20424663.320          50.750          46.750
 16  2 13  2 25  0.0000000  0 11G01G05G07G08G09G11G13G17G19G28G30
 127211097.876 6  99125552.06945  24207462.960
  24207466.960          40.750          36.250
 132394924.710 7 103164897.92444  25193920.600
  25193921.020          42.000          32.750
 108955455.348 9  84900430.94147  20733496.020
  20733495.000          49.500          44.750
 122640635.652 7  95564210.31845  23337706.200
  23337708.060          43.500          37.500
 123145528.971 7  95957600.05945  23433788.620
  23433791.080          42.750          38.000
 119466629.445 8  93090906.03045  22733731.080
  22733730.280          46.500          37.750
 120573289.701 8  93953241.15744  22944326.600
  22944326.120          45.750          35.250
 120208609.472 8  93669052.18846  22874924.460
  22874924.920          46.500          40.750
 131177978.818 5 102216619.06944  24962336.240
  24962336.920          37.750          33.750
 111006407.440 9  86498526.93647  21123797.580
  21123796.220          49.500          43.250
 107314359.149 9  83621659.74848  20421213.480
  20421215.000          50.750          46.750
 16  2 13  2 25 30.0000000  0 11G01G05G07G08G09G11G13G17G19G28G30
 127141916.369 6  99071644.46545  24194298.400
  24194302.300          41.000          38.750
 132450968.607 6 103208568.50643  25204585.140
  25204586.020          40.750          31.250
 108983376.617 9  84922187.77348  20738809.160
  20738808.460          49.250          45.250
 122727842.868 7  95632163.97345  23354301.280
  23354303.300          43.250          37.500
 123254711.424 7  96042677.29545  23454565.640
  23454568.040          42.250          38.250
 119430125.741 8  93062461.62445  22726784.860
  22726783.780          46.500          38.000
 120489619.381 8  93888043.51245  22928404.920
  22928403.960          46.000          36.000
 120111640.182 8  93593491.76146  22856471.860
  22856472.340          46.750          41.250
 131056491.594 6 102121953.84045  24939217.480
  24939218.020          39.500          38.250
 110991972.313 9  86487278.80347  21121050.660
  21121049.360          49.500          43.250
 107296530.112 9  83607767.01448  20417820.620
  20417822.220          50.750          46.500
 16  2 13  2 26  0.0000000  0 11G01G05G07G08G09G11G13G17G19G28G30
 127072932.767 6  99017891.08845  24181171.220
  24181175.000          41.000          37.000
 132507214.603 6 103252396.53744  25215288.360
  25215289.160          40.750          34.000
 109011640.534 9  84944211.61048  20744187.460
  20744187.000          49.500          45.000
 122815355.276 7  95700355.48245  23370954.340
  23370956.460          43.000          37.250
 123364020.736 7  96127853.36046  23475366.660
  23475368.900          43.500          39.250
 119394109.462 8  93034397.02045  22719930.940
  22719930.080          46.000          38.000
 120406330.295 8  93823142.96244  22912555.640
  22912554.740          46.250          35.500
 120014911.776 8  93518119.04746  22838064.960
  22838065.480          47.000          40.500
 130935012.810 7 102027295.16845  24916101.260
  24916101.320          43.250          38.250
 110977783.349 9  86476222.48847  21118350.600
  21118349.160          49.500          42.500
 107278995.483 9  83594103.68348  20414483.860
  20414485.600          50.750          46.500
 16  2 13  2 26 30.0000000  0 11G01G05G07G08G09G11G13G17G19G28G30
 127004150.317 6  98964294.41345  24168082.200
  24168085.900          40.750          38.500
 132563659.674 6 103296379.72744  25226029.180
  25226031.220          40.000          35.000
 109040247.862 9  84966503.03548  20749631.240
  20749630.620          49.500          45.000
 122903170.474 7  95768782.90944  23387664.800
  23387667.360          43.250          35.500
 123473454.282 7  96213126.22446  23496191.440
  23496193.740          43.250          39.750
 119358582.448 8  93006713.68545  22713170.280
  22713169.300          46.250          37.000
 120323425.035 8  93758541.52645  22896779.300
  22896778.900          46.000          37.250
 119918426.490 8  93442935.76846  22819704.340
  22819705.020          46.250          41.750
 130813544.935 7 101932645.00546  24892987.120
  24892986.860          43.750          39.500
 110963838.942 9  86465356.73947  21115697.140
  21115695.500          49.750          43.000
 107261756.546 9  83580670.75448  20411203.440
  20411205.120          50.750          46.500
 16  2 13  2 27  0.0000000  0 11G01G05G07G08G09G11G13G17G19G28G30
 126935571.702 6  98910856.63246  24155031.820
  24155035.640          40.000          39.000
 132620300.491 6 103340515.41744  25236807.200
  25236809.760          39.500          32.000
 109069198.898 9  84989062.27347  20755140.380
  20755139.640          49.500          44.750
 122991285.266 7  95837443.79845  23404432.520
  23404435.060          43.500          36.000
 123583008.939 7  96298493.49846  23517039.080
  23517041.260          43.250          40.500
 119323546.496 8  92979412.96846  22706503.140
  22706502.320          46.250          39.000
 120240906.124 8  93694241.13445  22881076.460
  22881076.460          46.000          37.000
 119822186.341 8  93367943.50646  22801390.460
  22801391.020          47.250          41.750
 130692089.712 6 101838004.68845  24869875.100
  24869874.680          41.000          38.000
 110950137.682 9  86454680.45947  21113089.920
  21113088.400          49.500          43.750
 107244814.120 9  83567468.87448  20407979.360
  20407980.980          50.750          46.500
 16  2 13  2 27 30.0000000  0 11G01G05G07G08G09G11G13G17G19G28G30
 126867201.042 6  98857580.83245  24142021.060
  24142025.020          41.000          38.000
 132677135.659 5 103384802.44344  25247622.580
  25247625.660          38.000          33.000
 109098495.177 9  85011890.54247  20760715.260
  20760714.520          49.500          44.250
 123079698.203 7  95906336.98845  23421257.020
  23421259.300          43.750          37.000
 123692683.074 7  96383953.83046  23537909.140
  23537911.980          44.000          39.500
 119289004.430 8  92952497.11045  22699929.880
  22699929.080          46.000          38.500
 120158776.977 8  93630244.44744  22865447.760
  22865447.840          46.500          35.750
 119726194.592 8  93293144.80146  22783123.940
  22783124.340          47.500          41.000
 130570651.016 6 101743377.32545  24846765.700
  24846765.680          41.250          36.750
 110936679.610 9  86444193.67647  21110528.940
  21110527.620          49.500          43.500
 107228170.522 9  83554499.85448  20404812.160
  20404813.720          50.750          46.250
 16  2 13  2 28  0.0000000  0 11G01G05G07G08G09G11G13G17G19G28G30
 126799042.268 6  98804470.19245  24129050.740
  24129055.000          41.500          38.750
 132734163.383 6 103429239.63044  25258474.700
  25258477.900          40.500          32.500
 109128137.726 9  85034988.63547  20766356.180
  20766355.320          49.500          44.250
 123168407.269 7  95975460.93745  23438137.860
  23438139.920          43.250          37.500
 123802474.717 7  96469505.74746  23558801.780
  23558804.460          44.000          39.000
 119254959.239 8  92925968.42645  22693451.140
  22693450.660          46.500          38.000
 120077041.343 8  93566554.39044  22849894.020
  22849894.000          47.250          35.500
 119630454.480 8  93218542.16846  22764905.360
  22764905.400          47.750          40.000
 130449232.310 7 101648765.45343  24823660.480
  24823659.980          43.250          30.750
 110923464.136 9  86433895.92547  21108014.060
  21108012.740          49.750          43.000
 107211827.761 9  83541765.25448  20401702.200
  20401703.680          50.750          46.000
 16  2 13  2 28 30.0000000  0 11G01G05G07G08G09G11G13G17G19G28G30
 126731091.861 7  98751521.87546  24116120.400
  24116124.600          42.250          39.250
 132791373.483 6 103473818.89045  25269361.860
  25269364.900          39.000          36.500
 109158120.904 9  85058352.15247  20772061.860
  20772061.020          49.500          44.250
 123257403.239 7  96044808.44245  23455072.960
  23455075.380          42.250          38.250
 123912374.617 7  96555142.00646  23579714.860
  23579717.780          43.750          39.750
 119221406.195 8  92899823.25245  22687066.200
  22687065.800          46.250          38.500
 119995695.441 8  93503168.00645  22834414.440
  22834414.100          46.500          37.250
 119534962.148 8  93144132.62146  22746733.860
  22746733.700          47.500          41.000
 130327829.579 6 101554165.96944  24800558.680
  24800556.540          41.250          33.500
 110910484.054 9  86423781.60047  21105543.940
  21105542.620          49.250          43.500
 107195780.412 9  83529260.83448  20398648.380
  20398649.760          50.750          46.000
 16  2 13  2 29  0.0000000  0 11G01G05G07G08G09G11G13G17G19G28G30
 126663359.890 6  98698743.76946  24103231.260
  24103235.860          41.750          40.250
 132848770.368 6 103518543.69244  25280284.740
  25280286.940          41.500          34.500
 109188452.409 9  85081987.09947  20777833.880
  20777832.940          49.500          44.500
 123346690.506 7  96114382.92244  23472063.400
  23472065.980          43.250          33.500
 124022387.134 7  96640866.01746  23600649.420
  23600652.420          43.750          39.500
 119188354.521 8  92874068.72145  22680776.580
  22680776.260          46.000          38.000
 119914749.027 8  93440092.90045  22819010.560
  22819009.940          46.000          37.000
 119439726.291 8  93069922.91746  22728611.180
  22728610.760          47.250          41.250
 130206452.425 5 101459586.56945  24777460.940
  24777459.520          36.750          36.500
 110897745.070 9  86413855.14647  21103119.640
  21103118.560          49.500          44.000
 107180036.759 9  83516993.06348  20395652.480
  20395653.720          50.750          46.250
 16  2 13  2 29 30.0000000  0 11G01G05G07G08G09G11G13G17G19G28G30
 126595847.336 7  98646136.67545  24090384.120
  24090388.460          42.250          38.500
 132906349.232 6 103563410.33344  25291242.040
  25291243.760          41.000          35.000
 109219130.609 9  85105892.19047  20783671.620
  20783670.500          49.000          44.250
 123436264.433 7  96184180.77745  23489108.660
  23489111.260          43.500          36.500
 124132507.230 7  96726673.89046  23621604.540
  23621607.460          44.000          39.750
 119155804.050 8  92848704.75745  22674582.260
  22674581.760          46.000          38.250
 119834201.667 8  93377328.78745  22803682.540
  22803682.140          46.000          36.250
 119344747.308 8  92995913.40846  22710537.020
  22710536.900          47.250          41.750
 130085100.923 6 101365027.18244  24754368.060
  24754367.420          39.750          35.750
 110885243.895 9  86404113.98547  21100740.600
  21100739.760          49.500          43.750
 107164595.885 9  83504961.22848  20392714.220
  20392715.320          50.750          45.750
 16  2 13  2 30  0.0000000  0 11G01G05G07G08G09G11G13G17G19G28G30
 126528556.998 7  98593702.70545  24077579.160
  24077583.460          42.000          37.500
 132964106.932 6 103608416.29144  25302233.400
  25302234.280          41.750          34.250
 109250155.637 9  85130067.54747  20789575.340
  20789574.300          49.500          44.500
 123526121.803 7  96254199.52345  23506208.100
  23506210.660          43.750          37.750
 124242732.106 7  96812563.37545  23642579.400
  23642582.520          43.500          38.000
 119123756.448 8  92823732.64945  22668483.880
  22668483.220          46.500          38.500
 119754056.388 8  93314877.95745  22788431.340
  22788430.920          46.500          36.500
 119250027.554 8  92922105.87746  22692512.280
  22692512.340          47.500          41.750
 129963777.607 6 101270489.69144  24731280.900
  24731280.460          39.750          34.750
 110872979.110 9  86394557.03047  21098406.680
  21098405.820          49.500          43.500
 107149458.730 9  83493166.05848  20389833.600
  20389834.740          50.750          46.000
 16  2 13  2 30 30.0000000  0 11G01G05G07G08G09G11G13G17G19G28G30
 126461492.866 6  98541444.99345  24064817.000
  24064821.460          41.000          37.000
 133022041.418 7 103653560.02543  25313258.180
  25313258.560          42.500          31.500
 109281529.048 9  85154514.35448  20795545.480
  20795544.720          49.250          45.000
 123616260.707 7  96324437.61745  23523361.320
  23523363.620          43.750          37.500
 124353059.865 7  96898533.05345  23663574.300
  23663577.160          44.750          37.250
 119092214.566 8  92799154.59645  22662481.820
  22662481.040          46.750          38.500
 119674316.902 8  93252743.34045  22773257.320
  22773256.840          46.500          37.000
 119155569.760 8  92848502.45646  22674537.420
  22674537.580          47.500          40.250
 129842485.875 6 101175976.79344  24708199.580
  24708198.840          41.000          32.250
 110860950.621 9  86385184.20147  21096117.680
  21096116.860          49.500          43.000
 107134627.398 9  83481609.19348  20387011.300
  20387012.320          50.750          45.750
 16  2 13  2 31  0.0000000  0 11G01G05G07G08G09G11G13G17G19G28G30
 126394659.535 6  98489367.11244  24052098.800
  24052103.500          40.750          34.750
 133080151.437 7 103698840.47444  25324315.920
  25324316.460          42.250          33.000
 109313253.019 9  85179234.33647  20801582.260
  20801581.720          49.500          44.500
 123706680.405 7  96394894.50345  23540567.580
  23540569.860          42.500          36.500
 124463489.391 7  96984582.03045  23684588.600
  23684591.140          44.500          38.500
 119061181.866 8  92774973.29645  22656576.540
  22656575.880          46.750          38.250
 119594987.160 8  93190928.00045  22758161.480
  22758161.100          46.750          36.750
 119061377.997 8  92775106.34746  22656613.140
  22656613.460          47.750          41.000
 129721229.734 6 101081491.70744  24685124.700
  24685124.080          40.750          32.750
 110849158.678 9  86375995.68547  21093873.760
  21093872.920          49.500          42.750
 107120104.700 9  83470292.81548  20384247.800
  20384248.880          50.750          46.500
 16  2 13  2 31 30.0000000  0 11G01G05G07G08G09G11G13G17G19G28G30
 126328057.449 6  98437469.41245  24039424.800
  24039429.340          41.250          38.000
 133138431.751 6 103744253.72644  25335405.900
  25335406.840          41.250          33.500
 109345325.446 9  85204225.83447  20807685.560
  20807684.620          49.500          44.250
 123797375.714 7  96465566.14545  23557826.160
  23557828.620          42.500          36.250
 124574015.459 7  97070706.24845  23705621.240
  23705623.220          44.750          38.250
 119030657.588 8  92751188.19345  22650768.040
  22650767.100          46.750          38.250
 119516067.298 8  93129432.02945  22743143.660
  22743143.140          46.750          37.250
 118967451.797 8  92701917.15046  22638739.460
  22638739.720          47.500          40.500
 129600009.558 7 100987034.57445  24662057.040
  24662057.140          43.250          38.000
 110837599.889 9  86366988.85947  21091674.220
  21091673.260          49.500          42.750
 107105889.317 9  83459215.90948  20381542.660
  20381544.120          50.750          46.500
 16  2 13  2 32  0.0000000  0 11G01G05G07G08G09G11G13G17G19G28G30
 126261690.540 6  98385754.98445  24026795.640
  24026800.260          40.500          38.000
 133196880.032 7 103789797.82444  25346527.680
  25346528.760          43.000          34.500
 109377747.578 9  85229489.84048  20813855.340
  20813854.200          49.250          45.000
 123888344.388 7  96536450.84345  23575136.960
  23575139.160          43.250          37.750
 124684635.913 7  97156903.97945  23726671.780
  23726673.640          44.250          37.750
 119000644.294 8  92727801.22545  22645056.620
  22645055.760          46.250          37.250
 119437560.460 8  93068257.93145  22728204.280
  22728204.120          47.000          36.000
 118873794.267 8  92628937.29946  22620916.980
  22620917.180          47.250          41.000
 129478828.188 6 100892607.68846  24638997.140
  24638997.320          41.500          39.750
 110826273.774 9  86358163.33547  21089518.960
  21089517.840          49.500          43.000
 107091983.053 9  83448379.86248  20378896.440
  20378897.960          50.750          46.750
 16  2 13  2 32 30.0000000  0 11G01G05G07G08G09G11G13G17G19G28G30
 126195562.936 6  98334227.01845  24014212.060
  24014216.500          41.500          38.000
 133255494.540 6 103835471.46745  25357681.220
  25357682.920          41.250          36.750
 109410521.187 9  85255027.71047  20820091.980
  20820090.900          49.500          44.250
 123979584.571 7  96607547.07044  23592499.580
  23592501.820          42.750          35.000
 124795349.198 7  97243174.06345  23747739.880
  23747741.580          44.500          37.500
 118971144.900 8  92704814.71345  22639442.940
  22639442.140          46.250          37.500
 119359470.575 8  93007408.70144  22713344.140
  22713343.940          46.750          35.750
 118780408.742 8  92556169.41346  22603146.140
  22603146.500          47.500          41.500
 129357689.426 6 100798214.06445  24615944.680
  24615945.440          41.250          37.500
 110815179.966 9  86349518.83247  21087408.000
  21087406.720          49.750          43.500
 107078388.243 9  83437786.50748  20376309.420
  20376310.860          50.750          46.250
 16  2 13  2 33  0.0000000  0 11G01G05G07G08G09G11G13G17G19G28G30
 126129674.921 7  98282885.72544  24001674.160
  24001678.040          42.000          35.250
 133314269.531 6 103881270.11044  25368865.560
  25368867.680          41.000          34.000
 109443643.904 9  85280837.63147  20826395.080
  20826394.040          49.250          44.000
 124071091.557 7  96678851.23644  23609912.920
  23609915.160          42.500          35.500
 124906149.992 7  97329512.34045  23768824.740
  23768826.420          44.500          37.500
 118942158.765 8  92682228.14745  22633927.180
  22633926.280          46.500          38.750
 119281797.370 8  92946884.17745  22698563.180
  22698563.180          46.000          36.750
 118687295.481 8  92483613.69047  22585427.160
  22585427.840          47.500          42.500
 129236593.287 7 100703853.64646  24592900.540
  24592901.460          43.500          39.250
 110804315.025 9  86341052.66247  21085340.540
  21085339.280          49.500          43.500
 107065103.445 9  83427434.73148  20373781.360
  20373783.000          50.500          46.750
 16  2 13  2 33 30.0000000  0 11G01G05G07G08G09G11G13G17G19G28G30
 126064031.214 7  98231734.81844  23989182.980
  23989186.200          42.000          35.000
 133373203.493 6 103927192.67645  25380080.260
  25380083.040          39.500          38.000
 109477117.734 9  85306921.13747  20832764.940
  20832763.920          49.250          44.250
 124162864.135 6  96750362.32644  23627376.460
  23627378.900          41.750          35.750
 125017037.131 7  97415917.87445  23789925.620
  23789927.680          42.500          37.750
 118913688.985 8  92660043.92245  22628509.500
  22628508.400          45.750          37.500
 119204544.875 8  92886687.46244  22683862.480
  22683862.340          46.250          35.750
 118594456.981 8  92411272.07447  22567760.560
  22567761.360          47.750          43.000
 129115543.963 7 100609529.59346  24569866.240
  24569866.360          43.250          39.500
 110793679.264 9  86332765.06147  21083316.620
  21083315.260          49.250          42.750
 107052131.416 9  83417326.66248  20371312.980
  20371314.760          50.750          46.500
 16  2 13  2 34  0.0000000  0 10G01G07G08G09G11G13G17G19G28G30
 125998638.630 6  98180779.59345  23976739.340
  23976742.260          41.500          36.500
 109510947.001 9  85333281.59547  20839202.440
  20839201.500          49.250          43.750
 124254903.110 6  96822081.02445  23644890.540
  23644893.220          41.000          36.250
 125128011.682 7  97502391.56145  23811043.100
  23811045.300          42.500          37.500
 118885741.390 8  92638266.61245  22623191.020
  22623190.140          46.000          38.250
 119127719.685 8  92826823.71945  22669243.220
  22669242.900          47.000          37.000
 118501900.362 8  92339150.08847  22550147.760
  22550148.380          48.250          42.500
 128994547.580 4 100515246.86046  24546840.900
  24546841.380          33.500          40.000
 110783275.384 9  86324658.15847  21081336.800
  21081335.400          49.250          43.250
 107039477.059 9  83407466.13748  20368905.000
  20368906.560          50.750          47.000
 16  2 13  2 34 30.0000000  0 10G01G07G08G09G11G13G17G19G28G30
 125933497.297 7  98130020.12544  23964343.380
  23964345.780          42.250          33.500
 109545129.386 9  85359917.21947  20845707.020
  20845706.200          49.500          44.000
 124347202.963 7  96894002.98145  23662454.200
  23662457.380          42.500          37.000
 125239068.142 7  97588929.02346  23832176.260
  23832178.760          42.500          39.000
 118858314.821 8  92616895.29445  22617971.840
  22617970.880          46.750          37.000
 119051321.430 8  92767292.63044  22654705.100
  22654704.400          47.000          35.750
 118409624.412 8  92267246.79946  22532588.320
  22532588.760          48.250          41.500
 128873603.840 6 100421005.23245  24523825.440
  24523826.580          41.250          37.250
 110773099.426 9  86316728.86847  21079400.360
  21079399.020          49.750          42.750
 107027138.869 9  83397851.96548  20366557.100
  20366558.540          51.000          46.500
 16  2 13  2 35  0.0000000  0 10G01G07G08G09G11G13G17G19G28G30
 125868605.505 6  98079455.15144  23951994.480
  23951997.520          40.000          33.750
 109579660.408 9  85386824.50747  20852278.260
  20852277.100          49.750          44.000
 124439756.340 7  96966122.47945  23680066.660
  23680069.700          42.750          36.000
 125350198.920 7  97675524.42245  23853323.760
  23853326.280          42.250          38.000
 118831406.171 8  92595927.54345  22612851.280
  22612850.300          46.250          37.250
 118975347.769 8  92708092.38944  22640247.900
  22640246.680          47.250          35.750
 118317626.676 8  92195560.30846  22515081.720
  22515081.860          48.250          41.250
 128752710.730 6 100326802.90945  24500820.740
  24500821.300          41.250          36.250
 110763145.440 9  86308972.53647  21077506.180
  21077504.940          49.500          43.000
 107015113.167 9  83388481.30648  20364268.840
  20364270.300          51.000          46.750
 16  2 13  2 35 30.0000000  0 10G01G07G08G09G11G13G17G19G28G30
 125803970.182 6  98029089.97544  23939694.360
  23939697.620          40.750          33.500
 109614544.718 9  85414007.09247  20858916.540
  20858915.280          49.250          43.500
 124532564.399 7  97038440.43744  23697727.820
  23697731.100          42.750          35.750
 125461405.240 6  97762178.68945  23874485.760
  23874488.220          41.500          37.250
 118805021.134 8  92575367.80745  22607830.280
  22607829.220          45.500          37.000
 118899805.423 8  92649228.24845  22625872.700
  22625871.540          47.250          36.250
 118225913.714 8  92124095.69246  22497629.260
  22497628.940          48.000          40.250
 128631874.815 6 100232645.24545  24477826.460
  24477827.040          40.250          38.750
 110753416.336 9  86301391.43847  21075654.580
  21075653.520          49.500          43.250
 107003405.085 9  83379358.13648  20362040.920
  20362042.380          51.000          46.500
 16  2 13  2 36  0.0000000  0 10G01G07G08G09G11G13G17G19G28G30
 125739594.760 6  97978927.39044  23927443.960
  23927447.140          41.250          32.500
 109649782.989 9  85441465.48347  20865622.040
  20865621.160          49.500          44.250
 124625625.131 7  97110955.29345  23715437.020
  23715440.140          42.500          37.500
 125572684.799 7  97848889.99345  23895661.500
  23895664.160          42.750          37.750
 118779161.714 8  92555217.63845  22602909.060
  22602908.240          45.500          36.750
 118824697.075 8  92590702.29745  22611579.960
  22611579.020          46.750          38.500
 118134487.715 8  92052854.70846  22480231.280
  22480230.800          47.500          41.500
 128511098.627 6 100138534.10444  24454843.420
  24454843.880          41.750          34.250
 110743910.980 9  86293984.68447  21073845.540
  21073844.580          49.500          43.000
 106992016.080 9  83370483.59348  20359873.560
  20359874.880          50.750          46.500
 16  2 13  2 36 30.0000000  0 10G01G07G08G09G11G13G17G19G28G30
 125675483.535 6  97928970.62844  23915244.260
  23915247.320          41.500          35.750
 109685376.645 9  85469200.78947  20872395.300
  20872394.660          49.250          44.750
 124718936.710 7  97183665.64145  23733193.780
  23733196.900          43.000          38.500
 125684036.186 7  97935657.32845  23916851.300
  23916853.720          42.500          37.750
 118753830.914 8  92535479.38745  22598088.800
  22598087.800          45.500          36.500
 118750026.321 8  92532517.34945  22597370.420
  22597370.000          46.500          36.750
 118043352.102 8  91981839.97946  22462888.740
  22462888.080          48.000          40.500
 128390386.673 7 100044472.89943  24431873.300
  24431872.240          44.500          31.750
 110734629.771 9  86286752.58547  21072079.340
  21072078.300          49.250          43.500
 106980948.750 9  83361859.70748  20357767.500
  20357768.680          50.750          46.500
 16  2 13  2 37  0.0000000  0 10G01G07G08G09G11G13G17G19G28G30
 125611636.178 6  97879219.48044  23903094.760
  23903097.820          41.250          34.500
 109721323.442 9  85497211.28047  20879235.760
  20879235.000          49.250          44.000
 124812493.499 6  97256567.02245  23750997.040
  23751000.420          41.250          37.500
 125795453.398 7  98022475.90844  23938053.320
  23938055.900          43.250          35.000
 118729027.002 8  92516151.67445  22593368.800
  22593367.840          46.000          37.000
 118675792.810 8  92474673.06945  22583244.340
  22583243.880          46.500          37.000
 117952505.892 8  91911050.78246  22445601.300
  22445600.760          48.000          41.750
 128269737.693 7  99950460.78444  24408914.700
  24408913.040          43.250          34.500
 110725568.066 9  86279691.54347  21070355.000
  21070354.000          49.250          43.500
 106970200.888 9  83353484.76048  20355722.220
  20355723.360          50.750          46.500
 16  2 13  2 37 30.0000000  0 10G01G07G08G09G11G13G17G19G28G30
 125548061.676 6  97829680.95044  23890996.880
  23890999.940          40.500          35.750
 109757629.189 9  85525501.47547  20886144.500
  20886143.480          49.000          44.000
 124906298.625 7  97329661.91445  23768847.420
  23768850.360          42.000          37.250
 125906939.630 7  98109348.26845  23959268.560
  23959271.180          43.750          36.000
 118704757.730 8  92497240.56745  22588750.660
  22588749.620          46.000          37.750
 118602004.917 8  92417176.04545  22569202.960
  22569202.420          47.250          37.000
 117861957.204 8  91840493.40547  22428370.440
  22428370.260          48.250          42.500
 128149160.153 7  99856504.40145  24385969.420
  24385968.000          43.750          38.250
 110716730.867 9  86272805.41747  21068673.380
  21068672.380          49.500          43.250
 106959779.601 9  83345364.28948  20353739.180
  20353740.100          51.000          46.250
 16  2 13  2 38  0.0000000  0 10G01G07G08G09G11G13G17G19G28G30
 125484757.369 6  97780352.96644  23878950.320
  23878953.400          40.750          32.500
 109794288.971 9  85554067.54347  20893120.500
  20893119.580          49.250          44.250
 125000343.657 7  97402943.71845  23786743.820
  23786746.680          43.500          37.500
 126018486.500 7  98196267.93145  23980495.180
  23980497.940          43.000          37.000
 118681018.840 8  92478742.76345  22584233.500
  22584232.540          46.000          38.000
 118528659.171 8  92360023.53845  22555245.840
  22555245.040          46.750          37.500
 117771702.645 8  91770165.21647  22411195.580
  22411195.640          48.000          43.000
 128028651.157 7  99762601.39345  24363037.420
  24363035.700          44.750          36.500
 110708111.503 9  86266089.04947  21067033.240
  21067032.160          49.500          44.000
 106949680.379 9  83337494.76448  20351817.420
  20351818.140          50.750          46.500
 16  2 13  2 38 30.0000000  0 10G01G07G08G09G11G13G17G19G28G30
 125421727.770 6  97731239.08644  23866956.280
  23866959.220          41.500          34.500
 109831304.833 9  85582911.06647  20900164.360
  20900163.600          49.250          44.250
 125094627.469 7  97476411.65045  23804685.880
  23804688.200          44.000          37.000
 126130092.924 7  98283233.96244  24001733.100
  24001735.820          44.000          35.000
 118657813.933 8  92460661.05945  22579817.640
  22579816.540          46.000          37.500
 118455760.079 8  92303219.08745  22541373.400
  22541372.640          47.000          37.500
 117681746.401 8  91700069.49147  22394077.480
  22394077.720          48.250          43.250
 127908215.507 6  99668755.54345  24340119.160
  24340117.180          41.500          37.250
 110699710.425 9  86259542.77347  21065434.620
  21065433.480          49.500          43.500
 106939906.021 9  83329878.40148  20349957.280
  20349958.100          51.000          46.500
 16  2 13  2 39  0.0000000  0 10G01G07G08G09G11G13G17G19G28G30
 125358979.343 6  97682344.28044  23855015.800
  23855018.520          41.500          34.000
 109868680.322 9  85612034.82447  20907276.620
  20907275.840          49.250          43.500
 125189150.749 7  97550066.14244  23822673.260
  23822675.480          43.500          35.500
 126241759.640 7  98370246.96944  24022982.440
  24022985.140          43.250          35.750
 118635147.827 8  92442999.17045  22575504.460
  22575503.300          46.500          37.000
 118383313.019 8  92246766.84945  22527587.060
  22527586.440          47.000          36.500
 117592093.478 8  91630210.11647  22377017.080
  22377017.280          48.500          42.500
 127787858.539 7  99574971.00644  24317215.720
  24317213.740          42.250          34.500
 110691529.924 9  86253168.37147  21063877.900
  21063876.720          49.500          43.250
 106930461.038 9  83322518.68248  20348159.800
  20348160.960          50.750          46.500
 16  2 13  2 39 30.0000000  0 10G01G07G08G09G11G13G17G19G28G30
 125296510.890 6  97633667.6144   23843128.360
  23843130.740          41.500          24.250
 109906411.655 9  85641435.87347  20914456.760
  20914455.480          49.250          43.000
 125283906.966 7  97623902.14244  23840704.740
  23840706.860          42.750          35.250
 126353479.711 7  98457301.55945  24044242.000
  24044244.700          43.750          36.500
 118613017.294 8  92425754.62545  22571293.100
  22571292.000          46.500          37.250
 118311316.629 8  92190665.78745  22513886.400
  22513886.040          46.500          37.500
 117502741.424 8  91560585.18647  22360013.860
  22360014.020          48.000          42.000
 127667578.571 7  99481246.48645  24294326.800
  24294324.920          42.000          37.500
 110683564.313 9  86246961.40947  21062362.000
  21062360.900          49.250          43.250
 106921342.446 9  83315413.29648  20346424.460
  20346425.920          50.750          46.500
 16  2 13  2 40  0.0000000  0 10G01G07G08G09G11G13G17G19G28G30
 125234330.535 6  97585215.48444  23831295.680
  23831298.280          41.750          32.500
 109944504.417 9  85671118.54447  20921705.620
  20921704.180          49.500          43.750
 125378898.479 7  97697921.50844  23858780.660
  23858783.020          42.250          34.250
 126465255.687 7  98544399.71045  24065512.180
  24065514.820          43.250          37.500
 118591429.274 8  92408932.83545  22567184.860
  22567183.640          46.000          37.000
 118239778.195 8  92134921.59345  22500273.120
  22500272.880          47.500          37.000
 117413698.033 8  91491200.76247  22343069.340
  22343069.300          48.250          42.250
 127547383.623 6  99387588.19445  24271454.420
  24271452.920          40.750          37.250
 110675817.749 9  86240925.14747  21060887.900
  21060886.700          49.250          43.750
 106912556.552 9  83308567.14148  20344752.500
  20344754.100          51.000          46.500
 16  2 13  2 40 30.0000000  0 10G01G07G08G09G11G13G17G19G28G30
 125172434.781 7  97536985.08344  23819517.320
  23819519.940          42.000          35.500
 109982952.382 9  85701077.98747  20929022.060
  20929020.900          49.250          44.250
 125474115.988 7  97772116.95344  23876900.040
  23876902.440          43.000          33.750
 126577078.338 7  98631534.23545  24086791.260
  24086793.880          43.500          37.750
 118570378.876 8  92392529.94445  22563179.100
  22563177.900          46.750          36.000
 118168693.682 8  92079531.08645  22486746.440
  22486746.100          47.250          37.250
 117324958.834 8  91422053.38646  22326182.820
  22326182.480          48.500          41.750
 127427269.693 6  99293993.08545  24248596.740
  24248596.160          41.250          37.750
 110668282.452 9  86235053.51547  21059453.920
  21059452.680          49.250          43.500
 106904098.023 9  83301976.09648  20343142.980
  20343144.460          51.000          46.750
 16  2 13  2 41  0.0000000  0 10G01G07G08G09G11G13G17G19G28G30
 125110829.543 6  97488981.03945  23807794.260
  23807796.500          41.750          36.000
 110021758.917 9  85731316.84547  20936406.740
  20936405.700          49.250          43.750
 125569560.149 7  97846489.03744  23895062.520
  23895064.600          43.000          35.250
 126688948.027 7  98718705.39945  24108079.320
  24108082.080          43.000          38.000
 118549870.620 8  92376549.50545  22559276.720
  22559275.200          47.000          37.750
 118098068.872 8  92024498.80145  22473306.900
  22473306.820          47.000          38.000
 117236528.989 8  91353147.05246  22309355.240
  22309354.640          48.250          41.000
 127307242.686 7  99200465.63144  24225756.580
  24225755.520          43.500          34.750
 110660960.555 9  86229348.15147  21058060.540
  21058059.400          49.250          43.000
 106895971.016 9  83295643.37548  20341596.520
  20341597.820          50.750          46.250
 16  2 13  2 41 30.0000000  0 10G01G07G08G09G11G13G17G19G28G30
 125049516.130 7  97441204.40944  23796126.420
  23796129.140          42.750          34.500
 110060922.681 9  85761834.06847  20943859.380
  20943858.360          49.750          44.250
 125665226.283 7  97921034.06445  23913267.340
  23913269.280          42.750          36.000
 126800860.361 7  98805909.80545  24129375.560
  24129378.460          43.000          36.250
 118529904.354 8  92360991.40244  22555477.560
  22555475.740          47.250          35.500
 118027904.269 8  91969825.11345  22459954.960
  22459954.860          46.750          36.000
 117148409.514 8  91284482.56547  22292586.500
  22292586.020          48.250          42.250
 127187303.375 7  99107006.56345  24202932.920
  24202931.860          44.000          36.000
 110653849.292 9  86223806.91947  21056707.340
  21056706.200          49.750          43.500
 106888174.950 9  83289568.52348  20340113.060
  20340114.200          51.250          46.250
 16  2 13  2 42  0.0000000  0 10G01G07G08G09G11G13G17G19G28G30
 124988501.768 7  97393660.75644  23784515.620
  23784518.460          42.250          34.750
 110100448.220 9  85792633.18147  20951380.820
  20951380.020          49.750          44.500
 125761116.038 7  97995753.35345  23931514.560
  23931516.380          42.750          36.750
 126912816.871 7  98893148.60745  24150680.200
  24150683.080          43.250          37.250
 118510485.679 8  92345859.98244  22551782.320
  22551780.360          47.250          35.500
 117958206.460 8  91915515.15145  22446691.740
  22446691.920          46.750          37.250
 117060605.999 8  91216064.29447  22275877.860
  22275877.540          48.250          42.250
 127067458.276 8  99013620.82044  24180127.340
  24180125.800          45.250          35.250
 110646951.561 9  86218432.08747  21055394.760
  21055393.720          49.500          43.500
 106880715.278 9  83283755.79548  20338693.600
  20338694.800          51.000          46.750
 16  2 13  2 42 30.0000000  0 10G01G07G08G09G11G13G17G19G28G30
 124927785.821 6  97346349.67445  23772961.660
  23772964.840          41.000          37.750
 110140332.226 9  85823711.62248  20958970.560
  20958969.800          49.750          45.000
 125857223.290 6  98070642.11145  23949803.280
  23949804.980          41.000          36.750
 127024811.425 7  98980417.06445  24171991.940
  24171994.820          42.000          37.250
 118491612.201 8  92331153.38845  22548190.660
  22548188.780          46.750          37.500
 117888974.397 8  91861568.13045  22433517.160
  22433517.620          47.000          38.000
 116973117.007 8  91147891.11547  22259229.180
  22259229.000          48.000          42.750
 126947706.515 7  98920307.85045  24157339.460
  24157338.020          44.000          36.000
 110640262.763 9  86213220.05047  21054121.880
  21054120.900          49.500          43.000
 106873589.507 9  83278203.25148  20337337.560
  20337338.980          51.000          46.750
 16  2 13  2 43  0.0000000  0 10G01G07G08G09G11G13G17G19G28G30
 124867375.013 6  97299276.38745  23761465.660
  23761469.140          40.750          37.000
 110180579.021 9  85855072.75148  20966629.280
  20966628.540          49.250          45.000
 125953549.073 6  98145701.12544  23968133.120
  23968134.940          41.750          35.250
 127136845.065 6  99067715.99945  24193311.300
  24193314.200          41.250          36.500
 118473289.569 8  92316876.04645  22544703.820
  22544702.040          46.750          36.250
 117820214.234 8  91807988.81745  22420432.540
  22420432.920          46.750          38.250
 116885948.620 8  91079967.75447  22242641.480
  22242641.420          48.250          43.250
 126828054.686 7  98827072.73645  24134570.480
  24134568.960          43.750          36.000
 110633785.587 9  86208172.90947  21052889.360
  21052888.320          49.500          43.250
 106866802.647 9  83272914.78948  20336046.100
  20336047.600          51.000          46.500
 16  2 13  2 43 30.0000000  0 10G01G07G08G09G11G13G17G19G28G30
 124807267.405 6  97252439.32944  23750027.380
  23750030.980          40.750          35.250
 110221183.916 9  85886712.91247  20974356.000
  20974355.360          49.250          44.500
 126050085.637 6  98220924.45344  23986503.500
  23986504.940          41.250          35.250
 127248910.229 6  99155039.45145  24214636.500
  24214639.600          41.000          36.500
 118455513.828 8  92303024.81645  22541321.100
  22541319.460          46.750          37.750
 117751923.385 8  91754775.18245  22407437.520
  22407437.360          47.750          36.500
 116799098.176 8  91012292.11447  22226114.500
  22226114.160          48.750          42.250
 126708500.795 7  98733913.91144  24111820.180
  24111818.540          43.250          35.750
 110627513.802 9  86203285.82447  21051695.940
  21051694.740          49.500          43.500
 106860350.870 9  83267887.43948  20334818.400
  20334819.880          51.000          46.500
 16  2 13  2 44  0.0000000  0 10G01G07G08G09G11G13G17G19G28G30
 124747468.688 6  97205842.97145  23738647.940
  23738651.820          41.500          37.250
 110262149.947 9  85918634.48447  20982151.600
  20982150.860          49.500          44.250
 126146833.499 7  98296312.37744  24004913.820
  24004915.500          42.000          35.750
 127361007.048 6  99242387.59845  24235968.000
  24235970.820          41.750          36.500
 118438289.301 8  92289603.12745  22538043.460
  22538041.480          47.250          36.000
 117684106.992 8  91701931.24845  22394532.720
  22394532.200          47.250          37.250
 116712570.454 8  90944867.95647  22209648.920
  22209648.380          48.750          42.250
 126589049.732 7  98640835.29844  24089089.040
  24089087.740          42.750          35.250
 110621449.252 9  86198560.22547  21050541.980
  21050540.540          49.750          43.250
 106854238.147 9  83263124.28948  20333655.100
  20333656.540          50.750          46.750
 16  2 13  2 44 30.0000000  0 10G01G07G08G09G11G13G17G19G28G30
 124687983.258 6  97159490.73045  23727328.100
  23727332.160          41.500          38.750
 110303478.651 9  85950838.67447  20990016.240
  20990015.580          49.250          44.000
 126243791.492 7  98371864.07445  24023364.480
  24023366.440          42.750          36.750
 127473134.355 6  99329759.50444  24257304.960
  24257307.760          40.250          35.250
 118421618.613 8  92276612.99345  22534871.200
  22534868.940          47.000          37.750
 117616768.836 8  91649459.98645  22381718.780
  22381718.180          47.250          37.500
 116626368.679 8  90877697.77846  22193245.260
  22193244.540          48.750          41.750
 126469705.969 7  98547840.23245  24066378.400
  24066377.320          42.750          36.250
 110615592.163 9  86193996.27247  21049427.440
  21049425.900          49.750          42.750
 106848467.004 9  83258627.31748  20332556.780
  20332558.400          51.000          46.750
 16  2 13  2 45  0.0000000  0 10G01G07G08G09G11G13G17G19G28G30
 124628810.565 7  97113382.16345  23716067.780
  23716072.000          42.500          37.500
 110345167.095 9  85983323.17347  20997949.240
  20997948.460          49.000          43.750
 126340953.317 7  98447574.57145  24041853.520
  24041855.860          42.000          38.750
 127585285.961 6  99417150.38343  24278646.640
  24278649.160          39.250          28.500
 118405499.474 8  92264052.65045  22531803.920
  22531801.820          46.750          38.000
 117549907.756 8  91597360.45445  22368995.420
  22368994.880          47.000          38.000
 116540491.964 8  90810780.88647  22176903.300
  22176902.640          48.000          42.250
 126350468.289 6  98454927.84446  24043688.120
  24043687.280          41.500          39.750
 110609937.908 9  86189590.36947  21048351.520
  21048349.920          49.500          42.500
 106843035.031 9  83254394.61348  20331523.100
  20331524.780          50.750          46.750
 16  2 13  2 45 30.0000000  0 10G01G07G08G09G11G13G17G19G28G30
 124569956.825 7  97067522.15546  23704868.460
  23704872.520          42.250          39.750
 110387218.845 8  86016090.77047  21005951.320
  21005950.500          48.750          44.250
 126438319.292 6  98523444.17246  24060381.640
  24060384.060          41.250          39.250
 127697462.560 6  99504560.68043  24299993.200
  24299995.340          40.500          29.500
 118389936.692 8  92251925.82145  22528842.240
  22528840.520          46.750          37.250
 117483529.477 8  91545637.14845  22356363.800
  22356363.420          47.000          37.250
 116454945.157 8  90744121.07647  22160624.160
  22160623.800          47.750          43.000
 126231342.833 7  98362102.94545  24021019.020
  24021018.280          43.250          36.000
 110604488.791 9  86185344.31247  21047314.480
  21047312.940          49.250          43.250
 106837946.751 9  83250429.72648  20330554.800
  20330556.380          50.750          46.750
 16  2 13  2 46  0.0000000  0 10G01G07G08G09G11G13G17G19G28G30
 124511423.602 7  97021911.90245  23693730.120
  23693734.120          42.500          37.500
 110429632.777 9  86049140.57247  21014022.280
  21014021.540          49.000          44.250
 126535886.301 6  98599470.36344  24078947.520
  24078950.280          41.750          34.250
 127809660.100 6  99591987.35644  24321343.900
  24321345.620          41.500          34.000
 118374930.034 8  92240232.35045  22525986.680
  22525985.040          47.000          37.500
 117417634.824 8  91494290.69846  22343824.500
  22343824.200          47.500          39.250
 116369729.137 8  90677719.03347  22144407.880
  22144407.840          48.250          43.500
 126112330.747 7  98269366.36345  23998371.600
  23998371.020          43.750          38.500
 110599242.232 9  86181256.10547  21046315.860
  21046314.460          49.000          43.750
 106833201.911 9  83246732.44248  20329651.940
  20329653.500          50.750          47.000
 16  2 13  2 46 30.0000000  0 10G01G07G08G09G11G13G17G19G28G30
 124453213.140 7  96976553.14245  23682653.140
  23682657.140          43.000          38.750
 110472408.354 9  86082472.17547  21022162.300
  21022161.480          49.000          43.750
 126633650.513 6  98675650.26545  24097551.500
  24097554.080          41.250          36.500
 127921875.376 6  99679427.83744  24342697.740
  24342699.320          39.000          33.500
 118360480.114 8  92228972.67545  22523237.020
  22523235.120          47.000          37.750
 117352225.474 8  91443322.40245  22331377.560
  22331377.360          47.750          38.750
 116284844.933 8  90611575.53447  22128254.860
  22128254.980          48.500          43.000
 125993434.001 7  98176719.64645  23975746.260
  23975745.640          43.500          37.250
 110594196.636 9  86177324.48647  21045355.600
  21045354.180          49.250          43.500
 106828800.950 9  83243303.12048  20328814.460
  20328816.080          50.750          46.500
 16  2 13  2 47  0.0000000  0 10G01G07G08G09G11G13G17G19G28G30
 124395328.628 7  96931448.37646  23671638.120
  23671641.920          43.250          39.750
 110515546.086 9  86116085.98247  21030371.140
  21030370.500          49.000          44.250
 126731609.550 7  98751981.98044  24116192.540
  24116195.000          42.500          35.250
 128034106.112 6  99766880.34844  24364054.360
  24364055.300          40.250          34.500
 118346588.816 8  92218148.29245  22520593.680
  22520591.660          46.500          37.250
 117287304.211 8  91392734.42845  22319023.480
  22319023.460          47.750          38.750
 116200295.471 8  90545692.86247  22112165.760
  22112165.800          48.750          43.250
 125874655.714 7  98084165.21045  23953143.680
  23953142.900          44.000          37.000
 110589351.249 9  86173548.87647  21044433.600
  21044432.100          49.500          43.750
 106824745.345 9  83240142.91448  20328042.620
  20328044.120          50.500          46.750
 16  2 13  2 47 30.0000000  0 10G01G07G08G09G11G13G17G19G28G30
 124337773.551 7  96886600.28546  23660685.820
  23660689.420          43.000          39.250
 110559046.891 9  86149982.71647  21038649.060
  21038648.660          49.000          44.500
 126829761.731 7  98828464.22445  24134870.560
  24134872.660          43.000          36.250
 128146350.072 6  99854343.15444  24385413.780
  24385414.760          41.000          33.250
 118333257.692 8  92207760.41445  22518056.760
  22518055.220          46.500          37.000
 117222873.651 8  91342528.80045  22306762.840
  22306762.540          48.250          38.500
 116116083.108 8  90480072.85547  22096140.820
  22096140.720          48.750          42.500
 125755998.944 7  97991705.48245  23930563.920
  23930563.200          44.750          38.250
 110584705.290 9  86169928.65047  21043549.620
  21043548.100          49.500          43.250
 106821036.730 9  83237253.08848  20327336.840
  20327338.260          50.750          46.500
 16  2 13  2 48  0.0000000  0 10G01G07G08G09G11G13G17G19G28G30
 124280549.543 7  96842010.19446  23649796.300
  23649799.880          42.750          39.750
 110602909.829 9  86184161.61447  21046996.000
  21046995.440          49.250          44.250
 126928102.973 6  98905093.74444  24153584.360
  24153586.640          41.750          34.500
 128258603.545 6  99941813.39444  24406775.060
  24406776.600          41.250          32.000
 118320486.908 8  92197809.18245  22515626.440
  22515625.280          46.500          37.750
 117158935.085 8  91292706.53945  22294595.920
  22294595.220          47.750          37.250
 116032208.784 8  90414716.27647  22080180.100
  22080179.840          48.750          43.250
 125637465.416 7  97899341.81245  23908007.500
  23908006.940          44.000          36.750
 110580256.340 9  86166461.94947  21042703.000
  21042701.600          49.500          43.250
 106817674.989 9  83234633.56648  20326697.140
  20326698.620          51.000          46.750
 16  2 13  2 48 30.0000000  0 10G01G07G08G09G11G13G17G19G28G30
 124223663.692 7  96797683.58646  23638971.160
  23638974.960          43.000          39.750
 110647139.263 9  86218626.10247  21055412.740
  21055411.940          49.250          43.500
 127026634.875 7  98981871.81944  24172334.600
  24172336.780          42.250          35.000
 128370868.139 6 100029292.33044  24428138.360
  24428139.760          41.000          32.000
 118308281.071 8  92188298.16445  22513303.520
  22513302.620          46.000          37.250
 117095494.765 8  91243272.55045  22282523.620
  22282522.920          47.750          37.250
 115948678.666 8  90349627.90747  22064284.780
  22064284.580          48.750          42.500
 125519061.445 7  97807079.07445  23885475.900
  23885475.460          44.250          36.750
 110576007.776 9  86163151.39347  21041894.500
  21041893.200          49.500          43.250
 106814665.459 9  83232288.47048  20326124.560
  20326126.020          51.000          46.750
 16  2 13  2 49  0.0000000  0 10G01G07G08G09G11G13G17G19G28G30
 124167116.053 7  96753620.54546  23628210.480
  23628214.280          43.750          40.000
 110691732.522 8  86253374.07947  21063898.460
  21063897.620          48.750          43.500
 127125352.061 6  99058794.28345  24191119.780
  24191122.440          41.000          37.500
 128483138.393 6 100116775.61844  24449502.660
  24449504.280          41.500          34.000
 118296638.766 8  92179226.25345  22511087.620
  22511087.040          45.750          38.250
 117032552.231 8  91194226.42645  22270546.020
  22270545.080          47.750          37.500
 115865491.410 8  90284806.71647  22048454.720
  22048454.480          48.750          42.750
 125400787.336 7  97714917.52345  23862968.960
  23862968.560          43.250          38.250
 110571955.681 9  86159993.93347  21041123.360
  21041122.140          49.500          43.000
 106812006.443 9  83230216.50748  20325618.600
  20325620.100          51.000          47.000
 16  2 13  2 49 30.0000000  0 10G01G07G08G09G11G13G17G19G28G30
 124110902.776 7  96709818.03146  23617513.460
  23617517.220          43.750          41.250
 110736682.590 9  86288400.09847  21072452.040
  21072451.240          49.000          43.250
 127224244.981 7  99135853.70045  24209938.800
  24209941.080          43.750          36.250
 128595404.979 6 100204256.08143  24470866.240
  24470868.560          41.500          31.250
 118285554.751 8  92170589.36645  22508978.400
  22508977.840          46.500          37.250
 116970103.305 8  91145564.95645  22258662.460
  22258661.340          48.250          38.500
 115782642.654 8  90220249.29147  22032689.020
  22032688.700          48.750          42.750
 125282638.765 7  97622853.77945  23840486.000
  23840485.500          43.750          36.750
 110568092.179 9  86156983.42247  21040388.240
  21040386.820          49.750          42.750
 106809692.325 9  83228413.31248  20325178.240
  20325179.680          51.000          46.500
 16  2 13  2 50  0.0000000  0 10G01G07G08G09G11G13G17G19G28G30
 124055040.451 7  96666288.98746  23606883.280
  23606887.100          43.750          39.000
 110782004.204 9  86323715.64047  21081076.360
  21081075.720          49.000          43.750
 127323324.915 7  99213058.86743  24228793.680
  24228795.040          43.000          31.000
 128707679.041 6 100291742.36444  24492231.220
  24492233.500          41.750          32.750
 118275043.513 8  92162398.78945  22506978.140
  22506977.360          46.500          36.750
 116908163.319 8  91097300.04745  22246875.800
  22246874.380          48.500          38.000
 115700148.225 8  90155967.95447  22016990.780
  22016990.380          48.750          42.750
 125164632.170 7  97530900.68045  23818030.140
  23818029.540          44.500          38.250
 110564429.737 9  86154129.59247  21039691.460
  21039689.780          49.750          43.500
 106807737.788 9  83226890.30348  20324806.280
  20324807.540          51.000          46.500
 16  2 13  2 50 30.0000000  0 10G01G07G08G09G11G13G17G19G28G30
 123999523.121 7  96623028.78245  23596318.880
  23596322.360          44.000          38.250
 110827688.653 9  86359313.89547  21089769.900
  21089769.180          49.250          43.250
 127422581.087 7  99290401.34944  24247681.520
  24247682.640          43.500          34.750
 128819949.226 7 100379225.61644  24513595.760
  24513597.960          42.250          35.000
 118265097.478 8  92154648.65045  22505085.680
  22505084.620          46.500          37.500
 116846725.740 8  91049426.64245  22235184.480
  22235183.400          48.250          38.750
 115618001.121 9  90091957.26147  22001358.760
  22001358.260          49.000          43.000
 125046761.327 7  97439053.36245  23795599.960
  23795599.480          44.000          38.500
 110560958.715 9  86151424.91447  21039031.080
  21039029.260          49.750          43.500
 106806135.333 9  83225641.64548  20324501.200
  20324502.540          51.000          46.250
 16  2 13  2 51  0.0000000  0 10G01G07G08G09G11G13G17G19G28G30
 123944355.325 7  96580040.93446  23585820.960
  23585824.480          44.000          39.500
 110873737.635 8  86395196.21347  21098532.700
  21098531.940          48.750          43.750
 127522011.855 6  99367879.87644  24266602.660
  24266603.880          41.250          35.000
 128932214.630 6 100466705.17445  24534959.120
  24534961.840          41.750          36.000
 118255719.134 8  92147340.86445  22503301.160
  22503299.760          46.500          36.500
 116785794.497 8  91001947.77245  22223589.500
  22223588.840          48.250          38.500
 115536204.834 9  90028219.92747  21985793.560
  21985793.000          49.250          42.500
 124929030.729 8  97347315.32045  23773196.540
  23773195.940          45.250          38.750
 110557679.628 9  86148869.79147  21038407.060
  21038405.260          49.250          43.000
 106804887.657 9  83224669.43748  20324263.860
  20324265.100          51.000          46.250
 16  2 13  2 51 30.0000000  0 10G01G07G08G09G11G13G17G19G28G30
 123889542.179 7  96537329.42846  23575390.440
  23575393.680          43.250          40.250
 110920153.572 9  86431364.45047  21107365.300
  21107364.540          49.250          43.500
 127621617.284 6  99445494.49644  24285556.480
  24285558.200          40.750          33.500
 129044474.926 6 100554180.68645  24556321.500
  24556324.600          41.000          37.750
 118246911.926 8  92140478.10945  22501625.440
  22501623.660          46.500          37.000
 116725374.309 8  90954867.11245  22212091.760
  22212091.180          47.750          38.250
 115454764.083 8  89964759.63847  21970295.880
  21970295.300          48.750          43.250
 124811445.332 8  97255690.40345  23750820.900
  23750819.980          45.000          38.500
 110554593.375 9  86146464.93547  21037819.640
  21037818.060          49.500          44.000
 106803998.105 9  83223976.28748  20324094.560
  20324095.740          50.750          46.500
 16  2 13  2 52  0.0000000  0 10G01G07G08G09G11G13G17G19G28G30
 123835084.606 7  96494894.99945  23565027.480
  23565030.800          42.500          38.750
 110966934.475 9  86467817.09947  21116267.620
  21116266.660          49.500          44.250
 127721392.793 7  99523241.60145  24304543.080
  24304545.140          42.750          36.000
 129156725.744 6 100641648.81945  24577681.780
  24577684.980          40.000          37.500
 118238674.860 8  92134059.61245  22500057.960
  22500056.260          46.000          36.750
 116665465.522 8  90908184.96446  22200691.360
  22200691.140          48.000          39.000
 115373678.584 8  89901576.16947  21954865.640
  21954865.120          48.500          42.250
 124694005.728 8  97164179.09945  23728472.860
  23728471.720          45.000          38.750
 110551697.467 9  86144208.39947  21037268.420
  21037267.180          49.250          43.750
 106803465.894 9  83223561.57848  20323993.200
  20323994.400          50.750          46.250
 16  2 13  2 52 30.0000000  0 10G01G07G08G09G11G13G17G19G28G30
 123780983.971 7  96452738.71545  23554732.260
  23554735.940          42.250          38.750
 111014079.256 9  86504553.28547  21125239.320
  21125238.060          49.500          44.000
 127821334.461 6  99601118.21544  24323561.440
  24323563.340          41.500          35.000
 129268962.952 6 100729106.35945  24599039.640
  24599043.640          41.000          36.500
 118231007.188 8  92128084.80945  22498598.880
  22498597.120          46.500          36.250
 116606068.626 8  90861901.69145  22189388.360
  22189388.400          47.500          38.250
 115292948.709 8  89838669.79747  21939503.100
  21939502.660          48.750          43.250
 124576713.132 8  97072782.33245  23706152.920
  23706151.240          45.000          37.750
 110548989.350 9  86142098.19147  21036752.980
  21036751.880          49.250          44.000
 106803290.578 9  83223424.96248  20323959.880
  20323961.120          50.750          46.500
 16  2 13  2 53  0.0000000  0 10G01G07G08G09G11G13G17G19G28G30
 123727244.502 6  96410863.86146  23544505.780
  23544509.620          41.750          39.250
 111061589.475 9  86541574.22947  21134280.320
  21134279.000          49.500          43.500
 127921441.360 7  99679123.59044  24342611.160
  24342612.560          43.000          33.250
 129381185.480 6 100816552.43545  24620394.920
  24620398.820          40.750          38.000
 118223911.813 8  92122555.96945  22497248.560
  22497246.920          46.000          36.750
 116547187.139 8  90816020.02646  22178183.480
  22178183.440          47.750          39.000
 115212577.828 8  89776043.17647  21924208.920
  21924208.620          48.750          43.500
 124459571.867 8  96981503.47845  23683861.500
  23683859.740          45.000          37.250
 110546469.208 9  86140134.45047  21036273.360
  21036272.160          49.250          43.500
 106803474.772 9  83223568.49948  20323994.960
  20323996.220          51.000          46.250
 16  2 13  2 53 30.0000000  0 10G01G07G08G09G11G13G17G19G28G30
 123673868.279 6  96369272.05245  23534348.560
  23534352.100          41.750          38.000
 111109464.482 9  86578879.41947  21143390.580
  21143389.380          49.000          43.750
 128021709.864 6  99757254.91544  24361691.720
  24361692.720          41.250          35.250
 129493390.067 6 100903984.59045  24641746.980
  24641750.480          40.250          38.750
 118217388.903 8  92117473.18245  22496007.180
  22496005.720          46.000          36.750
 116488822.674 8  90770541.24746  22167077.040
  22167077.000          47.500          39.000
 115132567.409 8  89713697.42647  21908983.380
  21908983.160          48.500          43.500
 124342583.942 7  96890344.14345  23661599.360
  23661598.040          43.500          38.250
 110544135.305 9  86138315.83347  21035829.300
  21035827.900          49.500          43.500
 106804018.810 9  83223992.43748  20324098.760
  20324099.760          51.250          46.250
 16  2 13  2 54  0.0000000  0 10G01G07G08G09G11G13G17G19G28G30
 123620860.765 7  96327967.57845  23524261.420
  23524264.980          42.000          38.250
 111157706.806 9  86616470.84647  21152570.640
  21152569.480          49.000          44.000
 128122140.326 6  99835512.36943  24380802.440
  24380804.240          41.250          31.250
 129605576.716 5 100991402.69845  24663095.460
  24663098.980          38.500          37.250
 118211441.501 8  92112838.86445  22494875.340
  22494874.180          46.500          37.000
 116430979.626 8  90725468.76646  22156069.800
  22156069.780          47.500          39.000
 115052921.829 9  89651635.95947  21893827.340
  21893827.240          49.000          43.750
 124225754.490 7  96799308.28745  23639367.160
  23639365.820          43.500          37.750
 110541988.999 9  86136643.40247  21035421.000
  21035419.360          49.250          43.500
 106804926.218 9  83224699.51248  20324271.500
  20324272.420          51.000          46.250
 16  2 13  2 54 30.0000000  0 10G01G07G08G09G11G13G17G19G28G30
 123568221.934 6  96286950.32645  23514244.180
  23514248.280          41.250          37.000
 111206314.124 9  86654346.65647  21161820.260
  21161819.260          49.250          43.500
 128222727.165 6  99913891.74944  24399943.560
  24399945.600          41.750          33.500
 129717740.296 6 101078802.85545  24684439.440
  24684443.100          39.750          38.000
 118206068.130 8  92108651.82945  22493852.880
  22493851.940          46.500          37.250
 116373657.397 8  90680802.11345  22145161.740
  22145161.440          47.750          38.000
 114973640.115 9  89589858.03947  21878740.620
  21878740.580          49.000          44.000
 124109083.175 7  96708395.64945  23617164.940
  23617163.700          44.000          38.250
 110540026.569 9  86135114.25747  21035047.440
  21035045.940          49.250          43.500
 106806195.464 9  83225688.53548  20324513.020
  20324513.660          51.250          46.000
 16  2 13  2 55  0.0000000  0 10G01G07G08G09G11G13G17G19G28G30
 123515954.692 6  96246222.67645  23504297.880
  23504301.900          41.500          37.500
 111255286.632 9  86692507.03847  21171139.440
  21171138.440          49.000          43.750
 128323468.657 6  99992391.61445  24419114.000
  24419116.240          41.250          37.000
 129829878.312 6 101166183.09745  24705778.600
  24705782.060          40.250          36.750
 118201269.415 8  92104912.59045  22492939.720
  22492938.820          46.500          36.750
 116316858.296 8  90636543.07946  22134353.140
  22134352.840          47.500          39.000
 114894724.123 8  89528365.08947  21863723.460
  21863723.360          48.750          43.500
 123992572.995 7  96617608.56245  23594993.800
  23594992.060          44.250          36.000
 110538247.371 9  86133727.87347  21034708.740
  21034707.520          49.250          43.750
 106807827.744 9  83226960.43948  20324823.580
  20324824.180          51.000          46.500
 16  2 13  2 55 30.0000000  0 10G01G07G08G09G11G13G17G19G28G30
 123464062.798 6  96205787.46745  23494423.060
  23494427.420          41.750          36.750
 111304625.209 9  86730952.68047  21180528.320
  21180527.220          49.000          43.500
 128424362.892 6 100071010.50145  24438313.600
  24438315.980          41.250          36.250
 129941989.231 5 101253542.26345  24727112.720
  24727116.020          38.750          37.500
 118197047.446 8  92101622.76045  22492136.400
  22492135.220          46.750          37.750
 116260585.400 8  90592694.08845  22123644.900
  22123644.300          48.000          38.250
 114816176.937 8  89467159.51047  21848776.340
  21848776.340          48.500          43.500
 123876227.874 7  96526950.11045  23572854.180
  23572852.640          44.750          38.250
 110536651.123 9  86132484.04547  21034405.040
  21034404.060          49.500          43.750
 106809825.025 9  83228516.77448  20325203.600
  20325204.520          51.000          46.500
 16  2 13  2 56  0.0000000  0 10G01G07G08G09G11G13G17G19G28G30
 123412549.104 6  96165646.95944  23484620.380
  23484624.100          41.250          33.500
 111354329.983 9  86769683.65247  21189986.780
  21189985.780          49.000          43.750
 128525407.452 6 100149746.52245  24457541.340
  24457543.920          39.500          36.500
 130054070.598 5 101340878.35244  24748441.140
  24748444.240          37.500          33.000
 118193402.940 8  92098782.88745  22491443.060
  22491441.660          46.500          37.000
 116204840.864 8  90549256.78745  22113037.280
  22113036.180          48.000          38.500
 114738000.276 9  89406242.66047  21833899.840
  21833899.780          49.000          43.500
 123760050.159 8  96436422.08845  23550746.460
  23550744.860          45.000          38.250
 110535236.967 9  86131382.13447  21034136.120
  21034135.220          49.500          43.750
 106812188.472 9  83230358.41748  20325653.340
  20325654.400          50.750          46.250
 16  2 13  2 56 30.0000000  0 11G01G07G08G09G11G13G15G17G19G28G30
 123361416.411 6  96125803.32545  23474890.260
  23474893.320          41.750          37.000
 111404401.217 9  86808700.19847  21199515.040
  21199514.020          49.250          43.000
 128626599.808 6 100228597.67144  24476797.000
  24476800.280          39.750          34.500
 130166120.083 5 101428189.57344  24769763.280
  24769766.620          37.250          35.250
 118190336.940 8  92096393.80445  22490859.720
  22490858.040          47.000          37.000
 116149626.674 8  90506232.75645  22102530.540
  22102529.220          48.750          38.750
 132429068.294 5 103191486.86742  25200413.940
  25200413.620          38.250          27.500
 114660196.493 9  89345616.35347  21819094.320
  21819094.240          49.250          43.000
 123644042.726 8  96346026.75545  23528670.860
  23528669.140          45.250          38.250
 110534004.064 9  86130421.44747  21033901.640
  21033900.600          49.750          44.000
 106814919.233 9  83232486.28348  20326173.000
  20326174.060          51.000          46.500
 16  2 13  2 57  0.0000000  0 11G01G07G08G09G11G13G15G17G19G28G30
 123310663.315 7  96086255.46045  23465232.500
  23465235.240          42.750          37.000
 111454835.017 9  86847999.26147  21209112.300
  21209111.220          49.500          43.500
 128727933.364 6 100307558.88744  24496079.900
  24496083.480          39.750          33.750
 130278130.909 5 101515470.72244  24791078.600
  24791081.300          38.500          35.000
 118187845.948 8  92094452.77545  22490385.660
  22490384.200          46.750          38.250
 116094940.978 8  90463620.53545  22092124.420
  22092123.260          48.750          38.500
 132346575.851 5 103127207.13042  25184715.880
  25184715.480          36.750          27.500
 114582763.814 8  89285279.23847  21804359.280
  21804359.360          48.750          44.000
 123528204.277 8  96255763.07145  23506627.520
  23506625.640          45.250          38.250
 110532947.040 9  86129597.78847  21033700.540
  21033699.280          49.750          43.500
 106818014.147 9  83234897.90648  20326761.980
  20326763.020          51.000          46.250
 16  2 13  2 57 30.0000000  0 11G01G07G08G09G11G13G15G17G19G28G30
 123260301.113 7  96047012.17944  23455649.040
  23455651.840          42.500          35.750
 111505639.651 9  86887587.28247  21218780.220
  21218778.900          49.500          43.500
 128829414.073 5 100386634.77843  24515390.800
  24515394.400          38.250          30.750
 130390109.304 6 101602726.57745  24812387.720
  24812390.160          39.000          36.500
 118185939.387 8  92092967.15645  22490022.680
  22490021.640          46.500          38.250
 116040794.083 8  90421428.16846  22081820.520
  22081819.780          48.250          39.750
 132264401.474 5 103063175.20943  25169078.140
  25169078.260          37.500          29.000
 114505711.218 9  89225238.28547  21789696.620
  21789696.820          49.250          44.250
 123412545.923 7  96165639.76945  23484618.380
  23484616.800          44.750          38.250
 110532073.701 9  86128917.26647  21033534.400
  21033532.800          49.750          43.500
 106821482.880 9  83237600.81348  20327421.920
  20327423.020          51.000          46.250
 16  2 13  2 58  0.0000000  0 11G01G07G08G09G11G13G15G17G19G28G30
 123210324.564 7  96008069.48944  23446138.980
  23446141.540          42.250          35.750
 111556807.254 9  86927458.13547  21228517.160
  21228515.840          49.500          43.250
 128931031.614 6 100465817.31844  24534727.980
  24534731.560          40.000          32.500
 130502044.620 6 101689948.87745  24833688.620
  24833690.840          39.250          38.000
 118184609.710 8  92091931.05245  22489769.480
  22489768.380          46.500          36.000
 115987180.065 8  90379651.02546  22071618.000
  22071617.520          48.750          39.250
 132182539.591 5 102999386.73044  25153500.040
  25153500.500          38.000          33.000
 114429033.132 9  89165489.16747  21775105.260
  21775105.500          49.500          44.000
 123297062.361 7  96075652.65446  23462642.340
  23462641.320          43.500          39.000
 110531374.681 9  86128372.59047  21033401.380
  21033399.740          49.750          43.750
 106825318.399 9  83240589.53148  20328151.800
  20328152.880          51.250          46.250
 16  2 13  2 58 30.0000000  0 11G01G07G08G09G11G13G15G17G19G28G30
 123160741.967 7  95969433.74744  23436703.640
  23436706.320          42.250          35.250
 111608343.631 9  86967616.33247  21238324.140
  21238323.040          49.250          44.000
 129032789.325 6 100545109.10243  24554091.880
  24554095.080          39.250          29.000
 130613940.133 6 101777140.19444  24854981.620
  24854983.820          39.000          34.500
 118183863.508 8  92091349.60545  22489627.300
  22489625.940          46.250          37.000
 115934106.542 8  90338295.03346  22061518.540
  22061518.020          48.500          39.500
 132100997.993 6 102935847.85844  25137983.200
  25137983.200          40.250          34.250
 114352737.154 9  89106037.78347  21760586.620
  21760586.720          49.250          43.750
 123181761.846 7  95985808.17045  23440701.200
  23440700.140          44.500          38.750
 110530854.919 9  86127967.58847  21033302.400
  21033300.940          49.500          43.750
 106829527.409 9  83243869.28648  20328952.740
  20328953.960          51.000          46.500
 16  2 13  2 59  0.0000000  0 11G01G07G08G09G11G13G15G17G19G28G30
 123111551.743 6  95931103.73845  23427342.740
  23427345.960          41.750          37.250
 111660244.030 9  87008058.17947  21248200.320
  21248199.500          49.000          43.000
 129134680.663 5 100624504.88445  24573480.760
  24573483.820          37.750          36.750
 130725789.083 5 101864295.18545  24876265.660
  24876267.260          37.000          37.750
 118183697.165 8  92091219.99545  22489595.560
  22489594.200          46.750          37.250
 115881571.038 8  90297358.30846  22051521.420
  22051520.940          48.750          40.000
 132019774.991 6 102872557.23543  25122527.280
  25122527.040          40.750          31.500
 114276820.675 9  89046882.11947  21746140.220
  21746140.100          49.500          43.500
 123066642.822 7  95896105.10045  23418794.700
  23418793.600          44.500          38.500
 110530508.838 9  86127697.91947  21033236.320
  21033235.280          49.250          43.250
 106834106.626 9  83247437.49848  20329824.080
  20329825.280          50.750          46.000
 16  2 13  2 59 30.0000000  0 11G01G07G08G09G11G13G15G17G19G28G30
 123062759.558 7  95893083.88544  23418057.860
  23418060.880          42.250          34.500
 111712511.921 8  87048786.40847  21258146.460
  21258145.560          48.750          42.750
 129236705.823 5 100704004.98144  24592895.340
  24592899.060          38.500          32.250
 130837592.046 5 101951414.28744  24897540.640
  24897542.200          37.750          34.250
 118184113.853 8  92091544.69945  22489674.960
  22489673.520          46.750          36.750
 115829578.779 8  90256844.86946  22041627.700
  22041627.300          48.750          40.000
 131938875.711 6 102809518.87743  25107132.980
  25107132.300          41.750          31.000
 114201288.335 9  88988025.76847  21731766.980
  21731766.740          49.500          44.250
 122951711.013 8  95806547.93245  23396924.040
  23396922.940          45.250          38.500
 110530338.370 9  86127565.09147  21033203.740
  21033202.820          49.500          43.500
 106839060.099 9  83251297.34348  20330766.560
  20330767.960          50.750          46.750
                            4  1
RINEX FILE SPLICE; other post-header comments skipped       COMMENT
 16  2 13  3  0  0.0000000  0 11G01G07G08G09G11G13G15G17G19G28G30
 123014365.209 6  95855374.00045  23408848.620
  23408851.760          41.750          36.500
 111765144.449 8  87089798.74547  21268162.040
  21268160.940          48.750          42.500
 129338859.590 5 100783605.31243  24612334.500
  24612338.360          37.500          31.250
 130949343.544 6 102038493.35644  24918806.160
  24918808.440          39.250          35.500
 118185111.398 8  92092322.01545  22489864.900
  22489863.400          46.250          38.500
 115778128.469 8  90216753.72845  22031837.100
  22031836.620          48.750          38.750
 131858299.585 6 102746732.34444  25091800.020
  25091799.560          40.500          35.750
 114126139.459 9  88929468.21947  21717466.680
  21717466.480          49.250          44.750
 122836966.031 8  95717136.29945  23375088.900
  23375087.640          45.500          38.750
 110530339.938 9  86127566.33347  21033204.020
  21033202.980          49.500          43.250
 106844385.888 9  83255447.31748  20331779.940
  20331781.660          50.750          46.750
 16  2 13  3  0 30.0000000  0 11G01G07G08G09G11G13G15G17G19G28G30
 122966373.723 6  95817978.06644  23399715.880
  23399718.940          41.250          35.750
 111818143.707 8  87131096.85147  21278247.360
  21278246.540          48.750          42.750
 129441141.717 5 100863305.72444  24631798.420
  24631801.580          38.750          33.500
 131061043.519 6 102125532.28944  24940062.280
  24940064.420          40.000          33.000
 118186693.355 8  92093554.72945  22490165.940
  22490164.600          46.500          38.000
 115727224.598 8  90177088.37346  22022150.340
  22022149.880          48.750          39.000
 131778051.213 6 102684201.22344  25076529.020
  25076529.000          39.000          33.500
 114051377.925 9  88871212.51147  21703240.040
  21703239.940          49.500          44.000
 122722413.239 8  95627874.43345  23353290.400
  23353289.100          45.500          37.500
 110530514.965 9  86127702.73847  21033237.340
  21033236.160          49.500          42.750
 106850087.415 9  83259890.06148  20332864.820
  20332866.560          50.750          46.250
 16  2 13  3  1  0.0000000  0 11G01G07G08G09G11G13G15G17G19G28G30
 122918787.627 7  95780898.05345  23390660.440
  23390663.440          42.250          37.000
 111871509.759 9  87172680.76747  21288402.600
  21288401.740          49.000          43.250
 129543549.806 6 100943104.26043  24651286.460
  24651289.920          40.250          31.250
 131172689.430 6 102212529.09344  24961308.060
  24961310.400          39.250          35.250
 118188859.473 8  92095242.60945  22490578.040
  22490576.880          46.750          37.500
 115676868.686 8  90137850.02246  22012567.860
  22012567.360          48.750          39.000
 131698133.038 5 102621927.40945  25061320.740
  25061321.320          37.500          37.250
 113977005.470 9  88813259.98647  21689087.320
  21689087.260          49.250          44.000
 122608055.141 7  95538764.28845  23331528.600
  23331527.160          44.750          37.000
 110530862.220 9  86127973.33747  21033303.320
  21033302.280          49.250          43.250
 106856165.462 9  83264626.20248  20334021.420
  20334023.180          50.750          47.000
 16  2 13  3  1 30.0000000  0 11G01G07G08G09G11G13G15G17G19G28G30
 122871609.317 7  95744135.74944  23381682.700
  23381685.220          43.000          32.250
 111925242.063 9  87214550.09547  21298627.640
  21298626.640          49.250          43.000
 129646081.282 5 101022998.95543  24670797.760
  24670800.540          38.250          28.250
 131284278.697 6 102299481.71845  24982542.760
  24982545.380          39.250          37.500
 118191610.545 8  92097386.32045  22491101.680
  22491100.160          46.500          37.750
 115627062.831 8  90099040.26746  22003090.120
  22003089.360          48.750          39.000
 131618546.821 5 102559912.25545  25046175.780
  25046176.160          37.250          37.500
 113903023.137 9  88755611.44547  21675008.780
  21675008.720          49.000          44.250
 122493894.015 7  95449807.60945  23309804.500
  23309802.760          44.500          38.250
 110531380.264 9  86128377.00647  21033401.840
  21033400.880          49.250          43.500
 106862620.858 9  83269656.36648  20335250.000
  20335251.700          51.000          46.750
 16  2 13  3  2  0.0000000  0 11G01G07G08G09G11G13G15G17G19G28G30
 122824841.259 7  95707693.11944  23372783.160
  23372784.980          42.750          32.250
 111979340.669 9  87256704.84947  21308922.380
  21308921.320          49.000          43.000
 129748733.636 4 101102987.81042  24690331.400
  24690335.020          35.500          26.000
 131395808.627 6 102386388.10745  25003766.280
  25003769.000          39.500          38.250
 118194946.604 8  92099985.87145  22491736.660
  22491734.920          47.000          36.750
 115577808.511 8  90060660.28445  21993717.340
  21993716.060          48.250          38.750
 131539294.738 5 102498157.46046  25031094.340
  25031095.100          36.500          39.250
 113829432.758 9  88698268.31147  21661004.800
  21661004.780          49.000          44.500
 122379932.362 7  95361006.38845  23288118.040
  23288116.300          44.750          37.250
 110532068.330 9  86128913.17347  21033532.800
  21033531.860          49.250          44.000
 106869454.422 9  83274981.21948  20336550.480
  20336552.140          50.750          47.000
 16  2 13  3  2 30.0000000  0 11G01G07G08G09G11G13G15G17G19G28G30
 122778486.662 7  95671572.72044  23363962.340
  23363963.640          43.500          34.250
 112033806.022 8  87299145.35547  21319286.720
  21319285.940          48.500          43.750
 129851505.053 4 101183069.36745  24709887.520
  24709891.800          35.500          37.750
 131507277.465 6 102473246.90344  25024978.180
  25024980.780          39.500          34.500
 118198868.773 8  92103042.12345  22492483.060
  22492481.400          46.250          38.250
 115529107.751 8  90022711.65246  21984449.640
  21984448.380          48.000          39.750
 131460379.786 5 102436665.32944  25016077.200
  25016078.020          38.000          33.750
 113756236.664 9  88641232.42047  21647075.900
  21647075.880          49.250          44.000
 122266173.766 7  95272363.37445  23266470.480
  23266468.440          44.750          38.250
 110532925.668 9  86129581.23947  21033695.920
  21033695.160          49.250          43.500
 106876667.723 9  83280601.96748  20337923.120
  20337924.840          50.750          46.750
 16  2 13  3  3  0.0000000  0 11G01G07G08G09G11G13G15G17G19G28G30
 122732546.466 7  95635775.16344  23355220.320
  23355221.440          44.000          33.250
 112088636.384 8  87341870.27847  21329720.400
  21329719.980          48.750          43.250
 129954390.926 5 101263240.13944  24729466.040
  24729470.700          38.250          34.000
 131618681.077 6 102560054.90044  25046177.640
  25046180.320          40.250          35.750
 118203376.025 8  92106554.26445  22493340.700
  22493339.220          47.000          37.750
 115480960.790 8  89985194.57046  21975287.280
  21975286.540          48.250          39.000
 131381802.699 5 102375436.48543  25001124.360
  25001125.100          38.750          30.000
 113683434.837 9  88584503.73447  21633222.220
  21633221.980          49.250          43.500
 122152618.824 8  95183879.05746  23244861.620
  23244859.440          45.000          40.000
 110533950.006 9  86130379.43447  21033890.760
  21033890.120          49.000          43.750
 106884260.054 9  83286518.07948  20339367.860
  20339369.400          50.750          46.500
 16  2 13  3  3 30.0000000  0 11G01G07G08G09G11G13G15G17G19G28G30
 122687024.091 7  95600303.20843  23346557.920
  23346559.400          43.750          31.250
 112143832.523 8  87384880.24047  21340224.000
  21340223.480          48.750          43.250
 130057390.107 5 101343499.26245  24749066.360
  24749070.300          37.500          36.500
 131730017.897 6 102646810.80544  25067364.320
  25067367.080          41.000          35.500
 118208469.334 8  92110523.09645  22494309.780
  22494308.140          46.250          37.500
 115433370.511 8  89948111.25646  21966231.080
  21966230.720          48.000          40.000
 131303566.222 6 102314473.04444  24986236.320
  24986237.420          39.000          32.250
 113611029.805 9  88528084.24547  21619444.020
  21619443.640          49.000          44.000
 122039271.333 7  95095556.38346  23223292.520
  23223290.000          44.750          39.250
 110535140.823 9  86131307.34847  21034117.320
  21034116.600          49.250          43.500
 106892233.209 9  83292730.92748  20340885.220
  20340886.420          50.750          46.250
 16  2 13  3  4  0.0000000  0 11G01G07G08G09G11G13G15G17G19G28G30
 122641923.225 7  95565159.73444  23337975.500
  23337977.480          43.750          33.750
 112199395.419 9  87428175.98947  21350797.500
  21350796.660          49.000          43.000
 130160501.696 5 101423845.99444  24768687.840
  24768691.340          38.250          32.250
 131841286.707 6 102733513.76345  25088538.200
  25088540.620          41.750          37.000
 118214150.503 8  92114949.99345  22495390.840
  22495389.080          46.500          37.500
 115386339.735 8  89911463.90346  21957281.360
  21957281.340          48.250          40.500
 131225673.964 5 102253777.77545  24971413.720
  24971414.280          38.000          37.000
 113539024.408 9  88471976.15747  21605741.800
  21605741.600          49.000          44.750
 121926134.886 8  95007398.17046  23201763.380
  23201760.920          45.000          39.250
 110536498.771 9  86132365.50647  21034375.920
  21034374.880          49.500          44.000
 106900589.265 9  83299242.14448  20342475.420
  20342476.580          50.750          47.000
 16  2 13  3  4 30.0000000  0 11G01G07G08G09G11G13G15G17G19G28G30
 122597243.069 7  95530344.07145  23329472.980
  23329475.640          43.500          36.000
 112255321.543 8  87471754.78047  21361440.020
  21361438.940          48.500          43.000
 130263719.518 5 101504275.46644  24788329.760
  24788333.240          37.250          34.750
 131952481.731 7 102820159.19144  25109698.020
  25109700.220          42.000          33.500
 118220416.537 8  92119832.61945  22496583.320
  22496581.720          46.500          38.250
 115339866.932 8  89875251.34746  21948437.780
  21948438.120          48.250          41.000
 131148124.917 5 102193349.93845  24956656.720
  24956657.000          38.250          37.750
 113467417.014 9  88416178.21547  21592115.340
  21592115.320          49.250          44.250
 121813208.890 7  94919403.95745  23180274.180
  23180271.760          44.500          38.000
 110538019.229 9  86133550.28747  21034665.480
  21034664.120          49.500          44.000
 106909325.856 9  83306049.86148  20344137.920
  20344139.040          50.750          46.500
 16  2 13  3  5  0.0000000  0 11G01G07G08G09G11G13G15G17G19G28G30
 122552990.478 7  95495861.60444  23321052.020
  23321055.020          43.750          35.250
 112311615.348 8  87515620.07147  21372152.280
  21372151.300          48.500          43.000
 130367046.004 4 101584789.5844   24807991.600
  24807996.060          35.000          18.750
 132063604.937 6 102906748.75643  25130844.120
  25130845.860          41.750          31.500
 118227272.080 8  92125174.59745  22497887.720
  22497886.500          46.000          38.750
 115293958.356 8  89839478.44546  21939701.660
  21939702.280          48.250          41.000
 131070925.653 5 102133194.7004   24941966.180
  24941966.860          38.000          24.250
 113396213.672 9  88360695.10347  21578565.920
  21578565.740          49.500          44.000
 121700500.484 7  94831579.27445  23158826.380
  23158824.060          44.750          37.250
 110539705.820 9  86134864.51547  21034986.580
  21034984.900          49.500          43.250
 106918448.232 9  83313158.21448  20345873.740
  20345874.980          50.750          46.500
 16  2 13  3  5 30.0000000  0 11G01G07G08G09G11G13G15G17G19G28G30
 122509163.716 7  95461710.92845  23312711.660
  23312714.920          43.250          37.750
 112368271.759 8  87559767.90147  21382933.580
  21382932.580          48.750          42.750
 130470474.009 4 101665382.81244  24827673.360
  24827677.880          35.250          35.500
 132174649.612 6 102993277.07044  25151975.000
  25151976.880          41.250          35.500
 118234713.023 8  92130972.76145  22499303.540
  22499302.520          46.500          37.250
 115248611.152 8  89804142.98446  21931072.340
  21931072.960          48.250          41.250
 130994073.920 6 102073310.31343  24927342.160
  24927342.600          39.250          30.750
 113325411.522 9  88305524.61247  21565092.800
  21565092.420          49.250          44.250
 121588007.902 7  94743922.76545  23137419.640
  23137417.300          44.000          37.750
 110541553.115 9  86136303.97247  21035338.100
  21035336.420          49.250          43.750
 106927953.031 9  83320564.55248  20347682.340
  20347683.740          50.750          47.000
 16  2 13  3  6  0.0000000  0 11G01G07G08G09G11G13G15G17G19G28G30
 122465768.408 7  95427896.47845  23304453.620
  23304456.940          44.000          36.750
 112425294.679 8  87604201.33147  21393784.800
  21393783.620          48.750          42.750
 130574004.301 5 101746055.73644  24847375.000
  24847378.640          38.000          34.250
 132285616.528 6 103079744.76645  25173091.020
  25173093.400          40.750          36.750
 118242743.093 8  92137229.95445  22500831.800
  22500830.680          46.750          38.250
 115203830.047 8  89769248.61646  21922550.960
  21922551.240          48.750          40.000
 130917575.131 6 102013700.89445  24912785.140
  24912785.240          40.250          37.750
 113255015.280 9  88250670.40947  21551696.800
  21551696.480          49.250          44.750
 121475737.052 8  94656439.01445  23116055.080
  23116052.840          45.000          38.750
 110543563.221 9  86137870.30047  21035720.460
  21035718.960          49.250          43.750
 106937844.290 9  83328272.03148  20349564.500
  20349566.000          50.500          46.750
 16  2 13  3  6 30.0000000  0 11G01G07G08G09G11G13G15G17G19G28G30
 122422805.616 7  95394419.00645  23296278.260
  23296281.160          44.750          36.500
 112482682.300 8  87648918.95747  21404705.400
  21404704.220          48.500          42.750
 130677633.417 5 101826805.75445  24867095.480
  24867098.720          38.250          36.000
 132396501.878 6 103166148.91845  25194191.580
  25194194.380          39.500          37.000
 118251360.884 8  92143945.12845  22502471.900
  22502470.360          46.500          38.250
 115159615.229 8  89734795.53046  21914137.320
  21914137.420          48.250          40.750
 130841430.006 6 101954367.07144  24898295.480
  24898295.340          40.500          35.500
 113185025.129 9  88196132.65347  21538378.120
  21538377.940          49.250          44.500
 121363689.036 7  94569128.93945  23094732.760
  23094730.900          44.250          38.500
 110545734.050 9  86139561.87447  21036133.500
  21036132.180          49.250          44.250
 106948121.447 9  83336280.19348  20351520.220
  20351521.760          50.500          46.750
 16  2 13  3  7  0.0000000  0 11G01G07G08G09G11G13G15G17G19G28G30
 122380279.736 8  95361282.01645  23288186.000
  23288188.480          45.250          37.000
 112540436.054 8  87693921.86047  21415695.580
  21415694.520          48.750          43.000
 130781360.652 5 101907632.10944  24886834.180
  24886837.280          37.250          35.500
 132507305.142 6 103252489.09345  25215276.360
  25215279.700          39.000          38.500
 118260568.757 8  92151120.09845  22504224.020
  22504222.660          46.500          37.750
 115115970.220 8  89700786.44746  21905831.880
  21905832.000          48.250          40.750
 130765642.904 6 101895312.23645  24883873.940
  24883873.940          41.750          36.750
 113115445.096 9  88141914.46647  21525137.480
  21525137.380          49.250          44.750
 121251868.445 7  94481996.04346  23073453.900
  23073452.080          44.750          39.750
 110548066.395 9  86141379.29447  21036577.380
  21036576.180          49.500          44.000
 106958787.335 9  83344591.27748  20353549.860
  20353551.360          50.500          46.750
 16  2 13  3  7 30.0000000  0 10G01G07G08G11G13G15G17G19G28G30
 122338190.002 8  95328484.85845  23280176.760
  23280179.160          45.000          36.500
 112598552.592 8  87739207.45847  21426754.680
  21426753.580          48.750          42.250
 130885180.867 5 101988531.01544  24906591.000
  24906593.300          38.750          33.250
 118270363.510 8  92158752.39845  22506087.680
  22506086.600          46.250          37.500
 115072893.885 8  89667220.46946  21897634.600
  21897634.620          48.250          40.000
 130690212.795 6 101836535.64645  24869520.200
  24869520.120          41.500          36.500
 113046272.877 9  88088014.04547  21511974.440
  21511974.220          49.500          44.000
 121140274.845 8  94395040.04045  23052218.380
  23052216.720          45.250          38.500
 110550555.868 9  86143319.14747  21037051.080
  21037049.960          49.500          43.500
 106969839.597 9  83353203.42148  20355653.060
  20355654.480          50.750          46.500
 16  2 13  3  8  0.0000000  0 10G01G07G08G11G13G15G17G19G28G30
 122296540.372 8  95296030.67045  23272251.120
  23272253.460          45.000          37.500
 112657033.167 8  87784776.72546  21437883.200
  21437881.840          48.500          41.750
 130989092.958 4 102069501.45745  24926364.900
  24926366.640          35.500          36.250
 118280746.364 8  92166842.94045  22508063.400
  22508062.480          45.750          38.250
 115030388.980 8  89634099.77246  21889545.940
  21889545.700          48.000          39.000
 130615143.257 6 101778039.98444  24855234.940
  24855234.680          40.250          35.250
 112977511.287 9  88034433.60147  21498889.580
  21498889.180          49.250          44.750
 121028912.217 7  94308264.03046  23031026.700
  23031024.920          44.500          40.250
 110553203.452 9  86145382.20447  21037554.860
  21037553.760          49.250          43.750
 106981280.697 9  83362118.55448  20357830.200
  20357831.640          50.500          46.500
 16  2 13  3  8 30.0000000  0 10G01G07G08G11G13G15G17G19G28G30
 122255334.031 7  95263921.85145  23264409.800
  23264412.060          44.500          37.500
 112715878.500 8  87830630.20947  21449081.040
  21449079.620          48.250          42.000
 131093095.452 5 102150542.38043  24946156.320
  24946156.500          38.250          30.500
 118291719.309 8  92175393.30745  22510151.360
  22510150.480          46.000          38.250
 114988458.088 8  89601426.35646  21881566.720
  21881566.240          48.000          39.500
 130540437.066 6 101719827.37243  24841018.560
  24841019.040          39.500          28.250
 112909163.285 9  87981175.44847  21485883.320
  21485882.940          49.250          44.750
 120917783.955 8  94221670.61046  23009879.800
  23009877.900          45.250          40.000
 110556008.947 9  86147568.31847  21038088.820
  21038087.520          49.500          43.750
 106993112.212 9  83371337.90848  20360081.680
  20360083.060          50.500          46.750
 16  2 13  3  9  0.0000000  0 10G01G07G08G11G13G15G17G19G28G30
 122214574.050 7  95232160.86045  23256653.300
  23256655.280          43.750          37.000
 112775088.803 8  87876768.09147  21460348.220
  21460347.100          48.250          43.250
 131197186.240 6 102231652.08744  24965964.480
  24965964.380          40.250          34.000
 118303282.495 8  92184403.59245  22512351.800
  22512350.700          46.000          37.500
 114947103.224 8  89569201.79946  21873697.020
  21873696.720          48.250          40.000
 130466097.167 6 101661900.18644  24826871.960
  24826872.660          40.500          34.500
 112841231.110 9  87928241.30648  21472956.260
  21472955.860          49.250          45.000
 120806893.053 8  94135262.14446  22988778.100
  22988776.000          45.750          39.500
 110558971.757 9  86149877.00547  21038652.760
  21038651.180          49.500          43.750
 107005335.698 9  83380862.70848  20362407.880
  20362409.160          50.750          46.750
 16  2 13  3  9 30.0000000  0 10G01G07G08G11G13G15G17G19G28G30
 122174259.612 7  95200747.06745  23248981.480
  23248983.860          43.250          38.000
 112834660.944 8  87923187.92247  21471684.380
  21471683.680          48.250          43.500
 131301360.545 6 102312826.90744  24985788.340
  24985788.720          40.000          32.250
 118315432.985 8  92193871.52345  22514663.980
  22514662.680          46.000          37.000
 114906322.485 8  89537424.59846  21865936.700
  21865936.200          48.000          39.000
 130392122.805 7 101604257.86143  24812795.500
  24812795.740          43.000          30.750
 112773712.662 9  87875629.55147  21460108.020
  21460107.560          49.750          44.750
 120696239.729 8  94049038.81846  22967721.480
  22967719.260          45.000          39.500
 110562088.101 9  86152305.33847  21039245.760
  21039243.900          49.500          43.000
 107017948.750 9  83390691.06748  20364808.180
  20364809.360          50.750          46.250
 16  2 13  3 10  0.0000000  0 10G01G07G08G11G13G15G17G19G28G30
 122134396.676 7  95169685.08645  23241395.600
  23241398.340          43.500          37.500
 112894598.226 8  87969892.26547  21483090.180
  21483089.680          48.750          43.000
 131405619.327 5 102394067.55144  25005628.280
  25005628.320          38.500          32.500
 118328174.407 8  92203799.90645  22517088.780
  22517087.480          46.500          38.000
 114866121.112 8  89506098.85046  21858286.620
  21858286.300          48.500          39.500
 130318519.646 7 101546904.80943  24798789.460
  24798789.360          43.750          31.750
 112706612.998 9  87823344.12347  21447339.360
  21447339.000          49.500          44.500
 120585829.981 7  93963005.27445  22946711.020
  22946708.920          44.500          38.250
 110565360.719 9  86154855.43847  21039868.360
  21039866.460          49.250          43.750
 107030955.825 9  83400826.44348  20367283.300
  20367284.560          50.750          46.500
 16  2 13  3 10 30.0000000  0 10G01G07G08G11G13G15G17G19G28G30
 122094985.484 7  95138975.12246  23233895.840
  23233898.780          43.750          39.500
 112954898.152 8  88016879.20047  21494565.060
  21494564.280          48.750          43.000
 131509958.001 6 102475370.37543  25025483.600
  25025482.600          40.500          31.750
 118341504.916 8  92214187.33245  22519625.560
  22519624.520          46.500          37.500
 114826498.841 8  89475224.35945  21850746.920
  21850746.780          48.500          38.500
 130245287.615 7 101489840.95744  24784853.900
  24784853.780          42.250          35.000
 112639931.482 9  87771384.52347  21434650.200
  21434649.940          49.750          44.500
 120475663.927 8  93877161.64746  22925746.900
  22925745.020          45.000          39.250
 110568786.490 9  86157524.87647  21040520.000
  21040518.480          49.250          43.500
 107044355.616 9  83411267.83948  20369833.280
  20369834.620          51.000          46.250
 16  2 13  3 11  0.0000000  0 10G01G07G08G11G13G15G17G19G28G30
 122056030.171 7  95108620.38246  23226483.060
  23226486.020          43.500          39.750
 113015561.935 8  88064149.66647  21506109.020
  21506108.180          48.500          43.000
 131614376.396 6 102556735.36744  25045353.980
  25045352.920          40.750          32.500
 118355426.094 8  92225035.01745  22522274.660
  22522273.620          46.500          37.750
 114787458.265 8  89444803.14046  21843317.860
  21843317.640          48.750          40.500
 130172430.690 6 101433069.36544  24770989.180
  24770989.280          40.750          35.250
 112573671.397 9  87719753.30847  21422041.360
  21422041.100          49.750          44.500
 120365746.034 8  93791511.37646  22904830.280
  22904828.200          45.750          39.750
 110572365.997 9  86160314.09647  21041201.120
  21041199.880          49.250          43.750
 107058150.654 9  83422017.22048  20372458.420
  20372459.620          51.000          46.500
 16  2 13  3 11 30.0000000  0 10G01G07G08G11G13G15G17G19G28G30
 122017532.333 7  95078622.09945  23219157.020
  23219160.100          43.500          38.250
 113076589.124 8  88111703.28147  21517722.020
  21517721.200          48.250          43.500
 131718871.373 6 102638160.03445  25065238.600
  25065238.040          40.250          36.500
 118369937.343 8  92236342.50045  22525035.940
  22525034.660          46.000          38.000
 114749000.623 8  89414836.14446  21835999.880
  21835999.400          48.750          40.000
 130099950.206 6 101376591.16446  24757195.860
  24757196.480          39.250          39.250
 112507833.787 9  87668451.30648  21409512.860
  21409512.720          49.250          45.000
 120256078.547 8  93706056.22846  22883961.340
  22883959.240          46.000          40.250
 110576097.721 9  86163221.93947  21041911.360
  21041910.160          49.250          44.000
 107072341.197 9  83433074.78148  20375158.720
  20375159.860          50.750          46.500
 16  2 13  3 12  0.0000000  0 10G01G07G08G11G13G15G17G19G28G30
 121979492.311 7  95048980.57546  23211918.200
  23211921.220          43.750          39.000
 113137977.111 8  88159538.06247  21529403.820
  21529403.100          48.500          43.000
 131823438.676 6 102719641.02044  25085136.960
  25085137.160          40.000          35.000
 118385036.322 8  92248107.95245  22527909.020
  22527907.660          46.250          36.500
 114711125.183 9  89385322.82546  21828792.500
  21828791.840          49.000          39.500
 130027846.276 6 101320406.33245  24743474.520
  24743475.740          39.500          38.250
 112442417.737 9  87617477.79148  21397064.360
  21397064.580          49.250          45.000
 120146661.806 8  93620796.44446  22863140.120
  22863138.000          46.250          39.500
 110579979.150 9  86166246.44247  21042650.060
  21042648.800          49.500          42.750
 107086926.009 9  83444439.57048  20377933.900
  20377935.260          50.500          46.500
 16  2 13  3 12 30.0000000  0 10G01G07G08G11G13G15G17G19G28G30
 121941915.190 7  95019699.74846  23204767.520
  23204770.280          43.500          39.250
 113199728.558 8  88207656.03747  21541154.840
  21541153.900          48.500          42.000
 131928078.923 6 102801178.91943  25105049.080
  25105049.400          39.500          29.750
 118400725.871 8  92260333.58345  22530894.720
  22530893.140          46.250          37.750
 114673836.251 8  89356266.51546  21821696.920
  21821696.180          48.750          39.750
 129956123.873 6 101264518.75945  24729825.840
  24729827.540          39.500          38.750
 112377427.539 9  87566836.11547  21384696.940
  21384697.400          49.250          44.750
 120037501.432 8  93535736.44346  22842367.700
  22842365.540          46.000          41.250
 110584011.959 9  86169388.90047  21043417.540
  21043416.080          49.500          43.500
 107101908.581 9  83456114.27848  20380784.880
  20380786.360          50.500          46.500
 16  2 13  3 13  0.0000000  0 10G01G07G08G11G13G15G17G19G28G30
 121904799.457 7  94990778.44946  23197704.680
  23197707.440          42.500          40.250
 113261839.191 8  88256053.92547  21552974.220
  21552973.200          48.500          42.750
 132032785.859 6 102882768.82343  25124974.020
  25124973.640          39.750          29.750
 118417002.566 8  92273016.72645  22533992.160
  22533990.440          46.500          37.500
 114637131.657 9  89327665.54346  21814712.360
  21814711.700          49.000          39.750
 129884781.302 6 101208927.18845  24716249.820
  24716251.640          40.500          37.250
 112312860.739 9  87516524.35547  21372410.300
  21372410.600          49.500          44.250
 119928595.956 8  93450875.08046  22821643.700
  22821641.900          45.250          41.500
 110588191.389 9  86172645.60747  21044212.880
  21044211.280          49.500          43.000
 107117285.973 9  83468096.66248  20383711.060
  20383712.460          50.750          46.250
 16  2 13  3 13 30.0000000  0 10G01G07G08G11G13G15G17G19G28G30
 121868150.724 7  94962221.04046  23190730.420
  23190733.360          42.500          39.000
 113324312.001 8  88304734.00247  21564862.360
  21564861.440          48.000          42.750
 132137560.843 6 102964411.66245  25144911.900
  25144911.440          40.000          37.000
 118433869.359 8  92286159.69445  22537201.920
  22537200.180          46.750          38.000
 114601015.183 9  89299522.84446  21807839.640
  21807838.960          49.000          40.500
 129813824.011 6 101153635.86644  24702747.500
  24702749.020          41.500          34.250
 112248722.201 9  87466546.28647  21360205.240
  21360205.180          49.750          44.250
 119819951.582 8  93366217.15946  22800969.380
  22800967.600          46.000          41.500
 110592520.143 9  86176018.67447  21045036.640
  21045034.900          49.500          43.750
 107133062.338 9  83480389.92248  20386713.280
  20386714.420          50.750          46.500
 16  2 13  3 14  0.0000000  0 10G01G07G08G11G13G15G17G19G28G30
 121831970.115 7  94934028.40546  23183845.140
  23183848.460          42.250          40.000
 113387145.666 8  88353695.27147  21576818.880
  21576818.520          48.000          43.500
 132242400.335 6 103046104.75044  25164862.160
  25164862.040          40.000          35.000
 118451325.191 8  92299761.66045  22540523.740
  22540522.060          47.000          38.250
 114565487.462 8  89271838.90846  21801078.940
  21801078.300          48.750          40.000
 129743252.883 6 101098645.42044  24689318.380
  24689318.900          41.500          32.000
 112185012.158 9  87416902.11347  21348081.600
  21348081.380          49.250          44.500
 119711569.765 8  93281763.85246  22780345.060
  22780343.340          46.000          40.750
 110596996.214 9  86179506.53447  21045888.340
  21045886.660          49.250          43.500
 107149237.314 9  83492993.79748  20389791.440
  20389792.680          50.750          46.750
 16  2 13  3 14 30.0000000  0 10G01G07G08G11G13G15G17G19G28G30
 121796261.174 7  94906203.30747  23177049.900
  23177053.380          42.500          42.500
 113450341.104 8  88402938.43947  21588844.460
  21588844.240          48.250          43.250
 132347303.427 6 103127847.44744  25184824.360
  25184823.900          39.250          34.500
 118469371.070 8  92313823.38845  22543957.760
  22543956.340          46.750          38.000
 114530551.526 9  89244616.11146  21794430.760
  21794430.260          49.000          40.000
 129673071.386 6 101043958.58644  24675963.580
  24675963.540          41.750          32.250
 112121733.325 9  87367593.96147  21336039.900
  21336039.720          49.250          44.750
 119603454.297 8  93197518.04946  22759771.460
  22759769.480          46.250          41.000
 110601619.886 9  86183109.39747  21046768.060
  21046766.580          49.250          43.500
 107165812.910 9  83505909.84948  20392945.840
  20392947.080          50.750          46.500
 16  2 13  3 15  0.0000000  0 10G01G07G08G11G13G15G17G19G28G30
 121761023.999 7  94878745.80346  23170344.700
  23170348.080          43.250          40.750
 113513895.740 8  88452461.50547  21600938.680
  21600938.220          48.500          43.000
 132452266.252 6 103209636.66543  25204797.800
  25204797.700          40.250          31.500
 118488004.777 8  92328343.16345  22547503.700
  22547502.380          47.000          38.250
 114496205.975 9  89217853.34646  21787895.060
  21787894.500          49.000          40.500
 129603279.541 7 100989575.36744  24662683.040
  24662682.440          42.000          32.250
 112058884.872 9  87318621.17147  21324080.120
  21324080.020          49.500          44.750
 119495605.842 8  93113480.29746  22739248.580
  22739246.260          46.250          40.000
 110606388.197 9  86186824.95647  21047675.300
  21047673.980          49.250          43.750
 107182787.859 9  83519137.07948  20396176.040
  20396177.280          51.000          46.500
 16  2 13  3 15 30.0000000  0 10G01G07G08G11G13G15G17G19G28G30
 121726260.416 7  94851657.35246  23163729.520
  23163732.920          43.250          41.500
 113577808.919 8  88502263.95547  21613101.220
  21613100.360          48.750          43.500
 132557285.863 6 103291470.11642  25224782.220
  25224782.040          39.250          27.000
 118507225.610 8  92343320.45245  22551161.280
  22551159.860          47.000          38.250
 114462451.939 8  89191551.51646  21781471.720
  21781471.160          48.750          41.250
 129533879.064 7 100935497.08244  24649476.820
  24649475.500          42.000          32.250
 111996467.658 9  87269984.40548  21312202.580
  21312202.480          49.500          45.000
 119388026.572 8  93029652.33346  22718776.780
  22718774.580          46.000          40.000
 110611300.158 9  86190652.45847  21048609.900
  21048608.600          49.000          43.500
 107200162.465 9  83532675.73048  20399482.400
  20399483.700          50.750          46.500
 16  2 13  3 16  0.0000000  0 10G01G07G08G11G13G15G17G19G28G30
 121691973.522 7  94824940.30847  23157204.840
  23157208.240          42.750          42.500
 113642081.166 8  88552346.20747  21625331.940
  21625331.160          48.500          43.500
 132662360.912 6 103373346.84544  25244777.560
  25244776.760          41.250          33.000
 118527034.367 8  92358755.85945  22554930.820
  22554929.100          47.000          37.750
 114429291.764 8  89165712.41546  21775161.460
  21775160.680          48.750          40.500
 129464872.776 6 100881725.95045  24636345.620
  24636344.140          41.750          36.750
 111934484.375 9  87221685.75748  21300407.680
  21300407.460          49.750          45.500
 119280719.838 8  92946036.72546  22698356.900
  22698354.700          46.500          40.500
 110616355.659 9  86194591.83347  21049571.860
  21049570.700          49.000          44.000
 107217938.424 9  83546527.12348  20402864.980
  20402866.280          50.750          46.250
 16  2 13  3 16 30.0000000  0 10G01G07G08G11G13G15G17G19G28G30
 121658167.203 7  94798597.75746  23150771.660
  23150775.020          43.750          40.500
 113706713.772 8  88602709.22047  21637631.240
  21637630.560          48.500          43.250
 132767491.178 6 103455266.58944  25264783.380
  25264782.580          40.750          32.500
 118547432.491 8  92374650.51045  22558812.360
  22558810.760          46.500          38.000
 114396728.164 9  89140338.18746  21768964.660
  21768964.100          49.000          40.500
 129396264.457 6 100828264.98644  24623289.600
  24623288.340          40.500          33.750
 111872937.389 9  87173727.08748  21288695.760
  21288695.640          49.750          45.000
 119173689.979 8  92862636.86146  22677989.840
  22677987.300          46.750          40.750
 110621555.493 9  86198643.66047  21050561.300
  21050560.420          49.000          44.000
 107236118.135 9  83560693.12948  20406324.360
  20406325.560          50.500          45.750
 16  2 13  3 17  0.0000000  0 10G01G07G08G11G13G15G17G19G28G30
 121624841.447 7  94772629.67046  23144429.860
  23144433.380          43.250          40.000
 113771704.283 8  88653351.17047  21649998.600
  21649997.800          48.500          43.000
 132872672.090 6 103537225.75944  25284798.900
  25284798.520          40.500          33.000
 118568417.482 8  92391002.44045  22562805.500
  22562804.040          46.250          37.750
 114364760.578 8  89115428.37546  21762881.400
  21762880.720          48.750          40.000
 129328053.995 6 100775114.07045  24610309.260
  24610308.720          41.500          37.750
 111811826.159 9  87126107.95948  21277066.780
  21277066.780          50.000          45.500
 119066937.607 8  92779453.22346  22657675.600
  22657672.840          47.000          41.000
 110626897.040 9  86202805.91647  21051577.700
  21051576.920          49.250          43.500
 107254700.234 9  83575172.68548  20409860.280
  20409861.420          50.750          46.000
 16  2 13  3 17 30.0000000  0  9G01G07G11G13G15G17G19G28G30
 121592000.174 7  94747039.09046  23138180.400
  23138183.780          43.500          41.000
 113837054.046 8  88704273.03347  21662434.200
  21662433.260          48.000          42.750
 118589991.171 8  92407813.11145  22566910.740
  22566909.420          46.500          38.750
 114333391.439 8  89090984.90446  21756911.960
  21756911.100          48.750          40.000
 129260245.077 7 100722275.98345  24597405.440
  24597405.060          42.000          37.250
 111751153.605 9  87078830.65548  21265521.360
  21265521.300          50.000          45.500
 118960467.204 8  92696489.30346  22637415.040
  22637412.260          46.750          41.500
 110632380.908 9  86207079.06847  21052621.260
  21052620.300          49.250          43.000
 107273687.111 9  83589967.65048  20413473.440
  20413474.480          50.750          46.250
 16  2 13  3 18  0.0000000  0  9G01G07G11G13G15G17G19G28G30
 121559645.819 7  94721827.94546  23132023.600
  23132026.820          43.250          40.500
 113902763.065 8  88755474.83947  21674938.140
  21674937.200          47.750          42.750
 118612153.996 8  92425082.85645  22571128.180
  22571126.760          46.500          38.250
 114302622.263 8  89067008.93046  21751056.540
  21751055.860          48.500          40.000
 129192840.290 6 100669752.79345  24584578.600
  24584578.380          41.500          37.000
 111690921.553 9  87031896.59848  21254059.700
  21254059.440          49.750          45.500
 118854281.576 8  92613747.29146  22617208.280
  22617205.880          46.250          40.750
 110638006.876 9  86211462.94947  21053692.000
  21053690.780          49.250          43.500
 107293079.858 9  83605078.88848  20417163.800
  20417164.920          50.750          46.000
 16  2 13  3 18 30.0000000  0  9G01G07G11G13G15G17G19G28G30
 121527777.779 7  94696995.74146  23125959.480
  23125962.400          43.750          39.750
 113968827.994 8  88806953.96847  21687509.900
  21687509.220          48.000          43.250
 118634902.115 8  92442808.67945  22575457.060
  22575455.600          47.000          38.000
 114272451.749 8  89043499.45146  21745315.120
  21745314.600          48.500          39.500
 129125838.913 6 100617543.99644  24571828.120
  24571828.920          41.750          34.250
 111631128.545 9  86985304.65947  21242681.420
  21242681.000          49.750          44.750
 118748380.241 8  92531226.83046  22597055.500
  22597053.640          46.250          41.000
 110643771.287 9  86215954.70947  21054789.100
  21054787.780          49.500          43.250
 107312876.433 9  83620504.77648  20420930.980
  20420932.060          50.750          46.000
 16  2 13  3 19  0.0000000  0  9G01G07G11G13G15G17G19G28G30
 121496399.946 7  94672545.49246  23119988.640
  23119991.220          43.750          40.000
 114035250.166 8  88858711.47947  21700149.580
  21700149.260          47.500          43.750
 118658237.163 8  92460991.83145  22579897.660
  22579896.140          46.500          38.500
 114242882.726 8  89020458.65046  21739688.180
  21739687.560          48.250          40.000
 129059244.729 7 100565652.46045  24559155.500
  24559156.580          43.000          36.500
 111571777.413 9  86939057.04147  21231387.160
  21231386.640          49.500          44.500
 118642767.797 8  92448931.45746  22576958.000
  22576956.240          46.750          41.000
 110649675.367 9  86220555.30047  21055912.780
  21055911.200          49.250          43.250
 107333079.412 9  83636247.35348  20424775.260
  20424776.620          50.250          46.000
 16  2 13  3 19 30.0000000  0  9G01G07G11G13G15G17G19G28G30
 121465511.076 7  94648476.26546  23114110.580
  23114113.100          43.500          41.000
 114102025.851 8  88910744.45347  21712856.400
  21712856.380          47.500          43.750
 118682155.415 8  92479629.44846  22584448.920
  22584447.820          46.500          39.000
 114213912.830 9  88997884.70046  21734175.380
  21734174.760          49.000          39.500
 128993056.251 7 100514077.04645  24546560.520
  24546561.340          43.500          36.750
 111512865.974 9  86893152.04948  21220176.560
  21220175.940          50.000          45.000
 118537443.672 8  92366860.71946  22556915.640
  22556913.920          47.500          40.500
 110655714.795 9  86225261.35547  21057062.200
  21057060.460          49.500          43.250
 107353686.040 9  83652304.46448  20428696.400
  20428698.040          50.500          46.000
 16  2 13  3 20  0.0000000  0  9G01G07G11G13G15G17G19G28G30
 121435116.282 7  94624792.04746  23108326.740
  23108329.440          43.250          40.250
 114169157.390 8  88963054.70147  21725630.980
  21725630.980          47.250          43.250
 118706659.459 8  92498723.51346  22589111.600
  22589110.720          45.750          39.500
 114185546.272 8  88975780.90546  21728777.460
  21728777.000          48.750          40.250
 128927278.694 7 100462821.83744  24534043.620
  24534044.220          42.750          33.250
 111454398.652 9  86847593.10948  21209050.680
  21209049.960          50.000          45.500
 118432413.273 8  92285018.87446  22536929.240
  22536927.420          47.250          41.500
 110661891.942 9  86230074.72447  21058237.640
  21058235.960          49.250          43.500
 107374700.081 9  83668679.03348  20432695.320
  20432697.020          50.500          46.000
 16  2 13  3 20 30.0000000  0  9G01G07G11G13G15G17G19G28G30
 121405219.713 7  94601496.05146  23102637.280
  23102640.200          42.250          41.750
 114236647.164 8  89015644.10347  21738473.820
  21738473.760          47.250          43.250
 118731750.937 8  92518275.31645  22593886.440
  22593885.680          46.500          37.500
 114157786.292 9  88954149.74446  21723495.080
  21723494.420          49.000          39.750
 128861916.053 6 100411889.96643  24521605.140
  24521605.780          40.250          31.500
 111396378.909 9  86802382.93248  21198010.040
  21198009.200          50.000          45.250
 118327681.393 8  92203409.66046  22516999.460
  22516997.680          46.750          41.750
 110668208.342 9  86234996.59447  21059439.520
  21059437.860          49.250          43.000
 107396124.356 9  83685373.25948  20436772.280
  20436773.940          50.500          46.000
 16  2 13  3 21  0.0000000  0  9G01G07G11G13G15G17G19G28G30
 121375819.678 7  94578586.98946  23097042.480
  23097045.560          42.750          41.000
 114304490.689 8  89068509.16747  21751384.100
  21751383.880          47.750          42.750
 118757426.210 8  92538282.03645  22598772.500
  22598771.480          46.750          38.000
 114130630.273 9  88932989.22046  21718327.620
  21718326.960          49.250          40.000
 128796966.647 6 100361280.08244  24509245.380
  24509245.980          41.250          34.750
 111338804.236 9  86757519.57748  21187054.000
  21187053.040          50.250          45.250
 118223247.067 8  92122032.33446  22497126.220
  22497124.540          46.750          41.500
 110674659.366 9  86240023.36447  21060666.940
  21060665.380          49.250          43.500
 107417955.896 9  83702384.85348  20440926.680
  20440928.280          50.750          46.250
 16  2 13  3 21 30.0000000  0  9G01G07G11G13G15G17G19G28G30
 121346918.841 7  94556066.89546  23091542.520
  23091545.880          42.250          40.750
 114372687.633 8  89121649.61247  21764361.660
  21764361.420          47.750          43.000
 118783685.157 8  92558743.54546  22603769.520
  22603768.360          46.750          39.250
 114104079.748 8  88912300.48946  21713275.280
  21713274.520          48.750          40.250
 128732433.132 6 100310994.24344  24496965.220
  24496965.680          40.750          34.750
 111281676.030 9  86713004.12348  21176182.800
  21176181.940          50.000          45.750
 118119113.342 8  92040889.22747  22477310.220
  22477308.320          47.250          42.500
 110681244.937 9  86245154.98647  21061919.940
  21061918.620          49.000          43.750
 107440195.866 9  83719714.69748  20445158.920
  20445160.500          50.750          46.750
 16  2 13  3 22  0.0000000  0  9G01G07G11G13G15G17G19G28G30
 121318517.198 7  94533935.77546  23086137.700
  23086141.200          42.500          40.500
 114441236.010 8  89175063.89147  21777406.080
  21777405.780          47.750          42.500
 118810525.311 8  92579657.95546  22608877.140
  22608875.920          46.500          39.000
 114078133.331 9  88892082.50846  21708337.920
  21708337.220          49.000          41.000
 128668315.470 6 100261032.45744  24484763.960
  24484764.500          41.250          35.000
 111224993.823 9  86668836.20548  21165396.500
  21165395.760          50.000          45.250
 118015280.946 8  91959980.89146  22457551.860
  22457549.620          48.000          41.500
 110687962.378 9  86250389.36047  21063198.240
  21063197.000          49.500          43.250
 107462842.938 9  83737361.76048  20449468.720
  20449470.060          51.000          46.500
 16  2 13  3 22 30.0000000  0  9G01G07G11G13G15G17G19G28G30
 121290621.097 7  94512198.60746  23080829.220
  23080832.720          42.250          40.000
 114510139.922 8  89228755.24147  21790518.140
  21790517.780          47.500          43.250
 118837950.779 8  92601028.46245  22614096.060
  22614094.720          46.750          38.250
 114052796.745 9  88872339.71646  21703516.680
  21703516.060          49.000          40.500
 128604619.997 6 100211399.69344  24472643.100
  24472643.500          41.250          35.750
 111168763.619 9  86625020.48748  21154696.180
  21154695.600          50.000          45.750
 117911756.600 8  91879312.56246  22437852.000
  22437849.300          47.500          41.000
 110694815.998 9  86255729.84347  21064502.540
  21064501.200          49.250          43.750
 107485902.186 9  83755329.99748  20453856.940
  20453858.160          51.000          47.000
 16  2 13  3 23  0.0000000  0  9G01G07G11G13G15G17G19G28G30
 121263228.554 7  94490853.80346  23075616.640
  23075620.000          43.250          39.250
 114579394.503 8  89282719.81847  21803696.840
  21803696.480          47.750          42.250
 118865956.941 8  92622851.43945  22619425.440
  22619424.040          47.000          38.000
 114028067.076 9  88853069.84646  21698810.860
  21698810.200          49.250          41.000
 128541344.803 7 100162094.35345  24460602.280
  24460602.440          42.500          38.500
 111112981.612 9  86581554.02548  21144080.960
  21144080.640          49.750          45.250
 117808539.371 8  91798883.57546  22418210.260
  22418207.400          46.750          41.000
 110701799.987 9  86261171.90247  21065831.600
  21065830.280          49.500          43.250
 107509370.276 9  83773616.81848  20458322.760
  20458324.100          51.000          46.750
 16  2 13  3 23 30.0000000  0  9G01G07G11G13G15G17G19G28G30
 121236344.082 7  94469904.89746  23070500.820
  23070504.100          43.250          39.750
 114649001.959 8  89336959.38046  21816942.680
  21816942.360          47.750          41.750
 118894546.058 8  92645128.68745  22624865.700
  22624864.260          46.750          37.000
 114003947.992 9  88834275.75746  21694221.340
  21694220.540          49.500          40.000
 128478494.274 7 100113119.93146  24448642.300
  24448642.460          42.750          39.500
 111057651.682 9  86538439.80647  21133551.840
  21133551.620          49.750          44.500
 117705633.809 8  91718697.45946  22398627.580
  22398625.060          47.000          40.250
 110708916.669 9  86266717.37347  21067185.900
  21067184.540          49.500          43.000
 107533250.426 9  83792224.72348  20462867.020
  20462868.420          51.000          46.750
 16  2 13  3 24  0.0000000  0  9G01G07G11G13G15G17G19G28G30
 121209968.113 7  94449352.22245  23065481.640
  23065484.600          43.500          38.750
 114718960.076 8  89391472.15447  21830255.200
  21830254.980          47.750          43.000
 118923715.632 8  92667858.21845  22630416.360
  22630414.960          47.000          38.000
 113980438.377 9  88815956.55846  21689747.580
  21689746.840          49.000          41.000
 128416068.688 7 100064476.65445  24436763.360
  24436763.380          42.250          38.750
 111002773.804 9  86495677.82948  21123108.900
  21123108.540          49.750          45.250
 117603040.920 8  91638754.98647  22379104.460
  22379102.640          46.750          42.000
 110716164.249 9  86272364.86447  21068565.100
  21068563.620          49.500          43.500
 107557541.712 9  83811152.99048  20467489.500
  20467491.080          50.750          46.500
 16  2 13  3 24 30.0000000  0  9G01G07G11G13G15G17G19G28G30
 121184102.442 7  94429197.19545  23060559.540
  23060562.660          43.750          38.250
 114789268.399 8  89446257.84147  21843634.460
  21843634.360          47.750          43.250
 118953465.090 8  92691039.61745  22636077.580
  22636076.040          47.000          37.750
 113957538.993 9  88798112.89446  21685389.860
  21685389.300          49.250          40.750
 128354069.761 7 100016165.85445  24424965.520
  24424965.300          42.000          38.250
 110948349.055 9  86453268.94048  21112752.200
  21112751.760          49.750          45.500
 117500763.537 8  91559058.36046  22359641.560
  22359640.260          47.000          41.750
 110723541.793 9  86278113.61047  21069968.920
  21069967.500          49.500          43.750
 107582244.627 9  83830402.00548  20472190.220
  20472191.680          50.750          46.500
 16  2 13  3 25  0.0000000  0  9G01G07G11G13G15G17G19G28G30
 121158748.097 7  94409440.56446  23055734.940
  23055738.000          44.750          40.000
 114859925.507 8  89501315.30347  21857080.160
  21857080.040          48.000          43.750
 118983792.751 8  92714671.55945  22641848.760
  22641847.140          46.500          38.000
 113935250.272 9  88780745.05846  21681148.520
  21681147.680          49.250          40.500
 128292498.657 6  99968188.38844  24413249.080
  24413249.080          41.750          35.000
 110894377.654 9  86411213.32348  21102481.700
  21102481.380          49.500          45.750
 117398803.431 8  91479608.94147  22340239.260
  22340238.060          47.250          42.500
 110731047.728 9  86283962.39547  21071397.180
  21071395.980          49.250          43.750
 107607358.988 9  83849971.63248  20476969.180
  20476970.680          50.750          46.250
 16  2 13  3 25 30.0000000  0  9G01G07G11G13G15G17G19G28G30
 121133910.519 7  94390086.64445  23051008.660
  23051011.540          44.750          38.250
 114930934.449 8  89556646.92447  21870592.840
  21870592.620          48.000          42.750
 119014701.963 8  92738756.66345  22647730.640
  22647728.740          46.500          38.000
 113913576.454 9  88763856.37646  21677024.160
  21677023.380          49.000          41.000
 128231360.939 6  99920548.62244  24401614.520
  24401614.080          40.750          33.000
 110840863.844 9  86369514.26548  21092298.280
  21092298.120          49.750          46.250
 117297166.318 8  91400411.19547  22320898.300
  22320897.120          47.000          42.500
 110738684.853 9  86289913.40747  21072850.440
  21072849.320          49.250          43.500
 107632888.870 9  83869865.03748  20481827.440
  20481828.740          51.000          46.500
 16  2 13  3 26  0.0000000  0  9G01G07G11G13G15G17G19G28G30
 121109586.581 8  94371132.95346  23046380.060
  23046382.820          45.000          39.750
 115002289.728 8  89612248.42447  21884171.420
  21884170.880          48.500          42.500
 119046187.308 8  92763290.69345  22653722.260
  22653720.000          46.750          38.000
 113892513.321 9  88747443.54346  21673015.880
  21673015.200          49.000          41.000
 128170653.681 7  99873244.21043  24390062.200
  24390060.400          42.000          29.000
 110787803.788 9  86328168.79548  21082201.260
  21082201.260          49.750          46.250
 117195850.049 8  91321463.45947  22301618.380
  22301617.000          47.000          42.500
 110746447.515 9  86295962.24947  21074327.620
  21074326.440          49.250          43.250
 107658829.914 9  83890078.84148  20486764.120
  20486765.080          51.000          46.500
 16  2 13  3 26 30.0000000  0  9G01G07G11G13G15G17G19G28G30
 121085781.322 7  94352583.42345  23041850.080
  23041852.620          44.250          37.500
 115073993.954 8  89668121.84047  21897816.460
  21897815.580          48.000          42.750
 119078251.065 8  92788275.43245  22659823.660
  22659821.700          45.750          37.750
 113872064.527 9  88731509.42446  21669124.400
  21669124.040          49.000          41.000
 128110381.633 7  99826279.00444  24378592.980
  24378591.120          42.750          32.250
 110735201.952 9  86287180.37648  21072191.460
  21072191.560          49.500          46.000
 117094860.390 8  91242770.20247  22282400.700
  22282399.040          47.000          42.250
 110754338.303 9  86302110.93347  21075829.320
  21075827.760          49.250          43.750
 107685185.908 9  83910615.98448  20491779.580
  20491780.460          50.750          46.500
 16  2 13  3 27  0.0000000  0  9G01G07G11G13G15G17G19G28G30
 121062497.246 7  94334440.03245  23037418.900
  23037421.460          44.000          37.250
 115146046.838 8  89724266.92547  21911527.740
  21911526.800          48.000          42.000
 119110893.025 8  92813710.73445  22666034.800
  22666033.420          45.250          37.500
 113852231.937 9  88716055.45246  21665350.400
  21665349.880          49.000          41.000
 128050547.360 7  99779654.92244  24367206.940
  24367205.440          43.750          34.250
 110683059.808 9  86246550.16348  21062269.060
  21062269.260          49.750          45.750
 116994199.973 8  91164333.51746  22263245.820
  22263243.680          47.500          41.750
 110762357.166 9  86308359.41147  21077355.340
  21077353.620          49.500          43.500
 107711958.128 9  83931477.43948  20496874.160
  20496875.120          50.750          46.250
 16  2 13  3 27 30.0000000  0  9G01G07G11G13G15G17G19G28G30
 121039732.971 8  94316701.66245  23033086.920
  23033089.260          45.000          37.000
 115218445.007 8  89780681.07247  21925304.440
  21925303.960          47.500          42.500
 119144109.334 8  92839593.57645  22672355.380
  22672354.620          45.750          38.750
 113833012.911 9  88701079.58746  21661692.960
  21661692.460          49.000          40.000
 127991149.747 7  99733371.07445  24355903.920
  24355902.880          44.000          36.250
 110631375.620 9  86206276.78448  21052433.920
  21052433.860          50.000          45.750
 116893869.005 8  91086153.55246  22244153.820
  22244151.180          48.000          41.500
 110770500.861 9  86314705.15147  21078905.080
  21078903.100          49.500          43.500
 107739143.898 9  83952661.15048  20502047.260
  20502048.460          50.750          46.250
 16  2 13  3 28  0.0000000  0  9G01G07G11G13G15G17G19G28G30
 121017490.528 7  94299369.90044  23028854.400
  23028856.820          44.750          35.500
 115291188.414 8  89837364.20947  21939146.860
  21939146.680          47.500          42.750
 119177899.790 8  92865923.81645  22678785.780
  22678784.660          46.500          38.000
 113814408.472 9  88686582.62446  21658152.560
  21658152.100          49.000          40.750
 127932190.811 7  99687429.09145  24344684.500
  24344683.740          44.500          37.750
 110580150.909 9  86166361.44348  21042686.280
  21042685.980          50.000          45.750
 116793870.231 8  91008232.44046  22225124.980
  22225122.100          48.000          41.500
 110778769.168 9  86321147.99547  21080478.560
  21080476.500          49.750          43.000
 107766744.088 9  83974167.78148  20507299.320
  20507300.340          50.750          46.000
 16  2 13  3 28 30.0000000  0  9G01G07G11G13G15G17G19G28G30
 120995771.816 8  94282446.24045  23024721.680
  23024723.880          45.000          37.750
 115364276.303 8  89894315.79146  21953055.060
  21953054.820          47.500          41.500
 119212263.742 8  92892700.91345  22685325.080
  22685323.780          46.250          37.250
 113796419.726 8  88672565.41346  21654729.400
  21654728.860          48.750          40.500
 127873672.719 7  99641830.58845  24333549.060
  24333548.200          44.250          38.250
 110529386.178 9  86126804.53148  21033026.200
  21033025.720          50.250          46.000
 116694205.897 8  90930571.92947  22206159.660
  22206156.820          47.750          42.000
 110787161.078 9  86327687.15947  21082075.560
  21082073.460          49.500          43.250
 107794759.302 9  83995997.82248  20512630.380
  20512631.440          50.750          46.000
 16  2 13  3 29  0.0000000  0  9G01G07G11G13G15G17G19G28G30
 120974579.259 8  94265932.58845  23020688.960
  23020691.300          45.000          37.750
 115437708.514 8  89951535.66747  21967028.740
  21967028.400          47.250          42.000
 119247200.954 8  92919924.71145  22691973.560
  22691971.880          46.000          38.500
 113779047.924 9  88659028.94846  21651423.680
  21651423.180          49.000          40.500
 127815597.617 7  99596577.28045  24322497.820
  24322497.200          43.250          37.500
 110479082.606 9  86087606.95648  21023453.940
  21023453.260          50.500          45.750
 116594879.292 8  90853174.60547  22187258.400
  22187255.860          48.000          42.250
 110795676.632 9  86334322.66347  21083695.920
  21083694.000          49.500          43.250
 107823190.799 9  84018152.22148  20518040.640
  20518041.900          50.500          46.250
 16  2 13  3 29 30.0000000  0  9G01G07G11G13G15G17G19G28G30
 120953916.473 7  94249831.73645  23016756.920
  23016759.020          44.250          38.500
 115511486.592 8  90009025.05246  21981068.060
  21981067.940          46.750          41.750
 119282712.298 8  92947595.87345  22698731.220
  22698729.740          45.500          38.000
 113762295.184 9  88645974.86146  21648235.860
  21648235.400          49.250          40.250
 127757969.096 6  99551671.97846  24311531.060
  24311531.200          41.500          39.750
 110429243.563 9  86048771.35148  21013970.180
  21013969.180          50.500          46.000
 116495894.753 8  90776043.83247  22168422.020
  22168419.780          47.750          42.250
 110804317.340 9  86341055.68647  21085340.000
  21085338.340          49.250          43.000
 107852040.941 9  84040632.84948  20523530.500
  20523532.180          50.750          46.250
 16  2 13  3 30  0.0000000  0  9G01G07G11G13G15G17G19G28G30
 120933784.403 7  94234144.46045  23012925.520
  23012928.120          44.000          37.500
 115585609.109 8  90066782.83747  21995173.140
  21995173.040          47.000          42.250
 119318796.795 7  92975713.67845  22705597.700
  22705596.520          44.750          38.250
 113746161.555 9  88633403.20046  21645165.760
  21645165.180          49.000          40.750
 127700788.500 6  99507115.69045  24300649.620
  24300650.200          41.500          38.250
 110379869.454 9  86010298.03048  21004574.760
  21004573.640          50.250          46.750
 116397254.148 8  90699181.04947  22149651.100
  22149648.900          47.250          42.250
 110813081.909 9  86347885.22547  21087007.740
  21087006.220          49.250          43.750
 107881309.621 9  84063439.60048  20529100.180
  20529101.800          50.500          46.500
 16  2 13  3 30 30.0000000  0  9G01G07G11G13G15G17G19G28G30
 120914181.518 8  94218869.50745  23009195.260
  23009197.940          45.000          37.500
 115660072.294 8  90124806.08446  22009343.180
  22009342.860          47.500          41.000
 119355450.184 8  93004274.76445  22712572.500
  22712571.640          45.250          36.750
 113730644.308 9  88621311.82846  21642213.080
  21642212.280          49.250          40.500
 127644054.242 6  99462907.21846  24289853.340
  24289854.040          39.750          39.250
 110330958.091 9  85972185.28748  20995267.260
  20995266.220          50.250          46.250
 116298956.673 8  90622585.63546  22130945.540
  22130943.060          47.750          41.250
 110821966.211 9  86354808.06247  21088698.340
  21088696.860          49.500          43.500
 107910993.971 9  84086570.25948  20534749.020
  20534750.400          50.750          45.750
 16  2 13  3 31  0.0000000  0  9G01G07G11G13G15G17G19G28G30
 120895109.794 8  94204008.44845  23005566.220
  23005568.620          45.250          37.750
 115734875.428 8  90183094.20946  22023577.840
  22023577.240          47.250          40.750
 119392671.837 8  93033278.62545  22719655.780
  22719654.800          46.250          37.250
 113715744.671 9  88609701.72046  21639377.780
  21639376.940          49.250          40.250
 127587768.482 7  99419048.24345  24279142.300
  24279143.320          42.000          37.500
 110282510.025 9  85934433.56148  20986047.760
  20986046.940          50.250          45.750
 116201005.327 8  90546259.92746  22112305.980
  22112303.180          48.500          41.500
 110830970.777 9  86361824.61747  21090411.880
  21090410.400          49.500          42.750
 107941094.819 9  84110025.45348  20540477.080
  20540478.340          50.750          45.750
 16  2 13  3 31 30.0000000  0  9G01G07G11G13G15G17G19G28G30
 120876569.393 8  94189561.39945  23002038.160
  23002040.160          45.250          36.000
 115810016.880 8  90241645.96546  22037876.800
  22037876.260          47.250          40.750
 119430459.433 8  93062723.51745  22726846.760
  22726845.200          45.000          36.250
 113701461.488 9  88598571.96646  21636659.940
  21636659.060          49.250          40.500
 127531931.465 7  99375538.83944  24268517.320
  24268517.300          43.000          35.500
 110234525.003 9  85897042.65048  20976916.380
  20976915.740          50.250          46.250
 116103401.036 8  90470204.64746  22093732.640
  22093729.580          48.250          41.500
 110840093.188 9  86368932.99347  21092147.820
  21092146.460          49.500          43.000
 107971611.209 9  84133804.44448  20546284.200
  20546285.420          50.500          46.000
 16  2 13  3 32  0.0000000  0  9G01G07G11G13G15G17G19G28G30
 120858565.667 8  94175532.52645  22998612.300
  22998614.000          45.000          36.500
 115885499.416 8  90300463.48146  22052240.680
  22052240.100          47.250          40.500
 119468815.934 8  93092611.68445  22734145.560
  22734144.520          45.000          38.000
 113687798.889 9  88587925.78446  21634060.120
  21634059.060          49.250          40.250
 127476548.638 7  99332383.35745  24257978.400
  24257977.840          42.750          37.000
 110187007.827 9  85860016.29948  20967874.020
  20967873.500          50.250          46.250
 116006149.726 8  90394424.42247  22075226.500
  22075223.500          48.000          42.250
 110849336.787 9  86376135.80047  21093906.900
  21093905.500          49.500          43.250
 108002547.369 9  84157910.54348  20552171.060
  20552172.620          50.500          46.250
 16  2 13  3 32 30.0000000  0  9G01G07G11G13G15G17G19G28G30
 120841098.686 7  94161921.90345  22995288.520
  22995290.560          44.500          38.750
 115961320.939 8  90359545.15246  22066668.920
  22066668.560          46.750          40.750
 119507738.624 7  93122941.06645  22741552.100
  22741550.980          44.750          37.250
 113674756.088 9  88577762.57546  21631578.240
  21631577.100          49.500          40.750
 127421620.217 7  99289581.99644  24247526.180
  24247525.700          44.750          35.500
 110139957.826 9  85823353.96748  20958920.540
  20958920.020          50.000          46.250
 115909252.694 8  90318920.26247  22056787.680
  22056784.980          48.000          43.000
 110858699.298 9  86383431.26147  21095688.560
  21095687.340          49.500          44.000
 108033902.188 9  84182342.85448  20558137.560
  20558139.240          50.250          46.250
 16  2 13  3 33  0.0000000  0  9G01G07G11G13G15G17G19G28G30
 120824171.536 7  94148731.94545  22992067.120
  22992069.440          44.500          37.250
 116037482.249 8  90418891.59146  22081161.860
  22081161.400          46.750          41.250
 119547228.286 8  93153712.22845  22749066.720
  22749065.600          45.250          36.500
 113662334.816 9  88568083.65146  21629214.620
  21629213.200          49.250          41.250
 127367149.515 8  99247137.28245  24237161.160
  24237160.600          45.500          36.250
 110093377.034 9  85787057.26248  20950056.340
  20950055.760          49.750          46.000
 115812713.820 8  90243695.19047  22038416.860
  22038414.600          48.000          43.000
 110868181.833 9  86390820.26847  21097492.980
  21097491.860          49.250          44.250
 108065677.650 9  84207102.95748  20564184.300
  20564185.840          50.750          46.250
 16  2 13  3 33 30.0000000  0  9G01G07G11G13G15G17G19G28G30
 120807781.785 7  94135960.71945  22988948.160
  22988950.540          44.750          37.500
 116113978.650 8  90478499.13946  22095718.740
  22095718.360          46.750          41.500
 119587279.705 8  93184921.10545  22756688.260
  22756686.860          45.500          37.250
 113650531.723 9  88558886.43146  21626968.400
  21626967.020          49.250          40.500
 127313134.032 7  99205047.28644  24226882.560
  24226881.740          44.250          35.000
 110047262.589 9  85751123.94148  20941280.940
  20941280.200          50.000          45.500
 115716531.497 8  90168747.95447  22020113.920
  22020111.880          48.250          42.250
 110877780.326 9  86398299.61547  21099319.440
  21099318.480          49.250          43.500
 108097870.163 9  84232188.02448  20570310.560
  20570311.820          50.750          46.250
 16  2 13  3 34  0.0000000  0  9G01G07G11G13G15G17G19G28G30
 120791935.549 8  94123612.99645  22985932.660
  22985934.800          45.500          36.250
 116190814.063 8  90538370.86146  22110340.120
  22110339.780          46.750          40.000
 119627896.646 8  93216570.65645  22764417.580
  22764416.200          45.750          37.000
 113639351.753 9  88550174.76046  21624840.880
  21624839.420          49.500          39.750
 127259580.463 7  99163317.23245  24216691.460
  24216691.020          43.500          38.000
 110001619.763 9  85715558.11748  20932595.320
  20932594.380          50.000          45.500
 115620712.623 8  90094083.91847  22001880.140
  22001878.040          48.250          43.000
 110887498.214 9  86405871.99347  21101168.600
  21101167.700          49.250          44.000
 108130484.750 9  84257601.97148  20576516.960
  20576518.300          50.750          46.500
 16  2 13  3 34 30.0000000  0  9G01G07G11G13G15G17G19G28G30
 120776632.476 8  94111688.54446  22983020.780
  22983023.000          45.500          39.000
 116267985.749 8  90598504.59746  22125025.280
  22125025.000          46.500          40.500
 119669076.342 7  93248658.73245  22772253.840
  22772252.620          44.500          37.250
 113628793.386 9  88541947.46946  21622831.720
  21622830.100          49.500          40.250
 127206488.206 7  99121946.69346  24206587.820
  24206587.920          42.000          39.000
 109956447.709 9  85680359.13248  20923999.260
  20923998.280          50.000          45.750
 115525258.027 8  90019703.74347  21983715.580
  21983713.520          48.250          43.500
 110897333.278 9  86413535.68547  21103040.160
  21103039.120          49.250          43.750
 108163519.894 9  84283343.62448  20582803.300
  20582804.760          50.750          46.250
 16  2 13  3 35  0.0000000  0  9G01G07G11G13G15G17G19G28G30
 120761873.398 8  94100187.97645  22980212.180
  22980214.680          45.000          37.750
 116345492.614 8  90658899.52245  22139774.340
  22139773.560          46.750          38.500
 119710817.178 7  93281184.05545  22780196.640
  22780195.800          44.500          36.750
 113618856.376 9  88534204.35346  21620940.940
  21620939.260          49.500          40.250
 127153858.169 6  99080936.31445  24196572.180
  24196572.660          41.750          38.750
 109911746.165 9  85645526.77948  20915492.780
  20915491.880          50.000          46.250
 115430169.535 8  89945608.84647  21965620.840
  21965618.580          48.500          43.000
 110907284.505 9  86421289.89847  21104933.920
  21104932.560          49.500          43.500
 108196975.521 9  84309412.93948  20589169.720
  20589171.180          50.750          46.500
 16  2 13  3 35 30.0000000  0  9G01G07G11G13G15G17G19G28G30
 120747655.041 8  94089108.75145  22977506.540
  22977509.160          45.750          38.000
 116423328.972 8  90719551.23145  22154586.340
  22154584.980          47.000          38.500
 119753113.216 8  93314142.00345  22788245.400
  22788244.420          45.250          37.250
 113609536.345 9  88526941.99146  21619167.420
  21619165.800          49.500          40.250
 127101687.614 6  99040283.97045  24186644.300
  24186644.780          41.250          37.750
 109867511.455 9  85611058.20448  20907075.280
  20907074.480          50.000          45.500
 115335444.712 8  89871797.31647  21947595.400
  21947593.000          48.500          43.250
 110917346.881 9  86429130.71547  21106848.800
  21106847.260          49.500          43.750
 108230847.151 9  84335806.41348  20595615.380
  20595616.600          50.750          46.000
 16  2 13  3 36  0.0000000  0  9G01G07G11G13G15G17G19G28G30
 120733986.373 8  94078457.85345  22974905.620
  22974907.960          45.000          36.750
 116501501.579 8  90780464.93346  22169462.200
  22169460.760          47.250          39.250
 119795971.034 8  93347537.70145  22796400.920
  22796399.940          45.250          36.500
 113600840.735 9  88520166.18746  21617512.560
  21617511.040          49.250          39.750
 127049985.543 6  98999996.67345  24176805.460
  24176806.020          41.500          36.000
 109823751.616 9  85576959.66148  20898748.140
  20898747.360          50.250          45.750
 115241093.356 8  89798276.80647  21929640.980
  21929638.460          48.000          42.750
 110927527.390 9  86437063.58547  21108786.140
  21108784.560          49.750          43.500
 108265142.664 9  84362530.19348  20602141.660
  20602142.460          50.750          45.500
 16  2 13  3 36 30.0000000  0  9G01G07G11G13G15G17G19G28G30
 120720864.421 7  94068232.95945  22972408.440
  22972410.440          44.250          37.000
 116580005.474 8  90841636.76646  22184400.960
  22184399.900          47.250          40.250
 119839384.984 7  93381366.74444  22804662.280
  22804661.200          44.500          35.000
 113592765.808 9  88513874.02446  21615975.960
  21615974.540          49.250          40.750
 126998749.047 7  98960072.14345  24167055.540
  24167056.200          42.250          38.000
 109780463.080 9  85543228.34848  20890510.640
  20890509.780          50.250          46.000
 115147113.626 8  89725045.86447  21911757.080
  21911754.740          48.250          42.750
 110937821.332 9  86445084.84147  21110745.100
  21110743.480          49.500          43.250
 108299858.098 9  84389581.16748  20608747.720
  20608748.540          50.500          45.750
 16  2 13  3 37  0.0000000  0  9G01G07G11G13G15G17G19G28G30
 120708289.938 7  94058434.65545  22970015.400
  22970017.560          44.750          36.750
 116658838.931 8  90903065.38746  22199402.580
  22199401.680          47.250          40.750
 119883353.377 7  93415627.84244  22813028.800
  22813027.940          44.250          34.750
 113585311.393 9  88508065.40646  21614557.280
  21614556.340          49.000          40.750
 126947979.227 7  98920511.28945  24157394.560
  24157395.260          43.250          38.000
 109737646.204 9  85509864.56248  20882362.860
  20882361.940          50.000          46.000
 115053507.602 8  89652106.12447  21893944.340
  21893942.240          48.250          43.250
 110948227.503 9  86453193.56047  21112725.180
  21112723.680          49.500          43.250
 108334993.186 9  84416959.16448  20615433.560
  20615434.780          50.500          46.000
 16  2 13  3 37 30.0000000  0  9G01G07G11G13G15G17G19G28G30
 120696265.760 8  94049065.17445  22967727.440
  22967729.660          45.500          36.750
 116738002.798 8  90964751.48646  22214466.900
  22214466.200          47.000          40.500
 119927876.599 7  93450321.27444  22821501.360
  22821500.280          44.500          35.500
 113578478.820 9  88502741.31846  21613256.880
  21613256.160          49.000          40.250
 126897679.016 7  98881316.31944  24147822.960
  24147823.400          44.500          34.750
 109695302.858 9  85476869.75248  20874305.240
  20874304.400          50.000          46.750
 114960278.601 8  89579460.16647  21876203.520
  21876201.480          48.250          43.750
 110958746.744 9  86461390.38347  21114726.760
  21114725.420          49.250          43.500
 108370549.679 9  84444665.50948  20622199.680
  20622201.180          50.500          46.000
 16  2 13  3 38  0.0000000  0  9G01G07G11G13G15G17G19G28G30
 120684790.691 8  94040123.58045  22965543.840
  22965546.080          45.000          38.250
 116817493.964 8  91026692.62646  22229593.520
  22229592.880          47.250          40.250
 119972950.980 7  93485444.14445  22830078.520
  22830077.500          44.250          36.250
 113572265.539 8  88497899.78946  21612074.300
  21612073.800          48.750          40.750
 126847847.545 7  98842486.63945  24138340.680
  24138340.560          44.250          36.500
 109653431.163 9  85444242.46648  20866337.380
  20866336.700          50.250          46.750
 114867426.741 8  89507108.09147  21858534.460
  21858532.260          48.500          43.250
 110969376.299 9  86469673.15947  21116749.360
  21116748.220          49.250          44.000
 108406525.349 9  84472698.48548  20629045.700
  20629047.280          50.500          46.500
 16  2 13  3 38 30.0000000  0  9G01G07G11G13G15G17G19G28G30
 120673869.235 7  94031613.37545  22963465.460
  22963468.000          44.500          38.500
 116897314.498 8  91088890.41846  22244783.060
  22244782.280          47.500          40.250
 120018578.375 7  93520997.97644  22838761.200
  22838760.140          44.750          35.750
 113566675.403 9  88493543.83246  21611010.520
  21611009.980          49.000          40.250
 126798489.635 7  98804025.91744  24128948.240
  24128947.800          43.750          35.250
 109612034.947 9  85411985.69548  20858459.880
  20858459.360          50.250          46.750
 114774957.235 8  89435053.96947  21840938.040
  21840935.820          48.250          43.000
 110980118.642 9  86478043.80047  21118793.460
  21118792.440          49.250          44.250
 108442923.643 9  84501060.78548  20635972.120
  20635973.520          50.500          45.750
 16  2 13  3 39  0.0000000  0  9G01G07G11G13G15G17G19G28G30
 120663500.669 8  94023533.97745  22961492.360
  22961494.920          45.000          37.750
 116977461.553 8  91151342.63046  22260034.760
  22260033.660          47.250          39.750
 120064755.714 8  93556980.31545  22847548.560
  22847547.900          45.250          37.250
 113561706.021 9  88489671.58946  21610064.900
  21610064.360          49.000          40.750
 126749604.636 7  98765933.71544  24119645.680
  24119645.120          43.250          33.000
 109571112.888 9  85380098.39848  20850672.600
  20850672.160          50.000          46.750
 114682870.742 8  89363298.28747  21823414.380
  21823412.080          48.500          42.500
 110990971.722 9  86486500.76847  21120858.780
  21120857.700          49.500          43.750
 108479742.962 9  84529751.16048  20642978.500
  20642979.620          50.000          45.500
 16  2 13  3 39 30.0000000  0  9G01G07G11G13G15G17G19G28G30
 120653688.997 8  94015888.53345  22959625.340
  22959627.680          45.000          36.250
 117057937.195 8  91214050.89546  22275348.900
  22275347.820          47.250          40.750
 120111484.648 8  93593392.46345  22856441.100
  22856440.540          45.250          36.000
 113557360.580 9  88486285.53046  21609237.860
  21609237.500          49.000          39.750
 126701196.456 7  98728213.07145  24110433.620
  24110433.060          42.750          37.500
 109530668.466 9  85348583.29748  20842976.340
  20842975.800          50.250          46.500
 114591172.044 8  89291844.77347  21805964.560
  21805962.000          48.500          42.000
 111001937.673 9  86495045.67347  21122945.540
  21122944.440          49.500          43.250
 108516986.258 9  84558771.89348  20650065.500
  20650066.660          50.250          45.500
 16  2 13  3 40  0.0000000  0  9G01G07G11G13G15G17G19G28G30
 120644432.528 7  94008675.71745  22957863.680
  22957866.200          44.250          36.500
 117138737.435 8  91277012.10146  22290724.720
  22290723.780          47.250          41.250
 120158760.844 8  93630231.05745  22865437.620
  22865436.760          45.250          38.250
 113553635.942 9  88483383.20946  21608529.160
  21608528.780          49.250          40.250
 126653264.066 7  98690863.16944  24101312.100
  24101310.880          42.000          35.000
 109490699.034 9  85317438.30648  20835370.500
  20835369.700          50.500          46.500
 114499860.802 8  89220693.17047  21788588.520
  21788585.980          48.500          42.500
 111013013.285 9  86503676.02147  21125053.060
  21125052.060          49.250          43.750
 108554650.813 9  84588120.89348  20657232.960
  20657234.200          50.500          46.250
 16  2 13  3 40 30.0000000  0  9G01G07G11G13G15G17G19G28G30
 120635734.433 7  94001897.99644  22956208.180
  22956210.880          44.500          35.000
 117219863.651 8  91340227.29546  22306162.520
  22306161.800          47.250          40.000
 120206585.007 8  93667496.67345  22874538.500
  22874537.300          45.250          37.500
 113550534.333 9  88480966.36346  21607938.900
  21607938.440          49.250          40.750
 126605810.878 6  98653886.65044  24092281.500
  24092280.500          40.500          33.500
 109451207.306 9  85286665.55348  20827855.520
  20827854.500          50.500          46.250
 114408941.271 9  89149846.79147  21771287.160
  21771284.660          49.000          42.250
 111024200.024 9  86512392.96447  21127181.800
  21127180.720          49.250          43.250
 108592738.947 9  84617799.94748  20664481.060
  20664482.280          50.750          45.750
 16  2 13  3 41  0.0000000  0  9G01G07G11G13G15G17G19G28G30
 120627594.396 8  93995555.12745  22954659.460
  22954661.660          45.250          37.250
 117301313.282 8  91403694.51846  22321661.820
  22321660.760          46.250          39.250
 120254954.353 8  93705187.04845  22883742.760
  22883741.240          45.000          36.250
 113548054.175 9  88479033.78046  21607467.100
  21607466.520          49.250          40.750
 126558836.638 6  98617283.39245  24083341.940
  24083341.840          40.750          38.750
 109412192.210 9  85256264.20248  20820431.220
  20820430.000          50.250          46.500
 114318414.123 8  89079306.17647  21754060.500
  21754057.980          48.500          43.000
 111035495.896 9  86521194.93247  21129331.380
  21129330.160          49.250          44.000
 108631249.298 9  84647808.02248  20671809.460
  20671810.480          50.500          46.000
 16  2 13  3 41 30.0000000  0  9G01G07G11G13G15G17G19G28G30
 120620010.870 7  93989645.87245  22953216.520
  22953218.580          44.500          37.750
 117383082.945 8  91467411.09945  22337221.960
  22337220.560          46.000          37.500
 120303864.710 7  93743299.00645  22893050.120
  22893048.540          44.750          36.000
 113546192.972 9  88477583.48846  21607113.040
  21607112.420          49.000          40.500
 126512340.029 7  98581052.31345  24074493.800
  24074494.220          42.750          36.750
 109373651.777 9  85226232.70448  20813097.220
  20813095.900          50.250          46.000
 114228279.122 8  89009071.11847  21736908.400
  21736905.880          48.250          43.250
 111046898.140 9  86530079.80047  21131501.280
  21131500.020          49.250          44.000
 108670179.383 9  84678143.16248  20679217.640
  20679218.720          50.250          46.250
 16  2 13  3 42  0.0000000  0  9G01G07G11G13G15G17G19G28G30
 120612985.642 8  93984171.69645  22951879.680
  22951881.860          45.000          38.000
 117465172.098 8  91531376.64346  22352842.920
  22352841.540          45.750          40.000
 120353315.534 7  93781832.08845  22902460.000
  22902459.180          44.500          37.250
 113544950.982 9  88476615.69946  21606876.700
  21606876.200          49.000          41.000
 126466323.457 7  98545195.26045  24065737.560
  24065738.100          42.500          38.500
 109335587.193 9  85196572.01048  20805853.700
  20805852.400          50.250          46.250
 114138538.926 8  88939143.70747  21719831.520
  21719828.820          48.500          44.000
 111058406.839 9  86539047.61747  21133691.420
  21133690.260          49.250          44.500
 108709530.085 9  84708806.02848  20686705.740
  20686707.100          50.250          46.250
 16  2 13  3 42 30.0000000  0  9G01G07G11G13G15G17G19G28G30
 120606522.482 7  93979135.46845  22950649.860
  22950651.700          44.750          38.750
 117547582.558 8  91595592.55546  22368525.060
  22368524.060          45.500          40.750
 120403308.014 8  93820787.32045  22911973.380
  22911971.660          45.250          37.000
 113544330.819 8  88476132.45846  21606758.680
  21606758.080          48.750          40.750
 126420790.585 7  98509715.12146  24057073.180
  24057073.840          42.500          39.000
 109298001.445 9  85167284.43248  20798701.200
  20798700.080          50.000          46.750
 114049198.535 8  88869527.84947  21702830.740
  21702827.900          48.750          43.500
 111070024.414 9  86548100.28747  21135902.220
  21135901.060          49.250          44.000
 108749304.211 9  84739798.83148  20694274.420
  20694276.120          50.250          46.500
 16  2 13  3 43  0.0000000  0  9G01G07G11G13G15G17G19G28G30
 120600620.578 7  93974536.61845  22949526.540
  22949528.520          44.500          37.750
 117630311.564 8  91660056.67946  22384267.840
  22384267.180          45.750          40.500
 120453839.100 8  93860162.17645  22921589.120
  22921587.660          45.250          36.000
 113544330.601 9  88476132.26946  21606758.660
  21606757.920          49.000          40.000
 126375741.234 7  98474611.74646  24048500.960
  24048501.620          43.750          40.000
 109260893.002 9  85138368.78948  20791639.500
  20791638.560          50.000          46.250
 113960258.461 8  88800223.90947  21685906.000
  21685903.040          48.750          43.250
 111081748.571 9  86557236.00047  21138133.320
  21138132.020          49.500          43.250
 108789500.129 9  84771120.31448  20701923.380
  20701925.220          50.250          46.250
 16  2 13  3 43 30.0000000  0  9G01G07G11G13G15G17G19G28G30
 120595279.699 8  93970374.89045  22948509.980
  22948512.120          45.000          37.750
 117713356.850 8  91724767.24046  22400070.880
  22400070.340          46.000          40.000
 120504905.766 7  93899954.38744  22931306.800
  22931304.800          44.500          35.000
 113544949.064 9  88476614.19246  21606876.500
  21606875.420          49.250          40.500
 126331175.023 7  98439884.84745  24040020.640
  24040021.000          43.750          37.750
 109224261.227 9  85109824.56748  20784668.520
  20784667.680          50.000          46.250
 113871719.534 8  88731232.54847  21669057.460
  21669054.620          48.500          43.000
 111093577.598 9  86566453.43247  21140384.340
  21140382.800          49.250          43.500
 108830116.580 9  84802769.47948  20709652.480
  20709654.180          50.250          45.750
 16  2 13  3 44  0.0000000  0  9G01G07G11G13G15G17G19G28G30
 120590505.428 8  93966654.68345  22947601.580
  22947603.720          45.250          36.750
 117796722.029 8  91789727.05846  22415934.840
  22415934.180          46.000          40.000
 120556511.478 7  93940166.62945  22941127.020
  22941125.380          44.750          37.000
 113546190.292 8  88477581.39246  21607112.680
  21607111.640          48.750          41.000
 126287097.919 7  98405539.08746  24031633.080
  24031633.440          44.250          39.000
 109188110.989 9  85081655.57948  20777789.200
  20777788.580          49.750          46.500
 113783588.567 8  88662559.08347  21652286.520
  21652283.960          48.250          44.250
 111105515.649 9  86575755.81147  21142656.080
  21142654.400          49.500          43.000
 108871158.333 9  84834750.05848  20717462.520
  20717463.860          50.250          46.000
 16  2 13  3 44 30.0000000  0  9G01G07G11G13G15G17G19G28G30
 120586293.748 8  93963372.87145  22946800.260
  22946802.440          46.000          37.500
 117880401.101 8  91854931.48546  22431858.500
  22431857.740          46.500          40.500
 120608649.560 8  93980793.69345  22951048.840
  22951047.620          45.500          36.250
 113548049.111 9  88479029.80846  21607466.380
  21607465.540          49.000          40.750
 126243506.461 7  98371571.75846  24023338.160
  24023338.020          44.500          39.000
 109152437.667 9  85053858.21048  20771000.740
  20771000.160          50.250          46.500
 113695862.594 8  88594201.20347  21635592.640
  21635590.460          48.500          43.750
 111117557.303 9  86585138.92847  21144947.600
  21144945.860          49.500          43.750
 108912620.518 9  84867058.24848  20725352.540
  20725353.700          50.250          45.500
 16  2 13  3 45  0.0000000  0  9G01G07G11G13G15G17G19G28G30
 120582646.160 8  93960530.59745  22946106.320
  22946108.520          46.000          36.500
 117964393.529 8  91920380.11146  22447841.940
  22447840.720          47.000          39.750
 120661318.870 7  94021834.71445  22961071.600
  22961069.720          44.750          36.250
 113550525.936 9  88480959.80746  21607937.660
  21607936.800          49.250          40.750
 126200402.422 8  98337984.19945  24015136.140
  24015135.500          45.500          37.500
 109117242.379 9  85026433.32748  20764303.480
  20764302.620          50.500          46.500
 113608543.974 8  88526160.73247  21618976.360
  21618974.380          48.500          43.750
 111129702.617 9  86594602.81647  21147258.780
  21147257.100          49.500          43.750
 108954503.700 9  84899694.48448  20733322.720
  20733323.700          50.500          45.500
 16  2 13  3 45 30.0000000  0  9G01G07G11G13G15G17G19G28G30
 120579564.247 8  93958129.10444  22945519.820
  22945521.840          45.000          35.750
 118048699.122 8  91986072.77146  22463885.020
  22463883.440          47.000          39.250
 120714519.007 7  94063289.35445  22971195.460
  22971193.660          44.500          36.250
 113553621.191 9  88483371.68246  21608526.780
  21608525.880          49.000          41.250
 126157787.634 7  98304777.87145  24007027.060
  24007026.220          44.500          37.750
 109082526.399 9  84999381.92848  20757697.440
  20757696.360          50.250          46.750
 113521636.194 8  88458440.39747  21602438.340
  21602436.360          48.250          44.000
 111141952.323 9  86604148.03947  21149589.800
  21149588.000          49.250          42.750
 108996808.659 9  84932659.37248  20741373.080
  20741374.160          50.250          46.250
 16  2 13  3 46  0.0000000  0  9G01G07G11G13G15G17G19G28G30
 120577051.573 8  93956171.19945  22945041.520
  22945043.640          45.000          37.750
 118133319.623 8  92052010.77946  22479987.800
  22479986.360          46.750          39.250
 120768251.254 7  94105158.63544  22981420.040
  22981418.480          44.250          35.250
 113557337.150 9  88486267.23046  21609233.860
  21609233.160          49.000          41.000
 126115665.824 7  98271955.68345  23999011.740
  23999010.660          44.750          37.750
 109048292.178 9  84972705.92848  20751182.980
  20751181.860          50.250          46.750
 113435144.123 8  88391043.98347  21585979.440
  21585977.240          48.750          43.500
 111154308.567 9  86613776.28947  21151941.100
  21151939.100          49.250          43.000
 109039538.075 9  84965955.00948  20749504.280
  20749505.440          50.250          46.250
 16  2 13  3 46 30.0000000  0  9G01G07G11G13G15G17G19G28G30
 120575106.492 8  93954655.54845  22944671.360
  22944673.660          45.000          37.250
 118218251.357 8  92118191.33246  22496149.720
  22496148.680          46.250          39.250
 120822511.195 7  94147439.11245  22991745.360
  22991743.960          44.500          36.750
 113561671.099 9  88489644.33146  21610058.380
  21610057.940          49.000          40.000
 126074036.032 7  98239516.90145  23991089.840
  23991088.960          43.250          36.500
 109014537.669 9  84946403.73448  20744759.780
  20744758.780          50.500          46.500
 113349067.159 8  88323971.01347  21569599.620
  21569597.160          48.750          43.000
 111166768.495 9  86623485.32247  21154312.080
  21154309.960          49.500          42.750
 109082689.525 9  84999579.50348  20757715.700
  20757717.080          50.250          45.500
 16  2 13  3 47  0.0000000  0  9G01G07G11G13G15G17G19G28G30
 120573732.167 7  93953584.66345  22944409.720
  22944412.180          44.750          37.750
 118303495.405 8  92184615.22945  22512371.040
  22512370.240          47.000          38.250
 120877299.659 7  94190131.43644  23002171.140
  23002169.780          44.750          35.000
 113566624.761 9  88493504.30546  21611001.020
  21611000.440          49.000          40.250
 126032901.424 7  98207463.95844  23983261.720
  23983260.860          42.750          33.750
 108981265.459 9  84920477.36148  20738428.280
  20738427.260          50.500          46.750
 113263409.490 8  88257224.79147  21553299.520
  21553297.080          48.500          44.000
 111179334.188 9  86633276.77547  21156703.280
  21156701.300          49.500          43.250
 109126265.323 9  85033534.64348  20766007.700
  20766009.320          50.000          45.750
 16  2 13  3 47 30.0000000  0  9G01G07G11G13G15G17G19G28G30
 120572924.208 7  93952955.08045  22944255.940
  22944258.560          44.750          36.750
 118389045.611 8  92251277.69545  22528650.700
  22528649.680          47.250          36.250
 120932609.764 7  94233230.21144  23012696.460
  23012695.060          44.500          35.250
 113572192.589 9  88497842.87946  21612060.680
  21612059.860          49.500          39.750
 125992258.150 7  98175793.89844  23975527.000
  23975526.380          43.250          33.000
 108948470.675 9  84894923.01248  20732187.560
  20732186.500          50.500          46.000
 113178168.106 9  88190802.95247  21537078.660
  21537076.320          49.000          43.250
 111191999.678 9  86643145.98447  21159113.460
  21159111.660          49.500          43.250
 109170260.324 9  85067816.45148  20774379.520
  20774381.360          50.250          45.000
 16  2 13  3 48  0.0000000  0  9G01G07G11G13G15G17G19G28G30
 120572686.457 7  93952769.83245  22944210.800
  22944213.160          44.500          38.500
 118474903.713 8  92318180.09945  22544988.940
  22544987.600          46.750          36.750
 120988442.897 7  94276736.52645  23023320.980
  23023319.640          43.750          36.500
 113578377.040 9  88502661.93646  21613237.600
  21613236.440          49.250          40.500
 125952110.291 7  98144509.84044  23967887.140
  23967886.440          43.500          35.000
 108916156.471 9  84869743.12648  20726038.300
  20726037.340          50.250          46.750
 113093348.068 8  88124709.43547  21520938.060
  21520935.720          48.750          44.000
 111204768.371 9  86653095.62347  21161543.340
  21161541.720          49.250          43.250
 109214677.484 9  85102427.21448  20782831.980
  20782833.720          50.250          45.500
 16  2 13  3 48 30.0000000  0  9G01G07G11G13G15G17G19G28G30
 120573017.637 8  93953027.88845  22944273.800
  22944275.960          45.000          38.500
 118561067.237 8  92385320.47945  22561385.400
  22561383.860          47.000          36.250
 121044795.446 7  94320647.61944  23034044.420
  23034042.820          43.750          35.500
 113585175.758 9  88507959.64246  21614531.380
  21614530.220          49.000          40.500
 125912456.881 7  98113611.09445  23960341.440
  23960340.800          44.000          38.000
 108884321.369 9  84844936.57148  20719980.280
  20719979.320          50.250          47.250
 113008949.406 9  88058944.25147  21504877.620
  21504875.340          49.250          43.750
 111217637.514 9  86663123.52747  21163992.240
  21163990.720          49.250          43.500
 109259514.787 9  85137365.36648  20791364.440
  20791366.020          50.250          45.500
 16  2 13  3 49  0.0000000  0  9G01G07G11G13G15G17G19G28G30
 120573920.478 7  93953731.42445  22944445.560
  22944447.640          44.500          38.000
 118647536.702 8  92452699.28345  22577840.140
  22577838.580          46.750          37.000
 121101667.736 7  94364963.69044  23044866.820
  23044865.740          44.250          34.500
 113592590.369 9  88513737.25946  21615942.260
  21615941.240          49.000          40.750
 125873301.189 7  98083100.17745  23952890.360
  23952889.760          43.250          38.500
 108852967.268 9  84820504.81848  20714013.860
  20714012.880          50.250          47.250
 112924976.262 8  87993510.65147  21488898.140
  21488895.660          48.750          44.500
 111230608.749 9  86673230.97047  21166460.580
  21166459.060          49.250          44.000
 109304774.190 9  85172632.42548  20799977.080
  20799978.520          50.250          45.500
 16  2 13  3 49 30.0000000  0  9G01G07G11G13G15G17G19G28G30
 120575396.339 7  93954881.44545  22944726.220
  22944728.780          44.500          38.750
 118734311.744 8  92520316.18045  22594352.860
  22594351.520          46.500          36.500
 121159058.780 7  94409683.99045  23055788.060
  23055786.560          43.250          36.000
 113600621.222 9  88519995.07346  21617470.500
  21617469.500          49.000          40.750
 125834644.859 7  98052978.39645  23945534.260
  23945533.840          44.250          38.500
 108822094.973 9  84796448.48648  20708139.080
  20708138.060          50.250          47.000
 112841431.411 8  87928410.79047  21473000.020
  21472997.540          48.750          44.250
 111243682.531 9  86683418.34747  21168948.480
  21168946.840          49.250          43.250
 109350456.297 9  85208228.86248  20808669.960
  20808671.340          50.000          45.250
 16  2 13  3 50  0.0000000  0  9G01G07G11G13G15G17G19G28G30
 120577444.555 7  93956477.48245  22945115.880
  22945118.520          44.500          38.250
 118821389.708 8  92588169.10445  22610923.120
  22610922.220          46.250          36.000
 121216965.750 7  94454806.31044  23066807.260
  23066806.120          43.500          35.000
 113609265.992 9  88526731.24946  21619115.660
  21619114.580          49.250          40.750
 125796487.568 7  98023245.43645  23938273.140
  23938273.260          44.500          38.250
 108791703.694 9  84772766.97948  20702355.700
  20702354.720          50.500          46.500
 112758315.437 8  87863645.10447  21457183.420
  21457181.100          48.750          43.750
 111256857.234 9  86693684.36447  21171455.580
  21171453.880          49.500          42.750
 109396559.680 9  85244153.57647  20817443.120
  20817444.300          50.000          44.500
 16  2 13  3 50 30.0000000  0 10G01G06G07G11G13G15G17G19G28G30
 120580066.555 7  93958520.59944  22945614.780
  22945617.240          44.750          35.750
 132334610.897 6 103117890.60345  25182439.920
  25182443.800          40.500          37.000
 118908770.335 8  92656257.87045  22627551.020
  22627550.520          46.750          37.500
 121275387.603 7  94500329.78944  23077924.240
  23077923.320          43.000          34.000
 113618525.004 9  88533946.06646  21620877.700
  21620876.680          49.500          40.500
 125758831.059 7  97993902.69946  23931107.440
  23931107.820          44.000          39.000
 108761794.255 9  84749460.94548  20696663.960
  20696663.120          50.500          46.750
 112675631.332 8  87799215.94147  21441448.980
  21441446.820          48.750          44.000
 111270133.311 9  86704029.36147  21173981.940
  21173980.200          49.500          42.750
 109443085.084 9  85280407.13147  20826296.580
  20826297.720          50.250          44.500
 16  2 13  3 51  0.0000000  0 10G01G06G07G11G13G15G17G19G28G30
 120583259.877 7  93961008.91245  22946222.120
  22946224.680          44.250          37.250
 132234075.839 6 103039551.65444  25163309.080
  25163313.860          41.000          35.750
 118996449.251 8  92724579.08146  22644235.700
  22644235.500          45.750          39.250
 121334319.344 7  94546250.62444  23089138.720
  23089137.340          43.500          35.250
 113628394.668 9  88541636.70446  21622755.740
  21622754.800          49.250          39.750
 125721673.410 7  97964948.71646  23924036.500
  23924037.120          43.500          40.000
 108732363.413 9  84726527.84648  20691063.460
  20691062.540          50.500          47.250
 112593377.388 8  87735121.97247  21425796.440
  21425794.320          48.500          44.000
 111283507.311 9  86714450.65747  21176526.800
  21176525.080          49.250          43.000
 109490029.249 9  85316986.98648  20835229.700
  20835230.920          49.750          45.000
 16  2 13  3 51 30.0000000  0 10G01G06G07G11G13G15G17G19G28G30
 120587027.914 8  93963945.04645  22946939.340
  22946941.680          45.000          37.500
 132133393.006 6 102961097.59746  25144149.480
  25144154.200          39.500          40.000
 119084428.272 8  92793134.15446  22660977.520
  22660977.220          45.500          39.250
 121393762.277 7  94592569.77445  23100450.440
  23100449.200          42.750          37.500
 113638877.165 9  88549804.88246  21624750.580
  21624749.580          49.000          41.500
 125685018.287 7  97936386.30946  23917061.120
  23917061.620          43.750          40.500
 108703414.474 9  84703970.24548  20685554.760
  20685553.720          50.500          47.500
 112511558.735 8  87671367.21047  21410226.860
  21410224.920          48.500          44.750
 111296981.836 9  86724950.29647  21179090.760
  21179089.120          49.000          42.750
 109537394.867 9  85353895.23348  20844243.100
  20844244.320          49.750          45.750
 16  2 13  3 52  0.0000000  0 10G01G06G07G11G13G15G17G19G28G30
 120591369.311 8  93967327.96045  22947765.740
  22947767.980          45.500          38.750
 132032563.056 5 102882528.88645  25124961.920
  25124966.520          38.750          37.500
 119172704.242 8  92861920.58945  22677776.040
  22677775.400          45.750          37.750
 121453712.491 7  94639284.25244  23111858.560
  23111857.120          42.500          33.750
 113649969.778 9  88558448.46846  21626861.560
  21626860.540          49.250          40.500
 125648864.709 7  97908214.72545  23910181.340
  23910181.740          44.250          37.500
 108674945.304 9  84681786.48248  20680137.300
  20680136.280          50.500          47.500
 112430175.651 8  87607951.83847  21394740.180
  21394738.360          48.750          44.750
 111310554.865 9  86735526.69047  21181673.460
  21181672.100          49.000          43.000
 109585179.898 9  85391130.30447  20853336.220
  20853337.520          50.000          44.750
 16  2 13  3 52 30.0000000  0 10G01G06G07G11G13G15G17G19G28G30
 120596284.745 8  93971158.18945  22948701.440
  22948703.560          45.500          37.250
 131931588.614 6 102803847.48245  25105746.880
  25105751.620          39.500          36.500
 119261276.062 7  92930937.58145  22694630.740
  22694629.820          44.750          38.750
 121514168.395 7  94686392.74845  23123362.600
  23123361.700          43.000          38.250
 113661671.907 9  88567567.00846  21629088.300
  21629087.320          49.250          41.000
 125613213.858 7  97880434.84745  23903397.420
  23903397.300          44.750          37.750
 108646956.002 9  84659976.64148  20674811.060
  20674810.260          50.500          47.750
 112349229.938 9  87544877.28147  21379336.820
  21379334.820          49.250          44.000
 111324225.874 9  86746179.42047  21184274.760
  21184273.700          49.000          43.250
 109633384.356 9  85428692.20748  20862509.220
  20862510.700          50.000          45.250
 16  2 13  3 53  0.0000000  0 10G01G06G07G11G13G15G17G19G28G30
 120601775.692 7  93975436.83945  22949746.300
  22949748.660          44.750          36.750
 131830473.111 6 102725056.23845  25086505.280
  25086509.820          40.500          36.000
 119350143.644 7  93000185.02746  22711541.540
  22711540.860          43.750          40.000
 121575128.919 7  94733894.44145  23134962.900
  23134962.260          42.000          37.000
 113673983.950 9  88577160.79246  21631431.100
  21631430.400          49.250          40.750
 125578067.534 8  97853048.10545  23896709.520
  23896708.740          45.500          38.000
 108619447.681 9  84638541.61248  20669576.420
  20669575.720          50.750          47.500
 112268724.371 9  87482145.68147  21364017.180
  21364014.980          49.000          43.500
 111337995.859 9  86756909.27047  21186895.060
  21186894.080          49.250          43.000
 109682008.987 9  85466581.51748  20871762.340
  20871763.800          50.250          45.250
 16  2 13  3 53 30.0000000  0 10G01G06G07G11G13G15G17G19G28G30
 120607841.236 7  93980163.25245  22950900.380
  22950902.840          44.500          38.250
 131729217.682 6 102646155.93944  25067237.240
  25067240.700          40.500          35.750
 119439304.238 7  93069660.75246  22728508.300
  22728507.700          43.500          39.500
 121636591.307 7  94781787.23345  23146659.060
  23146658.160          42.250          36.750
 113686903.710 9  88587228.12746  21633889.740
  21633889.180          49.250          40.750
 125543425.381 7  97826054.22246  23890117.620
  23890116.440          44.750          39.500
 108592419.081 9  84617480.38648  20664433.100
  20664432.320          50.500          47.500
 112188659.544 8  87419757.51447  21348781.340
  21348778.980          48.500          43.750
 111351862.994 9  86767714.83247  21189533.940
  21189532.880          49.000          43.250
 109731052.196 9  85504796.98348  20881095.140
  20881096.540          50.250          45.500
 16  2 13  3 54  0.0000000  0 10G01G06G07G11G13G15G17G19G28G30
 120614482.400 7  93985338.16745  22952164.020
  22952166.740          44.750          36.500
 131627825.480 6 102567149.05745  25047943.300
  25047946.600          40.000          36.500
 119528757.213 7  93139364.30646  22745530.820
  22745530.240          44.500          39.500
 121698554.203 7  94830069.95845  23158450.180
  23158449.620          43.000          36.000
 113700430.799 9  88597768.71246  21636463.960
  21636463.180          49.250          40.000
 125509288.823 7  97799454.32345  23883621.760
  23883620.760          44.750          38.750
 108565871.005 9  84596793.59348  20659381.060
  20659380.240          50.500          47.500
 112109038.074 9  87357714.82847  21333629.760
  21333627.280          49.250          43.250
 111365827.827 9  86778596.52147  21192191.540
  21192190.300          49.500          43.250
 109780514.451 9  85543338.98148  20890507.560
  20890508.920          50.000          45.500
 16  2 13  3 54 30.0000000  0 10G01G06G07G11G13G15G17G19G28G30
 120621700.422 7  93990962.65145  22953537.540
  22953540.440          44.500          37.500
 131526299.816 6 102488038.19345  25028623.420
  25028626.920          39.000          36.500
 119618502.033 7  93209295.30346  22762608.740
  22762608.220          44.500          41.000
 121761016.311 7  94878741.73345  23170336.420
  23170335.540          43.000          37.000
 113714565.486 9  88608782.74746  21639153.720
  21639152.680          49.250          41.250
 125475659.347 7  97773249.53845  23877222.240
  23877221.280          44.500          36.750
 108539803.609 9  84576481.34748  20654420.440
  20654419.620          50.250          47.750
 112029862.483 9  87296019.57147  21318563.180
  21318560.660          49.250          44.000
 111379890.770 9  86789554.65847  21194867.760
  21194866.400          49.500          43.500
 109830396.283 9  85582207.93248  20899999.760
  20900001.200          50.000          45.750
 16  2 13  3 55  0.0000000  0 10G01G06G07G11G13G15G17G19G28G30
 120629496.745 7  93997037.73345  22955021.060
  22955023.940          44.250          37.250
 131424644.255 5 102408826.08245  25009278.580
  25009282.520          38.500          37.500
 119708538.634 8  93279453.67546  22779742.220
  22779741.680          45.250          40.750
 121823976.980 7  94927801.99044  23182317.620
  23182316.660          43.500          34.750
 113729307.884 9  88620270.32846  21641959.220
  21641958.240          49.250          40.500
 125442539.047 7  97747441.51545  23870919.380
  23870918.000          43.500          37.750
 108514218.459 9  84556544.88248  20649551.680
  20649550.840          50.500          47.750
 111951135.638 9  87234673.99447  21303582.160
  21303579.580          49.250          44.500
 111394052.715 9  86800589.93147  21197562.760
  21197561.480          49.250          44.000
 109880698.488 9  85621404.44048  20909571.920
  20909573.500          50.000          45.750
 16  2 13  3 55 30.0000000  0 10G01G06G07G11G13G15G17G19G28G30
 120637871.199 7  94003563.27945  22956614.660
  22956617.140          44.500          36.750
 131322860.734 5 102329514.27845  24989909.620
  24989913.780          38.000          36.500
 119798865.418 8  93349838.13946  22796930.980
  22796930.580          46.000          41.500
 121887433.383 7  94977248.56545  23194392.840
  23194391.680          43.500          36.500
 113744656.452 9  88632230.25846  21644879.920
  21644879.020          49.250          40.500
 125409927.848 7  97722030.19844  23864713.000
  23864712.040          43.500          35.000
 108489114.795 9  84536983.60748  20644774.560
  20644773.740          50.500          47.500
 111872858.963 9  87173679.21547  21288686.720
  21288684.220          49.250          44.750
 111408312.782 9  86811701.67647  21200276.440
  21200275.080          49.500          43.250
 109931420.243 9  85660927.85248  20919224.060
  20919225.600          50.250          45.750
 16  2 13  3 56  0.0000000  0 10G01G06G07G11G13G15G17G19G28G30
 120646820.706 7  94010536.91044  22958317.620
  22958319.680          44.250          35.750
 131220948.525 6 102250102.19645  24970516.360
  24970520.420          39.250          37.500
 119889477.522 8  93420444.93846  22814173.940
  22814173.540          46.500          41.000
 121951380.599 7  95027077.54844  23206561.880
  23206560.880          43.750          34.000
 113760606.914 9  88644659.18346  21647915.000
  21647914.300          49.000          40.750
 125377823.346 7  97697013.68544  23858603.460
  23858602.160          43.500          35.000
 108464489.150 9  84517794.82148  20640088.380
  20640087.620          50.500          47.750
 111795030.787 9  87113033.91547  21273876.400
  21273873.860          49.000          44.750
 111422667.413 9  86822887.10347  21203008.080
  21203006.620          49.500          44.250
 109982557.939 9  85700775.40448  20928955.360
  20928956.620          50.250          45.500
 16  2 13  3 56 30.0000000  0 10G01G06G07G11G13G15G17G19G28G30
 120656345.901 8  94017959.14945  22960130.320
  22960132.400          45.000          37.750
 131118910.448 5 102170592.01445  24951099.640
  24951103.420          38.500          38.500
 119980373.710 8  93491273.09846  22831470.920
  22831470.740          46.250          41.750
 122015816.911 7  95077287.63644  23218823.980
  23218822.740          43.500          34.250
 113777158.975 8  88657556.88146  21651064.660
  21651063.900          48.750          41.000
 125346226.641 7  97672392.92745  23852590.500
  23852589.700          43.750          38.500
 108440341.755 9  84498978.67148  20635493.180
  20635492.400          50.250          47.750
 111717653.311 9  87052739.81747  21259151.780
  21259149.220          49.000          44.750
 111437116.669 9  86834146.26347  21205757.680
  21205756.100          49.250          43.500
 110034111.603 9  85740947.07148  20938765.720
  20938766.860          50.000          45.750
 16  2 13  3 57  0.0000000  0 10G01G06G07G11G13G15G17G19G28G30
 120666447.346 8  94025830.40045  22962052.800
  22962055.000          45.000          36.750
 131016749.245 5 102090985.91142  24931659.580
  24931662.900          38.250          27.250
 120071553.336 8  93562322.13746  22848821.940
  22848821.980          46.500          41.750
 122080740.591 7  95127877.49444  23231178.460
  23231177.140          42.750          35.500
 113794311.453 9  88670922.44846  21654328.700
  21654327.900          49.250          41.000
 125315138.945 8  97648168.74645  23846674.940
  23846673.980          45.000          37.500
 108416672.783 9  84480535.32148  20630989.120
  20630988.320          50.500          47.750
 111640728.328 9  86992798.30547  21244513.400
  21244510.740          49.250          44.500
 111451660.679 9  86845479.26047  21208525.280
  21208523.500          49.250          43.000
 110086081.224 9  85781442.86948  20948655.140
  20948656.400          50.000          45.500
 16  2 13  3 57 30.0000000  0 10G01G06G07G11G13G15G17G19G28G30
 120677129.088 7  94034153.86544  22964085.500
  22964087.660          44.500          35.750
 130914471.423 5 102011288.96445  24912196.920
  24912200.080          38.500          37.500
 120163018.750 8  93633593.86146  22866227.280
  22866227.520          47.000          40.000
 122146153.612 7  95178848.71245  23243626.080
  23243624.660          43.000          36.750
 113812067.296 9  88684758.15946  21657707.620
  21657706.760          49.250          39.750
 125284564.455 7  97624344.47445  23840857.060
  23840856.240          44.250          38.250
 108393486.151 9  84462467.84248  20626576.860
  20626576.180          50.500          48.000
 111564261.774 9  86933214.00447  21229962.340
  21229959.720          49.500          44.500
 111466302.949 9  86856888.81747  21211311.520
  21211309.660          49.250          42.750
 110138470.228 9  85822265.44548  20958624.220
  20958625.820          49.750          45.000
 16  2 13  3 58  0.0000000  0 10G01G06G07G11G13G15G17G19G28G30
 120688387.534 8  94042926.67845  22966227.960
  22966229.780          45.750          36.000
 130812075.591 6 101931500.01845  24892711.860
  24892714.680          39.000          36.500
 120254764.678 8  93705084.15746  22883685.940
  22883686.140          47.250          40.000
 122212049.862 7  95230196.43844  23256165.620
  23256164.480          43.500          34.750
 113830421.753 9  88699060.31946  21661200.280
  21661199.600          49.000          40.750
 125254500.200 8  97600917.77446  23835136.140
  23835135.520          45.000          39.250
 108370777.190 9  84444772.56448  20622255.540
  20622254.900          50.500          47.500
 111488251.201 9  86873985.01148  21215498.140
  21215495.540          49.500          45.000
 111481039.280 9  86868371.67747  21214115.720
  21214113.900          49.500          42.750
 110191274.503 9  85863411.60348  20968672.340
  20968674.040          49.500          45.000
 16  2 13  3 58 30.0000000  0 10G01G06G07G11G13G15G17G19G28G30
 120700223.682 8  94052149.67445  22968480.420
  22968482.160          45.000          38.000
 130709565.212 6 101851621.84545  24873204.940
  24873207.940          40.250          37.250
 120346790.730 8  93776792.75346  22901197.900
  22901197.860          46.750          39.500
 122278428.443 7  95281920.01145  23268797.080
  23268795.600          43.250          36.250
 113849374.600 9  88713828.76146  21664806.800
  21664806.540          49.000          40.500
 125224947.782 8  97577889.92946  23829512.880
  23829512.040          45.500          40.000
 108348546.761 9  84427450.16648  20618025.320
  20618024.560          50.750          48.000
 111412699.451 9  86815113.55048  21201121.140
  21201118.520          49.250          45.000
 111495870.501 9  86879928.46647  21216938.120
  21216936.320          49.500          42.750
 110244494.460 9  85904881.67747  20978799.660
  20978801.340          49.750          44.750
 16  2 13  3 59  0.0000000  0 10G01G06G07G11G13G15G17G19G28G30
 120712639.076 8  94061824.00845  22970842.960
  22970844.860          45.000          38.750
 130606944.241 5 101771657.46945  24853676.800
  24853679.800          38.750          37.500
 120439096.939 8  93848719.66546  22918763.240
  22918762.880          46.750          40.000
 122345288.538 7  95334018.77245  23281520.060
  23281518.900          43.000          36.750
 113868926.183 8  88729063.76546  21668527.240
  21668527.340          48.750          40.500
 125195908.816 8  97555262.15145  23823987.260
  23823986.180          45.250          37.250
 108326796.521 9  84410501.93248  20613886.400
  20613885.580          50.500          48.000
 111337609.293 9  86756601.76548  21186831.860
  21186829.300          49.250          45.000
 111510797.831 9  86891560.15447  21219778.740
  21219776.800          49.250          42.750
 110298131.156 9  85946676.49147  20989006.420
  20989007.880          49.750          44.750
 16  2 13  3 59 30.0000000  0 10G01G06G07G11G13G15G17G19G28G30
 120725633.586 7  94071949.61046  22973315.640
  22973317.680          44.750          39.000
 130504214.992 5 101691608.72645  24834128.120
  24834131.060          38.250          36.750
 120531681.559 8  93920863.51545  22936381.360
  22936381.040          46.250          36.750
 122412628.016 7  95386491.08844  23294334.140
  23294332.960          43.000          33.000
 113889075.059 8  88744764.17746  21672361.320
  21672361.580          48.750          41.000
 125167383.851 7  97533034.90545  23818559.080
  23818557.840          44.750          38.750
 108305525.827 9  84393927.36748  20609838.680
  20609837.840          50.500          47.500
 111262982.443 9  86698450.97047  21172630.780
  21172628.260          49.500          44.750
 111525820.877 9  86903266.42347  21222637.400
  21222635.380          49.250          42.750
 110352183.933 9  85988795.51648  20999292.540
  20999293.920          50.000          45.000
                            4  1
RINEX FILE SPLICE; other post-header comments skipped       COMMENT
 16  2 13  4  0  0.0000000  0 10G01G06G07G11G13G15G17G19G28G30
 120739207.343 7  94082526.57145  22975898.620
  22975900.920          44.750          38.250
 130401380.049 5 101611477.66745  24814559.100
  24814562.340          38.500          36.500
 120624543.197 8  93993223.23845  22954052.020
  22954052.100          45.500          38.750
 122480444.640 7  95439335.20544  23307239.300
  23307238.000          43.500          34.750
 113909820.107 8  88760929.13446  21676308.720
  21676309.200          48.500          41.250
 125139373.471 7  97511208.65745  23813228.700
  23813227.660          44.250          38.000
 108284734.206 9  84377726.12448  20605882.100
  20605881.260          50.500          47.750
 111188820.384 9  86640662.34947  21158518.120
  21158515.680          49.250          44.500
 111540939.138 9  86915046.89147  21225514.360
  21225512.060          49.500          42.250
 110406652.394 9  86031238.45848  21009657.760
  21009659.040          50.000          45.000
 16  2 13  4  0 30.0000000  0 10G01G06G07G11G13G15G17G19G28G30
 120753359.106 7  94093553.93845  22978591.540
  22978593.780          44.750          37.250
 130298440.762 5 101531265.26945  24794969.980
  24794973.600          38.750          38.750
 120717679.551 7  94065796.97245  22971775.080
  22971775.500          44.750          36.750
 122548734.801 7  95492548.31745  23320234.520
  23320233.200          42.750          37.000
 113931158.780 8  88777556.62846  21680369.200
  21680369.740          48.500          41.000
 125111876.879 7  97489782.72745  23807996.140
  23807995.160          44.750          38.000
 108264420.259 9  84361897.09348  20602016.500
  20602015.700          50.500          47.500
 111115123.388 9  86583236.12147  21144493.980
  21144491.500          49.250          44.250
 111556151.223 9  86926900.47447  21228409.160
  21228406.820          49.500          43.000
 110461534.771 9  86074003.93247  21020101.640
  21020102.880          50.000          44.750
 16  2 13  4  1  0.0000000  0 10G01G06G07G11G13G15G17G19G28G30
 120768090.515 7  94105032.95645  22981394.780
  22981397.100          44.750          37.000
 130195401.156 6 101450974.70644  24775362.020
  24775365.680          39.500          35.250
 120811090.390 7  94138584.63445  22989550.540
  22989551.000          44.500          38.000
 122617498.125 7  95546130.14745  23333319.460
  23333318.340          42.750          37.500
 113953091.362 8  88794646.93546  21684542.920
  21684543.260          48.500          41.000
 125084896.176 7  97468758.81746  23802861.920
  23802860.780          44.000          39.000
 108244584.897 9  84346440.97748  20598242.040
  20598241.180          50.750          47.500
 111041894.553 9  86526174.69747  21130559.060
  21130556.440          49.500          44.500
 111571458.571 9  86938828.27547  21231322.100
  21231319.920          49.500          42.500
 110516832.216 9  86117092.84447  21030624.440
  21030625.400          50.250          44.750
 16  2 13  4  1 30.0000000  0 10G01G06G07G11G13G15G17G19G28G30
 120783398.058 7  94116960.93046  22984307.520
  22984310.100          44.750          40.000
 130092260.489 6 101370605.35845  24755734.840
  24755738.600          39.000          37.250
 120904770.935 7  94211582.46444  23007377.260
  23007377.840          44.500          35.000
 122686729.115 7  95600076.33844  23346493.480
  23346492.740          43.250          35.250
 113975613.351 8  88812196.52346  21688828.860
  21688829.020          48.750          40.750
 125058428.589 7  97448134.73345  23797825.080
  23797824.180          44.500          37.250
 108225224.492 9  84331354.94348  20594557.960
  20594557.040          50.750          47.500
 110969132.462 9  86469476.97047  21116712.960
  21116710.160          49.500          44.250
 111586857.541 9  86950827.47547  21234252.480
  21234250.380          49.500          43.000
 110572540.769 9  86160502.10047  21041225.500
  21041226.360          50.250          44.000
 16  2 13  4  2  0.0000000  0 10G01G06G07G11G13G15G17G19G28G30
 120799283.804 8  94129339.42945  22987330.540
  22987332.980          45.000          38.000
 129989023.367 5 101290160.88545  24736089.280
  24736093.420          37.750          36.500
 120998721.843 7  94284790.95845  23025255.460
  23025256.120          44.250          36.250
 122756427.773 7  95654386.98544  23359756.940
  23359756.160          43.500          35.000
 113998725.388 8  88830205.89246  21693227.080
  21693227.060          48.750          40.250
 125032476.851 7  97427912.59845  23792886.620
  23792886.040          44.250          38.750
 108206341.155 9  84316640.64448  20590964.580
  20590963.640          50.750          48.000
 110896840.540 9  86413145.62248  21102956.240
  21102953.480          49.250          45.250
 111602350.050 9  86962899.56047  21237200.660
  21237198.660          49.500          43.250
 110628662.049 9  86204232.95147  21051905.020
  21051906.000          50.000          44.500
 16  2 13  4  2 30.0000000  0 10G01G06G07G11G13G15G17G19G28G30
 120815748.203 8  94142168.82545  22990463.920
  22990465.920          45.750          38.000
 129885692.872 5 101209643.66545  24716425.840
  24716430.320          38.000          38.250
 121092942.233 7  94358209.46045  23043185.200
  23043185.760          43.750          36.250
 122826592.415 7  95709060.73844  23373108.920
  23373108.340          43.500          35.750
 114022426.628 8  88848674.36246  21697737.280
  21697737.100          48.750          41.000
 125007041.418 7  97408092.77446  23788046.420
  23788045.980          44.000          40.250
 108187935.057 9  84302298.23848  20587461.980
  20587461.020          50.750          47.750
 110825020.979 9  86357182.34647  21089289.400
  21089286.680          49.500          44.750
 111617936.588 9  86975044.91647  21240166.680
  21240164.760          49.750          43.500
 110685195.986 9  86248285.35947  21062662.960
  21062664.380          50.000          44.750
 16  2 13  4  3  0.0000000  0 10G01G06G07G11G13G15G17G19G28G30
 120832789.655 8  94155447.88545  22993707.040
  22993708.760          45.000          38.000
 129782270.216 5 101129054.65244  24696744.920
  24696749.240          38.500          34.500
 121187428.767 7  94431835.35245  23061165.300
  23061165.580          42.500          37.500
 122897219.535 7  95764094.86544  23386549.140
  23386548.340          44.000          34.500
 114046714.648 8  88867600.10046  21702359.040
  21702359.260          48.500          40.000
 124982121.509 7  97388674.71046  23783304.180
  23783304.180          44.000          40.000
 108170003.988 9  84288325.97948  20584049.860
  20584048.720          50.750          47.750
 110753673.746 9  86301587.12447  21075712.480
  21075709.560          49.500          44.500
 111633615.281 9  86987262.07347  21243150.280
  21243148.440          49.500          43.250
 110742140.617 9  86292657.78047  21073499.060
  21073500.640          49.750          44.750
 16  2 13  4  3 30.0000000  0 10G01G06G07G11G13G15G17G19G28G30
 120850412.054 7  94169179.66146  22997060.420
  22997062.520          44.750          39.000
 129678761.998 6 101048398.92444  24677047.900
  24677052.180          39.250          34.500
 121282184.376 6  94505670.85045  23079196.480
  23079196.940          41.250          36.000
 122968310.383 7  95819490.32744  23400077.500
  23400076.160          44.250          34.750
 114071591.637 8  88886984.73046  21707092.940
  21707093.180          48.500          40.250
 124957721.501 7  97369661.72545  23778661.060
  23778660.940          43.500          38.500
 108152551.784 9  84274726.86948  20580728.860
  20580727.620          50.750          47.750
 110682804.038 9  86246363.98848  21062226.520
  21062223.460          49.250          45.000
 111649390.067 9  86999554.12247  21246152.100
  21246150.320          49.500          43.250
 110799499.392 9  86337352.90347  21084414.040
  21084415.520          49.750          44.500
 16  2 13  4  4  0.0000000  0 10G01G06G07G11G13G15G17G19G28G30
 120868611.206 8  94183360.82545  23000523.500
  23000525.700          45.000          37.500
 129575166.633 6 100967675.26145  24657334.140
  24657338.580          39.250          36.750
 121377203.537 6  94579711.72344  23097277.760
  23097278.400          41.750          35.000
 123039858.762 7  95875242.23844  23413692.760
  23413691.620          43.750          34.750
 114097052.155 8  88906824.06246  21711937.900
  21711938.140          48.750          40.500
 124933837.491 7  97351050.83146  23774115.740
  23774115.720          43.500          40.500
 108135573.647 9  84261497.16448  20577498.040
  20577496.940          50.750          47.750
 110612409.320 9  86191510.97747  21048830.860
  21048827.860          49.500          44.750
 111665256.503 9  87011917.56947  21249171.260
  21249169.600          49.500          43.250
 110857267.666 9  86382367.13247  21095407.040
  21095408.260          50.000          44.250
 16  2 13  4  4 30.0000000  0 10G01G06G07G11G13G15G17G19G28G30
 120887386.686 7  94197991.07745  23004096.140
  23004098.440          44.500          37.500
 129471486.599 5 100886885.63445  24637604.540
  24637608.880          38.500          38.500
 121472484.153 6  94653956.28645  23115408.740
  23115409.980          41.750          38.250
 123111862.539 8  95931349.09744  23427394.540
  23427393.140          45.000          33.250
 114123094.742 8  88927116.97846  21716893.700
  21716893.960          48.750          40.250
 124910469.644 7  97332842.12945  23769668.940
  23769668.800          44.500          37.750
 108119069.126 9  84248636.51948  20574357.260
  20574356.300          50.750          48.000
 110542490.768 9  86137029.00548  21035525.760
  21035522.880          49.500          45.000
 111681214.372 9  87024352.27447  21252207.900
  21252206.260          49.500          43.250
 110915444.605 9  86427699.80847  21106477.880
  21106479.100          49.750          44.250
 16  2 13  4  5  0.0000000  0 10G01G06G07G11G13G15G17G19G28G30
 120906739.931 7  94213071.50945  23007778.800
  23007780.900          44.500          37.750
 129367726.065 5 100806033.31046  24617859.600
  24617863.800          38.250          39.250
 121568026.458 7  94728404.83745  23133589.840
  23133591.080          42.000          38.000
 123184321.445 7  95987810.61544  23441182.860
  23441181.440          43.500          33.000
 114149719.518 8  88947863.54546  21721960.240
  21721960.460          48.500          40.750
 124887620.353 7  97315037.48445  23765320.980
  23765320.680          44.250          38.250
 108103039.250 9  84236145.71448  20571306.820
  20571305.940          50.500          48.000
 110473051.696 9  86082920.66248  21022311.820
  21022309.200          49.000          45.500
 111697264.969 9  87036859.23947  21255262.140
  21255260.620          49.250          43.500
 110974031.267 9  86473351.73848  21117626.560
  21117627.940          49.500          45.000
 16  2 13  4  5 30.0000000  0 10G01G06G07G11G13G15G17G19G28G30
 120926667.929 8  94228599.81145  23011571.000
  23011572.880          45.250          37.000
 129263884.948 6 100725118.22145  24598099.500
  24598103.640          40.000          38.750
 121663826.319 7  94803054.04045  23151820.200
  23151821.280          43.750          38.750
 123257229.613 7  96044622.19744  23455057.000
  23455055.440          43.750          34.500
 114176922.230 8  88969060.45746  21727136.700
  21727136.960          48.750          40.500
 124865286.825 8  97297634.75045  23761071.300
  23761070.720          45.250          38.000
 108087480.958 9  84224022.38548  20568346.120
  20568345.260          50.750          47.750
 110404090.940 9  86029185.03048  21009188.900
  21009186.540          49.250          45.000
 111713405.458 9  87049436.23747  21258333.520
  21258332.120          49.500          43.250
 111033024.240 9  86519320.27447  21128852.420
  21128854.020          49.500          44.750
 16  2 13  4  6  0.0000000  0 10G01G06G07G11G13G15G17G19G28G30
 120947174.207 7  94244578.72145  23015472.980
  23015474.960          44.750          37.750
 129159969.688 6 100644145.31445  24578325.180
  24578329.380          40.500          37.500
 121759885.877 7  94877905.61945  23170100.180
  23170101.000          43.500          37.750
 123330588.847 7  96101785.19544  23469016.700
  23469015.020          43.250          35.000
 114204705.264 8  88990709.56246  21732423.660
  21732423.640          48.500          40.500
 124843472.905 8  97280636.86845  23756920.500
  23756919.360          45.250          37.750
 108072397.416 9  84212268.98448  20565475.760
  20565474.880          50.500          47.750
 110335613.493 9  85975825.99348  20996157.840
  20996155.940          49.250          45.000
 111729639.611 9  87062086.22447  21261422.720
  21261421.320          49.500          42.750
 111092426.704 9  86565607.89247  21140156.320
  21140157.860          49.500          43.750
 16  2 13  4  6 30.0000000  0 10G01G06G07G11G13G15G17G19G28G30
 120968255.941 8  94261006.05645  23019484.820
  23019486.600          45.250          37.000
 129055980.364 6 100563114.66345  24558536.880
  24558540.800          39.750          37.250
 121856200.939 7  94952956.28846  23188428.800
  23188429.260          43.500          39.500
 123404394.532 7  96159296.13542  23483061.680
  23483059.660          42.750          27.250
 114233064.360 9  89012807.56146  21737820.420
  21737820.040          49.000          39.750
 124822176.535 8  97264042.29545  23752868.080
  23752866.880          45.000          38.000
 108057785.433 9  84200883.03748  20562695.100
  20562694.300          50.750          47.750
 110267618.250 9  85922842.71548  20983218.600
  20983217.120          49.500          45.250
 111745964.465 9  87074806.88847  21264529.280
  21264527.920          49.500          42.750
 111152235.510 9  86612212.14347  21151537.520
  21151539.100          49.750          44.250
 16  2 13  4  7  0.0000000  0 10G01G06G07G11G13G15G17G19G28G30
 120989915.626 8  94277883.73645  23023606.820
  23023608.240          45.000          37.500
 128951922.458 6 100482030.63444  24538735.400
  24538739.560          40.750          35.250
 121952772.455 7  95028206.76746  23206806.040
  23206806.260          43.250          39.500
 123478646.870 7  96217155.07145  23497191.080
  23497189.360          43.250          36.250
 114262000.829 9  89035355.43946  21743327.020
  21743326.360          49.000          39.750
 124801400.555 8  97247853.22445  23748914.640
  23748913.260          45.250          37.500
 108043647.585 9  84189866.53048  20560004.680
  20560003.880          50.750          48.000
 110200109.079 9  85870238.17948  20970372.160
  20970370.540          49.500          45.000
 111762383.109 9  87087600.63247  21267653.680
  21267652.340          49.500          43.000
 111212452.736 9  86659134.63747  21162996.440
  21162998.160          49.500          44.500
 16  2 13  4  7 30.0000000  0 10G01G06G07G11G13G15G17G19G28G30
 121012153.409 7  94295211.88445  23027838.600
  23027840.020          44.750          38.500
 128847798.973 5 100400895.46745  24518921.660
  24518925.520          38.750          37.500
 122049599.821 7  95103656.62246  23225231.980
  23225231.860          44.500          39.500
 123553344.098 7  96275360.71444  23511405.560
  23511403.800          42.750          33.500
 114291513.602 8  89058352.39046  21748943.140
  21748942.440          48.750          40.000
 124781146.027 8  97232070.48845  23745060.080
  23745058.920          45.000          37.000
 108029983.579 9  84179219.24848  20557404.520
  20557403.700          50.750          48.000
 110133088.060 9  85818014.01648  20957618.640
  20957616.620          49.500          45.000
 111778895.534 9  87100467.45947  21270795.900
  21270794.480          49.500          43.000
 111273078.222 9  86706375.25847  21174533.100
  21174534.820          49.500          44.750
 16  2 13  4  8  0.0000000  0 10G01G06G07G11G13G15G17G19G28G30
 121034962.518 7  94312985.23945  23032178.900
  23032180.500          44.750          38.250
 128743606.318 6 100319706.43445  24499094.660
  24499098.420          41.500          37.000
 122146675.371 8  95179299.84246  23243705.060
  23243704.860          45.000          41.000
 123628477.750 7  96333906.40244  23525702.940
  23525700.940          43.750          35.750
 114321594.421 8  89081791.96946  21754667.380
  21754666.660          48.750          40.000
 124761406.861 7  97216689.31145  23741303.660
  23741302.600          44.500          38.000
 108016786.561 9  84168935.86048  20554893.240
  20554892.400          50.750          48.250
 110066550.114 9  85766166.28348  20944956.960
  20944954.700          49.500          45.250
 111795495.271 9  87113402.31347  21273954.740
  21273953.120          49.500          43.000
 111334104.855 9  86753928.46647  21186146.100
  21186147.620          49.750          44.250
 16  2 13  4  8 30.0000000  0 10G01G06G07G11G13G15G17G19G28G30
 121058350.941 7  94331209.99545  23036629.280
  23036631.460          44.250          38.500
 128639355.531 6 100238472.07245  24479256.620
  24479260.020          41.000          36.250
 122244005.510 7  95255141.47346  23262226.420
  23262226.460          44.500          41.250
 123704053.479 7  96392796.58244  23540084.700
  23540082.580          43.500          33.500
 114352250.464 8  89105679.78646  21760501.040
  21760500.400          48.750          40.250
 124742191.240 8  97201716.09445  23737646.780
  23737646.200          45.000          37.250
 108004064.199 9  84159022.34748  20552472.240
  20552471.520          51.000          47.750
 110000504.944 9  85714702.54048  20932389.020
  20932386.660          49.750          45.000
 111812190.837 9  87126411.84947  21277131.940
  21277130.020          49.750          42.500
 111395540.276 9  86801800.21447  21197836.980
  21197838.180          49.750          44.000
 16  2 13  4  9  0.0000000  0 10G01G06G07G11G13G15G17G19G28G30
 121082314.515 7  94349882.91845  23041188.980
  23041192.040          44.500          38.000
 128535045.447 5 100157191.50945  24459406.500
  24459410.260          38.250          36.500
 122341584.863 8  95331177.30246  23280794.960
  23280795.500          45.500          40.750
 123780065.291 7  96452026.54244  23554549.260
  23554547.460          43.250          34.000
 114383475.990 8  89130011.36146  21766443.020
  21766442.640          48.750          40.000
 124723495.537 8  97187148.01645  23734089.180
  23734088.140          45.750          36.000
 107991812.202 9  84149475.35548  20550140.740
  20550140.080          50.750          48.250
 109934950.045 9  85663620.82347  20919914.440
  20919911.900          50.000          44.750
 111828978.324 9  87139493.00747  21280326.680
  21280324.440          49.750          43.000
 111457380.046 9  86849987.02247  21209604.780
  21209605.920          49.750          44.000
 16  2 13  4  9 30.0000000  0 10G01G06G07G11G13G15G17G19G28G30
 121106848.639 7  94369000.42746  23045857.600
  23045860.440          43.750          39.000
 128430674.665 6 100075863.67045  24439545.200
  24439549.320          39.750          36.250
 122439407.634 8  95407402.82246  23299410.020
  23299410.640          45.750          39.750
 123856506.840 7  96511591.38545  23569095.920
  23569093.800          43.250          36.250
 114415265.354 8  89154782.28646  21772492.280
  21772491.700          48.750          40.250
 124705315.978 8  97172982.11945  23730629.980
  23730628.760          45.500          37.750
 107980026.058 9  84140291.34948  20547898.000
  20547897.240          50.750          48.000
 109869882.698 9  85612919.01547  20907532.700
  20907529.640          49.750          44.250
 111845853.409 9  87152642.43947  21283537.940
  21283535.680          49.500          43.000
 111519619.360 9  86898485.15947  21221448.480
  21221449.860          49.500          44.250
 16  2 13  4 10  0.0000000  0 10G01G06G07G11G13G15G17G19G28G30
 121131959.411 7  94388567.25045  23050636.240
  23050638.920          44.750          38.250
 128326252.381 6  99994495.68945  24419674.340
  24419678.240          41.500          36.750
 122537478.678 8  95483821.78446  23318072.320
  23318072.800          45.250          39.000
 123933382.207 7  96571494.22943  23583724.920
  23583722.860          43.500          30.750
 114447623.572 9  89179996.48046  21778649.940
  21778649.280          49.000          40.000
 124687658.854 8  97159223.29945  23727270.000
  23727268.560          45.500          36.000
 107968711.347 9  84131474.68948  20545744.940
  20545744.020          51.000          48.000
 109805310.501 9  85562603.01947  20895245.120
  20895241.560          49.750          44.000
 111862822.315 9  87165864.96747  21286766.860
  21286764.840          49.500          42.750
 111582263.891 9  86947299.05347  21233369.280
  21233370.780          49.500          44.000
 16  2 13  4 10 30.0000000  0 10G01G06G07G11G13G15G17G19G28G30
 121157641.936 8  94408579.60745  23055523.640
  23055526.400          45.000          38.500
 128221776.876 6  99913086.26044  24399793.540
  24399797.120          41.000          34.500
 122635792.072 8  95560429.59846  23336780.680
  23336781.060          45.250          39.000
 124010684.401 7  96631729.76144  23598435.200
  23598432.920          42.250          34.750
 114480544.057 9  89205648.78546  21784914.740
  21784914.000          49.000          39.750
 124670520.058 8  97145868.39145  23724008.620
  23724006.860          45.750          36.000
 107957862.959 9  84123021.41648  20543680.580
  20543679.540          50.750          48.000
 109741230.391 9  85512670.48647  20883050.920
  20883047.360          49.500          44.500
 111879881.146 9  87179157.56047  21290012.800
  21290011.200          49.500          43.000
 111645308.554 9  86996424.74447  21245366.320
  21245367.720          49.750          43.500
 16  2 13  4 11  0.0000000  0 10G01G06G07G11G13G15G17G19G28G30
 121183897.115 8  94429038.20945  23060520.140
  23060522.520          45.000          38.750
 128117252.358 6  99831638.63144  24379903.240
  24379906.800          41.000          35.250
 122734347.719 8  95637226.19145  23355535.240
  23355535.400          45.750          38.000
 124088412.827 7  96692297.33044  23613226.040
  23613223.720          42.000          33.500
 114514026.723 9  89231739.16646  21791286.440
  21791285.560          49.000          40.000
 124653901.313 8  97132918.71945  23720846.340
  23720844.800          45.500          38.250
 107947481.697 9  84114932.13548  20541705.060
  20541704.100          51.000          48.000
 109677644.880 9  85463123.35348  20870950.740
  20870947.620          49.500          45.000
 111897030.618 9  87192520.77747  21293276.040
  21293274.700          49.250          42.750
 111708754.016 9  87045862.75947  21257439.680
  21257440.880          49.500          44.250
 16  2 13  4 11 30.0000000  0 10G01G06G07G11G13G15G17G19G28G30
 121210726.336 7  94449944.11046  23065625.680
  23065628.220          44.750          39.250
 128012683.390 6  99750156.34045  24360004.460
  24360007.960          40.750          36.250
 122833145.920 8  95714211.77446  23374336.100
  23374335.860          45.000          39.000
 124166566.823 6  96753196.50944  23628097.780
  23628096.140          41.250          34.000
 114548071.932 8  89258267.89146  21797764.920
  21797764.100          48.750          40.500
 124637804.233 8  97120375.53645  23717783.320
  23717782.180          45.000          37.250
 107937568.848 9  84107207.84348  20539818.720
  20539817.880          50.750          48.500
 109614557.067 9  85413964.03748  20858945.380
  20858942.700          49.500          45.500
 111914272.841 9  87205956.27647  21296556.960
  21296555.560          49.000          42.750
 111772601.418 9  87095613.95047  21269589.400
  21269590.780          49.250          43.750
 16  2 13  4 12  0.0000000  0 10G01G06G07G11G13G15G17G19G28G30
 121238127.707 7  94471295.81946  23070839.820
  23070842.800          44.250          40.000
 127908071.414 6  99668640.49344  24340097.380
  24340100.980          40.250          33.000
 122932183.525 7  95791383.87645  23393182.420
  23393181.880          44.500          36.250
 124245142.365 6  96814424.22544  23643049.560
  23643048.280          40.750          34.250
 114582676.023 8  89285232.11146  21804349.900
  21804349.000          48.750          40.250
 124622227.470 8  97108237.79045  23714819.120
  23714818.240          45.000          37.750
 107928122.454 9  84099847.01548  20538021.200
  20538020.480          50.750          48.500
 109551967.251 9  85365192.76448  20847034.920
  20847032.180          49.500          45.000
 111931606.471 9  87219462.99847  21299855.460
  21299853.960          49.000          43.000
 111836848.554 9  87145676.62547  21281815.120
  21281816.700          49.250          43.750
 16  2 13  4 12 30.0000000  0 10G01G06G07G11G13G15G17G19G28G30
 121266101.648 7  94493093.69545  23076162.800
  23076165.680          44.250          38.750
 127803420.124 6  99587094.11445  24320182.660
  24320186.440          39.500          37.500
 123031460.125 7  95868742.25445  23412074.200
  23412073.140          44.250          36.500
 124324138.315 7  96875979.50444  23658081.840
  23658081.360          42.000          34.750
 114617838.537 9  89312631.48746  21811041.240
  21811040.160          49.250          41.000
 124607172.085 7  97096506.31745  23711954.020
  23711953.680          44.500          37.500
 107919142.907 9  84092849.96348  20536312.500
  20536311.840          51.000          48.500
 109489877.254 9  85316810.97148  20835219.600
  20835216.640          49.500          45.500
 111949032.547 9  87233041.75447  21303171.600
  21303170.240          49.250          42.750
 111901495.685 9  87196051.00047  21294117.020
  21294118.540          49.250          43.500
 16  2 13  4 13  0.0000000  0 10G01G06G07G11G13G15G17G19G28G30
 121294642.765 7  94515333.52546  23081593.840
  23081596.720          44.500          39.500
 127698727.415 6  99505515.40944  24300260.360
  24300264.160          40.750          35.750
 123130968.988 7  95946281.55244  23431010.140
  23431009.140          44.000          35.500
 124403547.616 7  96937856.86743  23673192.880
  23673192.900          42.000          31.500
 114653552.862 9  89340460.85646  21817837.520
  21817836.320          49.500          40.000
 124592633.186 8  97085177.30945  23709187.540
  23709187.360          45.000          38.750
 107910624.615 9  84086212.34848  20534691.540
  20534690.860          51.000          48.250
 109428283.446 9  85268815.80647  20823498.660
  20823495.340          49.750          44.500
 111966546.216 9  87246688.76147  21306504.460
  21306502.940          49.250          43.000
 111966537.133 9  87246732.62747  21306494.080
  21306495.300          49.500          42.250
 16  2 13  4 13 30.0000000  0 10G01G06G07G11G13G15G17G19G28G30
 121323756.363 7  94538019.47445  23087133.900
  23087136.760          44.750          37.250
 127594002.149 6  99423911.32844  24280332.040
  24280335.520          41.250          34.750
 123230714.914 7  96024005.63144  23449991.080
  23449989.980          42.250          33.500
 124483373.625 7  97000058.96144  23688383.820
  23688383.200          43.750          32.750
 114689822.975 9  89368723.28946  21824739.580
  21824738.220          49.500          39.750
 124578616.768 7  97074255.42645  23706520.280
  23706519.840          44.500          38.500
 107902573.005 9  84079938.38248  20533159.360
  20533158.600          51.000          48.250
 109367192.910 9  85221212.79347  20811873.480
  20811870.120          49.750          44.750
 111984153.378 9  87260408.63047  21309855.160
  21309853.400          49.500          42.750
 112031978.163 9  87297725.62147  21318947.120
  21318948.320          49.500          43.750
 16  2 13  4 14  0.0000000  0 10G01G06G07G11G13G15G17G19G28G30
 121353437.765 7  94561147.83145  23092782.260
  23092785.120          44.500          38.500
 127489242.909 6  99342280.78544  24260396.880
  24260400.340          41.000          34.000
 123330691.693 6  96101909.58645  23469015.520
  23469015.380          41.250          37.000
 124563609.866 7  97062580.68744  23703652.720
  23703651.520          42.000          34.000
 114726643.048 9  89397414.24346  21831746.120
  21831744.820          49.000          39.750
 124565119.099 7  97063737.77446  23703951.400
  23703951.180          44.250          39.000
 107894982.800 9  84074023.95148  20531714.980
  20531714.180          51.000          48.250
 109306602.748 9  85173999.68248  20800343.580
  20800340.440          49.750          45.500
 112001849.923 9  87274198.13347  21313222.840
  21313220.900          49.500          42.750
 112097813.770 9  87349026.08047  21331475.220
  21331476.600          49.500          44.000
 16  2 13  4 14 30.0000000  0 10G01G06G07G11G13G15G17G19G28G30
 121383689.698 7  94584720.79745  23098539.140
  23098541.580          44.250          37.500
 127384455.954 6  99260628.64345  24240456.420
  24240459.820          41.000          36.500
 123430901.170 7  96179994.84444  23488084.620
  23488084.680          42.000          34.250
 124644257.461 6  97125422.95244  23718999.700
  23718998.200          41.500          33.250
 114764014.404 8  89426534.76446  21838857.360
  21838856.300          48.250          39.750
 124552143.263 7  97053626.73146  23701481.820
  23701482.000          43.750          40.000
 107887856.762 9  84068471.19048  20530358.860
  20530358.060          50.750          48.500
 109246517.655 9  85127180.16048  20788909.700
  20788906.780          49.250          45.500
 112019639.468 9  87288060.11947  21316608.120
  21316606.160          49.250          42.750
 112164046.556 9  87400636.03747  21344079.000
  21344080.620          49.250          44.750
 16  2 13  4 15  0.0000000  0 10G01G06G07G11G13G15G17G19G28G30
 121414507.636 7  94608734.77445  23104403.380
  23104406.040          43.500          38.250
 127279640.194 6  99178954.02245  24220510.760
  24220513.580          41.750          37.750
 123531337.873 6  96258257.21244  23507197.340
  23507197.100          41.750          35.000
 124725309.743 6  97188580.56844  23734423.240
  23734422.040          40.500          33.500
 114801931.542 8  89456080.58646  21846072.400
  21846071.600          48.500          39.500
 124539685.203 7  97043919.16045  23699111.080
  23699111.540          44.000          38.750
 107881190.476 9  84063276.67748  20529090.280
  20529089.400          50.750          48.500
 109186934.796 9  85080751.98948  20777571.440
  20777568.560          49.500          45.750
 112037517.827 9  87301991.31147  21320010.220
  21320008.380          49.000          43.000
 112230671.766 9  87452551.77947  21356757.440
  21356758.980          49.250          44.250
 16  2 13  4 15 30.0000000  0 10G01G06G07G11G13G15G17G19G28G30
 121445895.850 7  94633193.10846  23110376.660
  23110379.100          44.500          39.000
 127174803.359 6  99097263.01446  24200560.940
  24200564.140          41.000          40.000
 123632005.256 6  96336699.27146  23526353.460
  23526353.940          40.500          39.500
 124806769.457 6  97252055.66744  23749924.340
  23749923.420          41.500          34.500
 114840397.298 8  89486053.89446  21853392.180
  21853391.200          48.250          39.250
 124527749.328 7  97034618.49246  23696839.420
  23696840.100          42.500          40.750
 107874988.133 9  84058443.70448  20527909.960
  20527909.020          50.500          48.500
 109127860.144 9  85034719.82148  20766329.980
  20766326.920          49.250          45.500
 112055490.227 9  87315995.78347  21323430.240
  21323428.440          49.000          42.750
 112297693.537 8  87504776.53247  21369511.240
  21369512.780          48.750          44.250
 16  2 13  4 16  0.0000000  0 10G01G06G07G11G13G15G17G19G28G30
 121477847.858 7  94658090.77945  23116457.300
  23116459.260          43.750          38.750
 127069942.563 6  99015553.34845  24180606.500
  24180610.140          41.500          37.500
 123732895.709 6  96415315.15346  23545552.100
  23545553.040          41.250          39.500
 124888628.282 6  97315841.76344  23765501.660
  23765500.580          41.750          34.500
 114879404.307 8  89516448.95046  21860815.060
  21860813.820          48.500          39.500
 124516330.139 7  97025720.44146  23694666.180
  23694667.140          43.750          39.500
 107869243.245 9  84053967.18148  20526816.620
  20526815.640          50.500          48.500
 109069288.941 9  84989079.96548  20755184.220
  20755181.320          49.500          45.750
 112073551.111 9  87330069.20147  21326867.160
  21326865.160          49.250          42.500
 112365105.303 9  87557305.16247  21382339.060
  21382340.740          49.000          44.500
 16  2 13  4 16 30.0000000  0 10G01G06G07G11G13G15G17G19G28G30
 121510365.739 7  94683429.39646  23122645.000
  23122647.260          43.250          40.250
 126965063.461 7  98933829.42245  24160648.700
  24160652.260          42.000          36.750
 123834010.361 7  96494105.76745  23564793.640
  23564794.340          42.750          37.250
 124970886.734 6  97379939.24444  23781154.920
  23781153.680          41.750          34.250
 114918953.223 9  89547266.26446  21868341.140
  21868339.840          49.000          39.500
 124505430.641 7  97017227.32346  23692592.120
  23692593.000          43.750          40.500
 107863957.712 9  84049848.59648  20525810.600
  20525809.720          50.750          48.250
 109011225.407 9  84943835.67648  20744135.140
  20744132.280          49.750          45.750
 112091703.241 9  87344213.71647  21330321.340
  21330319.300          49.500          42.500
 112432908.961 9  87610139.16247  21395241.680
  21395243.420          49.250          44.250
 16  2 13  4 17  0.0000000  0 10G01G06G07G11G13G15G17G19G28G30
 121543449.051 7  94709208.60446  23128940.060
  23128943.020          43.000          39.000
 126860169.190 6  98852093.62446  24140687.920
  24140691.300          41.500          39.500
 123935348.210 7  96573070.28645  23584077.720
  23584078.240          43.000          36.750
 125053542.614 6  97444346.42144  23796883.820
  23796882.000          41.000          34.250
 114959042.244 8  89578504.46046  21875969.880
  21875968.640          48.750          39.250
 124495050.806 7  97009139.13246  23690617.020
  23690617.840          44.000          40.500
 107859131.017 9  84046087.53748  20524891.960
  20524891.160          50.750          48.500
 108953670.619 9  84898987.82848  20733182.900
  20733180.020          50.000          46.000
 112109947.185 9  87358429.77847  21333792.980
  21333791.120          49.500          42.500
 112501103.897 9  87663278.05247  21408218.840
  21408220.560          49.500          44.750
 16  2 13  4 17 30.0000000  0 10G01G06G07G11G13G15G17G19G28G30
 121577094.455 7  94735425.79446  23135342.420
  23135345.380          43.500          39.000
 126755260.014 7  98770346.22045  24120724.340
  24120727.420          42.750          37.750
 124036904.942 7  96652205.33045  23603403.360
  23603403.620          43.000          36.750
 125136590.919 6  97509059.37243  23812687.420
  23812685.260          41.000          31.250
 114999666.934 8  89610160.05346  21883700.580
  21883699.380          48.750          39.500
 124485187.782 7  97001453.64446  23688740.360
  23688740.900          44.250          39.750
 107854759.794 9  84042681.38848  20524060.120
  20524059.340          50.750          48.500
 108896623.053 9  84854535.19948  20722327.120
  20722324.360          49.750          46.000
 112128279.980 9  87372715.06947  21337281.660
  21337279.820          49.750          42.500
 112569686.719 9  87716719.18747  21421269.720
  21421271.480          49.250          44.500
 16  2 13  4 18  0.0000000  0 10G01G06G07G11G13G15G17G19G28G30
 121611304.163 7  94762082.71145  23141852.400
  23141854.820          44.250          38.500
 126650341.838 7  98688591.82845  24100759.040
  24100762.260          43.000          37.250
 124138681.440 7  96731511.66945  23622771.180
  23622771.300          44.750          36.250
 125220032.359 7  97574078.68144  23828565.940
  23828563.580          42.250          34.500
 115040828.368 8  89642233.88946  21891533.440
  21891532.000          48.750          39.750
 124475844.494 7  96994173.17546  23686962.380
  23686963.160          44.250          39.000
 107850846.456 9  84039632.04448  20523315.440
  20523314.740          50.750          48.500
 108840086.830 9  84810481.00348  20711568.500
  20711566.060          49.750          46.250
 112146705.117 9  87387072.32347  21340787.980
  21340785.940          49.750          43.000
 112638659.498 9  87770464.19147  21434394.840
  21434396.600          49.250          44.750
 16  2 13  4 18 30.0000000  0 10G01G06G07G11G13G15G17G19G28G30
 121646073.945 8  94789176.05845  23148469.340
  23148471.020          45.000          38.250
 126545414.116 7  98606830.01345  24080791.940
  24080795.040          42.500          37.750
 124240673.173 7  96810985.71644  23642179.980
  23642179.880          43.750          35.500
 125303860.984 7  97639399.66244  23844518.380
  23844515.680          43.000          32.750
 115082521.431 8  89674721.98446  21899467.320
  21899465.840          48.500          39.250
 124467017.422 7  96987294.94146  23685282.680
  23685283.580          44.250          40.000
 107847386.212 9  84036935.76848  20522657.020
  20522656.360          50.750          48.500
 108784059.552 9  84766823.37648  20700906.780
  20700904.560          49.500          46.750
 112165219.125 9  87401498.82247  21344311.120
  21344308.880          49.500          42.500
 112708017.942 9  87824509.70547  21447593.380
  21447595.240          49.250          44.750
 16  2 13  4 19  0.0000000  0 10G01G06G07G11G13G15G17G19G28G30
 121681405.459 7  94816707.11445  23155193.080
  23155194.300          44.500          38.500
 126440482.215 7  98525064.90045  24060824.000
  24060827.180          43.000          37.750
 124342880.896 7  96890628.06944  23661629.640
  23661629.260          43.500          35.000
 125388076.456 7  97705022.10744  23860544.100
  23860541.600          42.500          32.750
 115124745.862 8  89707624.12846  21907502.420
  21907500.960          48.750          39.250
 124458708.806 8  96980820.71146  23683702.080
  23683702.440          45.000          39.250
 107844381.317 9  84034594.30648  20522085.340
  20522084.620          50.750          48.750
 108728544.732 9  84723565.07548  20690342.620
  20690340.480          49.500          46.000
 112183824.670 9  87415996.65047  21347851.540
  21347849.400          49.250          42.250
 112777763.585 9  87878856.91448  21460865.660
  21460867.500          49.000          45.000
