     2.11           OBSERVATION DATA    G (GPS)             RINEX VERSION / TYPE
teqc  2016Nov7      root                20180417 15:41:10UTCPGM / RUN BY / DATE
Linux 2.4.21-27.ELsmp|Opteron|gcc|Linux x86_64|=+           COMMENT
     2.11           OBSERVATION DATA    G (GPS)             COMMENT
teqc  2015Nov6      NOAA/NOS/NGS/CORS   20160214 10:18:44UTCCOMMENT
Solaris x86 5.10|AMD64|cc SC5.8 -xarch=amd64|=+|=+          COMMENT
teqc  2015Nov6      NOAA/NOS/NGS/CORS   20160214 10:18:32UTCCOMMENT
teqc  2015Nov6      UNAVCO Archive Ops  20160214 04:03:57UTCCOMMENT
BIT 2 OF LLI FLAGS DATA COLLECTED UNDER A/S CONDITION       COMMENT
input file: seat201602130000.bnx                            COMMENT
RINEX file created by UNAVCO GPS Archive.                   COMMENT
For more information contact archive@unavco.org             COMMENT
Monument ID: 18010                                          COMMENT
UNAVCO 4-char name:   SEAT                                  COMMENT
4-char name from Log or data file: SEAT                     COMMENT
Monument location: 47.653977 -122.309476 44.2292            COMMENT
Visit ID: 101410                                            COMMENT
End of DB comments                                          COMMENT
 SNR is mapped to RINEX snr flag value [0-9]                COMMENT
  L1 & L2: min(max(int(snr_dBHz/6), 0), 9)                  COMMENT
teqc edited: all SBAS satellites excluded                   COMMENT
teqc edited: all Compass satellites excluded                COMMENT
teqc edited: all QZSS satellites excluded                   COMMENT
Forced Modulo Decimation to 30 seconds                      COMMENT
SEAT                                                        MARKER NAME
40457M002                                                   MARKER NUMBER
UW                  University of Washington                OBSERVER / AGENCY
4552261579          TRIMBLE NETRS       1.3-0               REC # / TYPE / VERS
0220061145          TRM29659.00     UNAV                    ANT # / TYPE
 -2300592.8570 -3637848.2430  4691079.2150                  APPROX POSITION XYZ
        0.1233        0.0000        0.0000                  ANTENNA: DELTA H/E/N
     1     1                                                WAVELENGTH FACT L1/2
     8    L1    L2    C1    C2    P1    P2    S1    S2      # / TYPES OF OBSERV
    30.0000                                                 INTERVAL
teqc.w windowed: start @ 2016 Feb 13 00:00:00.000           COMMENT
teqc.w windowed:  end  @ 2016 Feb 13 05:00:00.000           COMMENT
teqc.w edited: all GLONASS satellites excluded              COMMENT
  2016     2    13     2    31   30.0000000     GPS         TIME OF FIRST OBS
                                                            END OF HEADER
 16  2 13  2 31 30.0000000  0 12G07G08G05G30G28G11G20G01G13G17G15G09
 112127936.659 7  87372441.48245  21337205.837
  21337192.1954         47.600          35.7004
 121331737.005 6  94544203.46844  23088643.417
  23088633.4684         41.100          25.8004
 131250313.215 5 102272924.39142  24976103.080
  24976093.7174         35.500          17.4004
 106383477.980 8  82896232.26947  20244083.964
  20244073.3124         51.000          42.5004
 109271739.707 7  85146774.44346  20793702.211
  20793688.8634         47.300          39.0004
 122699056.673 6  95609603.51643  23348852.173
  23348839.2354         38.500          21.7004
 129675052.874 5                  24676342.276
                        33.800
                                  25076649.931
                        33.000
 113843522.781 7  88709186.20945  21663693.356
  21663680.9464         46.800          34.3004
 125039338.812 6  97433222.45444  23794192.718
  23794180.9534         38.900          25.6004
 129040314.346 6 100550827.36142  24555550.994
  24555540.5774         36.300          15.6004
 132293408.768 5 103085742.10942  25174601.156
  25174592.0874         34.200          15.6004
 16  2 13  2 32  0.0000000  0 12G07G08G05G30G28G11G20G01G13G17G15G09
 112190904.162 7  87421507.05845  21349187.528
  21349174.6494         46.700          35.6004
 121406485.309 6  94602448.90144  23102867.256
  23102857.8944         40.000          25.8004
 131331908.271 6 102336504.89742  24991630.458
  24991621.3304         36.400          16.9004
 106398932.399 8  82908274.69747  20247024.622
  20247014.2644         51.200          42.2004
 109245789.942 8  85126553.86346  20788764.140
  20788750.3234         48.300          39.1004
 122640854.086 6  95564250.87243  23337775.703
  23337763.2354         38.100          22.3004
 129709090.990 5                  24682821.977
                        34.600
                                  25060199.985
                        32.300
 113786648.969 8  88664868.98645  21652870.812
  21652858.0504         48.000          33.8004
 124933004.025 6  97350364.22544  23773958.789
  23773946.4374         39.900          25.5004
 128948898.487 6 100479594.29342  24538154.915
  24538144.7904         37.000          16.9004
 132410239.740 5                  25196834.308
                        34.100
 16  2 13  2 32 30.0000000  0 11G07G08G05G30G28G11G20G01G13G17G15
 112254199.196 7  87470827.87545  21361231.876
  21361219.2314         46.500          35.5004
 121481651.413 6  94661019.89944  23117170.633
  23117161.0364         41.100          25.3004
 131413666.488 6 102400212.56542  25007190.501
  25007179.6144         37.200          16.9004
 106414785.138 8  82920627.48547  20250041.095
  20250030.9124         50.500          42.8004
 109220192.869 7  85106608.11746  20783893.164
  20783879.5234         47.400          38.9004
 122583102.315 6  95519249.51543  23326785.690
  23326773.4564         38.200          22.5004
 129743592.296 5                  24689387.352
                        34.000
                                  25043778.011
                        32.400
 113730303.852 7  88620963.72545  21642149.135
  21642135.7874         47.200          34.5004
 124826816.070 6  97267620.37844  23753752.678
  23753739.9754         38.800          24.6004
 128857778.381 6 100408591.71943  24520817.439
  24520805.2054         38.100          19.6004
 16  2 13  2 33  0.0000000  0 11G07G08G05G30G28G11G20G01G13G17G15
 112317815.033 7  87520398.66245  21373337.966
  21373324.3834         46.000          35.3004
 121557227.515 6  94719910.36244  23131553.032
  23131542.6734         40.600          26.6004
 131495578.617 5 102464040.12242  25022775.992
  25022767.2154         34.700          16.9004
 106431030.457 8  82933286.19447  20253133.045
  20253122.1004         51.200          42.3004
 109194942.453 8  85086932.49446  20779088.077
  20779074.2604         48.100          38.8004
 122525798.170 6  95474596.97643  23315880.828
  23315868.5934         39.000          22.3004
 129778575.901 5                  24696040.582
                        34.400
                                  25027380.339
                        33.200
 113674483.365 8  88577467.27445  21631526.860
  21631513.2784         48.100          33.6004
 124720771.961 6  97184988.67444  23733570.526
  23733560.1684         38.600          24.5004
 128766950.973 6 100337817.16743  24503531.733
  24503520.5544         39.000          19.6004
 16  2 13  2 33 30.0000000  0 11G07G08G05G30G28G11G20G01G13G17G15
 112381750.048 7  87570218.16446  21385503.892
  21385491.3644         46.700          36.0004
 121633209.982 6  94779117.48244  23146011.449
  23146001.9694         41.100          25.3004
 131577640.402 5 102527984.35142  25038393.108
  25038383.5704         35.500          16.9004
 106447667.517 8  82946250.15146  20256298.660
  20256287.9504         51.400          41.9004
 109170037.001 7  85067525.66746  20774348.848
  20774335.2074         47.300          38.9004
 122468942.985 6  95430294.22943  23305063.396
  23305049.5204         39.000          22.0004
                                  24702780.234
                        31.500
 131433739.435 5                  25011010.356
                        32.800
 113619188.509 8  88534380.39245  21621004.238
  21620990.7144         48.000          33.9004
 124614871.911 6  97102469.18844  23713418.751
  23713407.5714         38.700          24.5004
 128676417.282 6 100267271.47843  24486303.363
  24486292.3014         39.500          20.4004
 16  2 13  2 34  0.0000000  0 11G07G08G05G30G28G11G20G01G13G17G15
 112446013.090 7  87620293.25845  21397732.597
  21397720.0704         45.100          35.6004
 121709605.417 6  94838646.39244  23160549.542
  23160539.4764         40.900          25.5004
 131659858.597 5 102592050.41142  25054038.229
  25054029.6874         35.200          16.3004
 106464705.813 8  82959526.76047  20259540.938
  20259530.1104         51.200          42.3004
 109145485.490 7  85048394.64446  20769676.190
  20769663.5464         46.900          39.0004
 122412548.966 6  95386350.87443  23294330.998
  23294318.0014         39.000          22.2004
                                  24709609.144
                        31.800
 131347848.449 5                  24994665.166
                        31.800
 113564430.999 7  88491712.22745  21610583.995
  21610570.8824         47.200          34.1004
 124509128.744 6  97020071.94444  23693296.712
  23693285.2404         38.800          25.4004
 128586189.138 6 100196963.90843  24469133.823
  24469122.5274         39.500          21.1004
 16  2 13  2 34 30.0000000  0 11G07G08G05G30G28G11G20G01G13G17G15
 112510597.419 7  87670618.71345  21410022.529
  21410010.2364         45.500          35.7004
 121786404.951 6  94898490.20644  23175163.452
  23175154.0904         40.800          24.5004
 131742224.045 5 102656231.22442  25069711.220
  25069702.7364         33.100          16.3004
 106482139.377 8  82973111.36947  20262858.537
  20262847.7094         51.300          42.0004
 109121281.250 7  85029534.22346  20765070.772
  20765057.4834         47.500          38.7004
 122356612.261 6  95342763.86143  23283686.691
  23283673.9294         40.800          22.6004
 129886235.173 5                  24716527.709
                        32.000
 131262124.888 4                  24978350.773
                        29.600
 113510206.588 7  88449459.46445  21600264.515
  21600252.6324         46.200          34.3004
 124403538.071 6  96937793.55744  23673204.685
  23673191.6304         40.300          25.5004
 128496262.972 6 100126891.63343  24452021.333
  24452009.8604         39.200          20.6004
 16  2 13  2 35  0.0000000  0 11G07G08G05G30G28G11G20G01G13G17G15
 112575507.770 7  87721198.20645  21422374.961
  21422362.6684         46.000          35.9004
 121863611.668 6  94958651.28144  23189855.700
  23189845.5174         39.500          25.1004
 131824738.695 5 102720528.32242  25085413.481
  25085405.0564         34.500          16.9004
 106499973.846 8  82987008.36547  20266252.385
  20266241.6754         51.100          42.2004
 109097429.161 7  85010948.20046  20760532.264
  20760518.2134         47.500          39.3004
 122301140.867 6  95299539.44843  23273131.004
  23273117.6564         40.000          20.6004
 129923046.696 5                  24723533.878
                        33.000
 131176548.373 5                  24962068.399
                        31.600
 113456522.713 7  88407627.90445  21590049.236
  21590036.8254         46.700          33.8004
 124298107.906 6  96855640.21044  23653140.909
  23653128.9684         40.300          24.3004
 128406646.626 6 100057060.77643  24434968.384
  24434956.7364         38.300          20.1004
 16  2 13  2 35 30.0000000  0 11G07G08G05G30G28G11G20G01G13G17G15
 112640732.214 7  87772022.45246  21434786.738
  21434774.2114         46.200          36.2004
 121941211.441 6  95019118.63244  23204622.828
  23204612.8794         39.300          25.5004
 131907388.185 5 102784930.41442  25101140.163
  25101132.7354         33.300          16.3004
 106518197.747 8  83001208.81547  20269719.830
  20269709.0034         50.900          42.0004
 109073917.367 7  84992627.34446  20756057.696
  20756043.8204         47.300          38.9004
 122246125.756 6  95256670.52943  23262661.453
  23262648.3394         40.900          22.2004
 129960303.604 5                  24730624.426
                        34.100
 131091113.458 5                  24945809.127
                        30.500
 113403370.098 7  88366210.30645  21579934.859
  21579922.3914         46.800          34.5004
 124192829.498 6  96773605.14743  23633108.593
  23633095.0114         41.300          22.9004
 128317330.965 5  99987464.21743  24417970.361
  24417960.6474         35.900          19.0004
 16  2 13  2 36  0.0000000  0 11G07G08G05G30G28G11G20G01G13G17G15
 112706281.276 7  87823099.64445  21447260.346
  21447247.5844         45.500          35.3004
 122019213.165 6  95079899.20643  23219465.647
  23219455.9334         39.700          23.6004
 131990180.279 5 102849443.75542  25116897.168
  25116887.5124         34.600          17.4004
 106536822.485 7  83015721.62346  20273264.341
  20273253.5724         47.200          41.9004
 109050756.193 7  84974579.70046  20751649.932
  20751636.9944         47.400          38.8004
 122191580.591 6  95214167.85843  23252283.029
  23252268.3334         40.300          21.7004
 129998019.255 5                  24737800.791
                        34.400
 131005842.390 5                  24929584.375
                        32.500
 113350761.828 7  88325216.89345  21569924.534
  21569911.4794         47.000          34.4004
 124087716.167 6  96691698.71144  23613105.282
  23613093.3994         41.700          26.0004
 128228329.689 5  99918112.66543  24401035.083
  24401024.5484         35.500          19.3004
 16  2 13  2 36 30.0000000  0 11G07G08G05G30G28G11G20G01G13G17G15
 112772149.894 7  87874425.84245  21459794.437
  21459781.8514         45.600          35.1004
 122097609.740 6  95140987.45843  23234383.655
  23234374.6444         39.300          23.8004
 132073107.936 5 102914062.64142  25132677.785
  25132667.4854         34.400          16.9004
 106555844.051 8  83030543.63547  20276883.961
  20276873.7194         51.300          42.2004
 109027941.178 7  84956801.77646  20747309.247
  20747295.4894         47.800          39.6004
 122137503.716 6  95172030.04343  23241992.513
  23241978.2284         40.000          22.3004
 130036193.426 5                  24745064.102
                        33.700
 130920734.210 5                  24913387.499
                        31.900
 113298695.526 7  88284645.77045  21560015.662
  21560003.5454         47.000          33.5004
 123982766.047 6  96609919.45244  23593133.250
  23593122.2464         40.900          26.8004
 128139640.867 6  99849004.59443  24384157.924
  24384147.8584         36.400          18.3004
 16  2 13  2 37  0.0000000  0 11G07G08G05G30G28G11G20G01G13G17G15
 112838340.568 7  87926002.99045  21472390.265
  21472377.6204         44.900          35.8004
 122176401.364 6  95202383.51544  23249377.946
  23249368.3494         40.100          25.6004
 132156170.780 5 102978786.86442  25148483.542
  25148473.7694         34.900          16.3004
 106575265.045 7  83045676.88647  20280579.718
  20280569.1844         47.300          42.5004
 109005474.092 7  84939294.98646  20743033.481
  20743020.2504         46.700          39.0004
 122083900.033 6  95130260.96643  23231790.663
  23231777.5494         39.500          21.7004
                                  24752412.207
                        31.200
 130835788.501 5                  24897221.528
                        30.800
 113247176.104 7  88244500.79945  21550212.679
  21550199.9764         46.300          34.5004
 123877984.169 7  96528271.25044  23573194.681
  23573182.9154         43.000          26.7004
 128051269.676 6  99780143.97343  24367341.739
  24367330.6774         37.000          19.3004
 16  2 13  2 37 30.0000000  0 11G07G08G05G30G28G11G20G01G13G17G15
 112904847.570 7  87977826.63345  21485046.556
  21485033.0324         45.800          35.2004
 122255580.800 6  95264081.76944  23264445.239
  23264435.2324         40.400          24.2004
 132239360.894 5 103043610.27542  25164313.864
  25164304.0914         34.900          15.6004
 106595080.988 8  83061117.89347  20284350.660
  20284339.8904         51.600          42.2004
 108983350.075 7  84922055.51146  20738824.065
  20738809.8974         47.500          39.0004
 122030767.579 6  95088859.08743  23221680.223
  23221667.2854         40.000          21.8004
 130113854.730 5                  24759844.600
                        32.900
 130751006.812 5                  24881089.606
                        31.200
 113196200.895 7  88204779.87745  21540512.014
  21540499.1934         46.400          34.6004
 123773368.364 7  96446752.47244  23553286.691
  23553274.9254         42.000          25.4004
 127963213.957 6  99711529.23042  24350586.598
  24350574.3644         37.800          17.4004
 16  2 13  2 38  0.0000000  0 11G07G08G05G30G28G11G20G01G13G17G15
 112971674.801 7  88029899.80945  21497763.460
  21497750.2884         46.600          35.0004
 122335149.558 6  95326083.41644  23279587.095
  23279576.9714         40.800          26.0004
 132322679.795 5 103108534.06242  25180168.294
  25180160.5724         34.800          17.4004
 106615296.205 8  83076870.02347  20288197.482
  20288186.7714         50.900          42.4004
 108961572.896 7  84905086.31046  20734679.226
  20734665.7614         46.600          38.7004
 121978112.772 6  95047829.38543  23211660.808
  23211647.1664         40.600          22.2004
 130153362.329 5                  24767363.639
                        33.800
 130666396.426 5                  24864987.120
                        30.800
 113145775.805 7  88165487.62745  21530916.602
  21530903.3714         46.900          34.7004
 123668925.301 7  96365368.31444  23533411.028
  23533400.4354         42.200          26.1004
 127875480.224 6  99643165.27043  24333890.091
  24333879.2644         38.800          18.3004
 16  2 13  2 38 30.0000000  0 11G07G08G05G30G28G11G20G01G13G17G15
 113038825.258 7  88082224.83945  21510541.556
  21510528.5014         45.800          35.5004
 122415108.686 6  95388389.22543  23294802.357
  23294792.3504         41.100          23.0004
 132406127.393 5 103173558.04842  25196047.981
  25196040.1434         34.300          17.4004
 106635914.386 8  83092936.14747  20292120.676
  20292110.0244         50.700          42.4004
 108940145.619 7  84888389.75346  20730601.521
  20730588.1144         47.000          38.6004
 121925942.057 6  95007176.90743  23201731.344
  23201719.0514         37.000          22.0004
 130193333.770 5                  24774967.332
                        34.000
                                  24848920.077
                        29.900
 113095906.791 7  88126628.67745  21521426.651
  21521413.6554         47.000          34.4004
 123564661.500 6  96284123.81144  23513569.937
  23513558.9924         41.400          25.0004
 127788074.682 6  99575057.10543  24317257.155
  24317246.3274         38.000          19.3004
 16  2 13  2 39  0.0000000  0 11G07G08G05G30G28G11G20G01G13G17G15
 113106283.377 7  88134789.60945  21523378.509
  21523365.2204         46.000          35.3004
 122495440.708 6  95450985.62543  23310089.112
  23310078.2844         41.000          22.3004
 132489686.050 5 103238668.64842  25211949.055
  25211940.3964         32.600          16.3004
 106656920.933 8  83109304.90346  20296118.430
  20296107.3094         51.300          41.8004
 108919052.983 7  84871953.94146  20726587.856
  20726574.2744         47.300          38.9004
 121874242.929 6  94966891.89743  23191894.437
  23191882.5544         40.100          22.6004
 130233714.219 5                  24782651.476
                        33.000
 130497701.117 5                  24832885.894
                        31.900
 113046580.581 7  88088192.69745  21512040.116
  21512026.9444         47.500          35.5004
 123460564.023 6  96203008.92744  23493761.719
  23493749.8954         41.600          26.5004
 127700984.722 6  99507194.88243  24300684.508
  24300673.2704         38.100          19.6004
 16  2 13  2 39 30.0000000  0 11G07G08G05G30G28G11G20G01G13G17G15
 113174063.893 7  88187605.59145  21536276.835
  21536263.7214         46.300          34.7004
 122576158.745 6  95513882.79443  23325449.970
  23325438.4984         40.600          23.8004
 132573368.299 5 103303875.48542  25227873.597
  25227864.7034         32.500          16.9004
 106678331.339 8  83125988.34446  20300192.743
  20300181.6814         51.000          41.9004
 108898309.480 7  84855790.20446  20722640.350
  20722626.8844         46.900          39.1004
 121823032.601 6  94926987.77843  23182148.534
  23182137.0034         37.600          22.6004
 130274544.918 5                  24790422.134
                        33.800
 130413620.096 5                  24816885.393
                        32.200
 112997814.843 7  88050193.44545  21502760.320
  21502747.4414         46.900          35.2004
 123356650.278 7  96122037.21444  23473987.557
  23473976.0264         42.200          26.8004
 127614228.279 6  99439592.54143  24284174.352
  24284163.8174         38.100          20.1004
 16  2 13  2 40  0.0000000  0 11G07G08G05G30G28G11G20G01G13G17G15
 113242160.615 7  88240667.97045  21549234.836
  21549222.3674         46.100          34.9004
 122657254.507 6  95577074.30443  23340881.036
  23340869.5634         40.200          21.7004
 132657165.358 5 103369171.85942  25243818.507
  25243810.7854         33.800          16.3004
 106700140.101 7  83142982.19747  20304342.454
  20304331.6264         47.300          42.1004
 108877909.083 7  84839893.81646  20718758.262
  20718744.8554         47.200          39.3004
 121772308.105 6  94887462.23743  23172496.404
  23172484.1114         39.800          22.2004
 130315811.932 5                  24798275.117
                        33.400
 130329721.579 5 101555582.11442  24800921.022
  24800911.7184         33.200          15.6004
 112949605.553 7  88012627.78045  21493586.383
  21493573.3864         47.500          34.7004
 123252917.591 7  96041206.60044  23454248.245
  23454236.4794         42.500          27.4004
 127527802.315 6  99372247.69743  24267728.224
  24267717.5144         37.400          21.1004
 16  2 13  2 40 30.0000000  0 11G07G08G05G30G28G11G20G01G13G17G15
 113310573.211 7  88293976.49145  21562251.825
  21562240.8224         45.700          34.8004
 122738725.635 6  95640558.32043  23356383.831
  23356373.4724         39.400          22.9004
 132741074.434 5 103434555.50242  25259787.438
  25259777.8414         32.000          15.6004
 106722347.633 8  83160286.77846  20308568.466
  20308557.9314         49.300          41.7004
 108857851.441 7  84824264.50846  20714941.647
  20714927.8304         46.600          39.5004
 121722072.281 6  94848317.44843  23162937.055
  23162924.3524         40.000          22.0004
 130357513.643 5                  24806209.602
                        31.200
 130246008.923 5 101490351.56542  24784990.279
  24784982.6174         33.400          13.9004
 112901954.975 7  87975497.48845  21484518.423
  21484505.9544         47.200          34.9004
 123149368.558 6  95960519.07544  23434542.643
  23434531.4054         41.800          27.1004
 127441709.272 6  99305162.27843  24251344.346
  24251334.2224         37.400          19.3004
 16  2 13  2 41  0.0000000  0 11G07G08G05G30G28G11G20G01G13G17G15
 113379301.340 7  88347530.87245  21575331.151
  21575318.8584         45.600          34.8004
 122820570.135 6  95704333.25943  23371957.810
  23371948.5074         39.700          22.3004
 132825093.049 5 103500024.46642  25275775.854
  25275766.0234         34.000          15.6004
 106744954.382 8  83177902.44147  20312870.330
  20312859.9124         50.300          42.4004
 108838136.586 7  84808902.30746  20711189.964
  20711176.2064         47.700          39.2004
 121672327.783 6  94809555.53543  23153471.775
  23153458.1344         40.800          22.8004
 130399648.133 5                  24814230.331
                        34.600
 130162485.716 5 101425268.58742  24769095.310
  24769089.3464         33.700          16.9004
 112854865.667 8  87938804.54745  21475556.802
  21475544.9204         48.100          34.8004
 123046005.967 7  95879976.84044  23414874.050
  23414862.5194         42.700          27.3004
 127355952.070 6  99238338.58943  24235026.181
  24235015.4124         37.700          19.3004
 16  2 13  2 41 30.0000000  0 11G07G08G05G30G28G11G20G01G13G17G15
 113448343.527 7  88401329.97445  21588470.686
  21588457.4554         45.000          34.6004
 122902784.287 6  95768396.22744  23387603.330
  23387593.2064         39.500          25.8004
 132909217.180 5 103565575.69942  25291783.305
  25291774.8214         33.300          15.6004
 106767959.650 8  83195828.64747  20317248.224
  20317236.9854         50.200          42.0004
 108818763.196 7  84793806.17446  20707503.417
  20707489.6004         46.600          38.9004
 121623076.273 6  94771177.76443  23144099.539
  23144086.1334         41.300          23.6004
 130442212.735 5                  24822327.771
                        32.200
 130079154.321 5 101360335.06542  24753237.417
  24753232.0404         31.900          15.6004
 112808338.495 7  87902549.63945  21466703.488
  21466691.0784         47.000          34.2004
 122942832.027 7  95799581.62044  23395240.946
  23395228.8884         43.200          26.7004
 127270532.306 6  99171777.82243  24218772.244
  24218759.8334         38.000          20.1004
 16  2 13  2 42  0.0000000  0 11G07G08G05G30G28G11G20G01G13G17G15
 113517699.752 7  88455373.78345  21601668.812
  21601655.6404         46.300          35.0004
 122985366.177 6  95832745.74444  23403318.124
  23403308.5864         40.300          24.6004
 132993444.768 5 103631207.49142  25307812.340
  25307802.9784         34.600          17.8004
 106791364.159 8  83214065.92846  20321701.711
  20321691.0604         50.600          41.7004
 108799731.188 7  84778976.05646  20703881.444
  20703868.2134         47.100          38.6004
 121574320.612 6  94733186.35043  23134821.588
  23134808.4154         40.300          22.9004
 130485205.579 5                  24830509.327
                        31.900
 129996018.270 5 101295553.80042  24737417.587
  24737412.5614         31.800          15.6004
 112762375.868 8  87866734.62445  21457957.540
  21457945.0124         48.000          35.4004
 122839849.080 7  95719335.19944  23375643.849
  23375631.2634         42.900          27.7004
 127185453.201 6  99105482.45943  24202581.606
  24202569.8994         38.500          20.9004
 16  2 13  2 42 30.0000000  0 11G07G08G05G30G28G11G20G01G13G17G15
 113587369.421 7  88509661.84545  21614926.001
  21614912.8884         46.600          34.9004
 123068313.439 6  95897379.98943  23419102.506
  23419093.0854         40.000          23.2004
 133077772.539 6 103696917.44742  25323859.322
  25323849.7834         36.300          16.9004
 106815168.072 8  83232614.44046  20326231.146
  20326220.9634         50.300          41.9004
 108781040.220 7  84764411.68746  20700324.437
  20700311.2654         46.800          38.6004
 121526063.050 6  94695583.08543  23125638.476
  23125625.0114         41.200          22.8004
 130528624.760 5                  24838771.419
                        31.900
 129913081.127 5 101230927.50142  24721636.194
  24721629.2344         34.600          15.6004
 112716979.875 7  87831361.14745  21449318.720
  21449306.4864         47.800          35.1004
 122737059.588 7  95639239.53044  23356083.267
  23356071.2674         42.300          27.3004
 127100717.484 6  99039454.68243  24186456.108
  24186445.2804         38.300          20.9004
 16  2 13  2 43  0.0000000  0 11G07G08G05G30G28G11G20G01G13G17G15
 113657355.842 7  88564196.72545  21628244.219
  21628231.1644         46.300          34.6004
 123151627.122 6  95962299.75644  23434956.876
  23434947.3964         40.000          24.9004
 133162201.028 6 103762705.78743  25339925.929
  25339915.4534         36.000          18.6004
 106839375.280 8  83251477.21846  20330837.579
  20330827.3374         50.200          41.9004
 108762693.509 7  84750115.56546  20696833.517
  20696820.2284         47.000          39.0004
 121478310.092 6  94658373.02343  23116551.731
  23116538.0314         41.300          23.0004
 130572471.622 5                  24847115.397
                        32.800
 129830349.687 5 101166461.56942  24705892.850
  24705885.1284         33.800          15.6004
 112672156.070 7  87796433.53745  21440789.096
  21440776.3344         47.600          34.8004
 122634469.990 6  95559299.63544  23336560.770
  23336549.3564         41.800          27.7004
 127016330.895 6  98973698.98043  24170398.624
  24170387.7964         38.200          19.6004
 16  2 13  2 43 30.0000000  0 12G07G08G05G30G28G11G20G01G13G17G15G19
 113727648.088 7  88618969.90445  21641620.198
  21641607.1434         46.200          34.7004
 123235294.305 6  96027494.96143  23450878.910
  23450869.0204         40.000          22.3004
 133246722.065 5 103828574.34642  25356008.800
  25355998.8514         35.300          15.6004
 106863975.602 8  83270646.31646  20335518.921
  20335508.6214         50.500          41.2004
 108744680.103 7  84736079.17346  20693405.397
  20693391.8744         47.500          38.8004
 121431053.422 7  94621549.67843  23107559.731
  23107545.2694         42.800          23.6004
 130616733.520 5                  24855538.963
                        32.500
 129747816.865 5 101102150.28242  24690188.261
  24690179.8364         34.300          16.3004
 112627896.058 7  87761945.24245  21432366.713
  21432353.8334         47.600          35.1004
 122532072.678 7  95479509.56744  23317075.613
  23317063.4374         42.700          26.4004
 126932285.681 6  98908209.25443  24154405.764
  24154393.7644         37.900          19.6004
 132662302.720 5                  25244796.339
                        34.400
 16  2 13  2 44  0.0000000  0 12G07G08G05G30G28G11G20G01G13G17G15G19
 113798258.738 7  88673991.18745  21655056.680
  21655043.6834         46.000          34.4004
 123319325.915 6  96092974.12043  23466869.961
  23466859.5444         40.600          23.8004
 133331331.639 5 103894509.72442  25372109.424
  25372100.2374         34.900          16.3004
 106888982.483 8  83290132.20347  20340277.625
  20340267.2664         50.300          42.0004
 108727012.886 7  84722312.52146  20690044.117
  20690029.9494         47.900          39.1004
 121384308.741 6  94585125.28043  23098663.420
  23098649.9554         41.200          22.8004
 130661421.809 5                  24864043.949
                        33.400
 129665499.130 5 101038006.61042  24674521.690
  24674515.3764         33.600          16.3004
 112584214.887 7  87727907.98745  21424054.367
  21424042.1334         47.700          35.3004
 122429883.254 6  95399881.49044  23297629.132
  23297617.1324         41.300          26.0004
 126848597.804 6  98842997.99043  24138479.488
  24138468.5434         36.800          19.9004
                                  25221080.064
                        33.700
 16  2 13  2 44 30.0000000  0 12G07G08G05G30G28G11G20G01G13G17G15G19
 113869173.407 7  88729249.37945  21668551.670
  21668538.5564         45.600          35.3004
 123403706.012 6  96158724.86444  23482926.195
  23482916.5404         40.200          25.1004
 133416027.546 5 103960506.55542  25388225.814
  25388218.6794         33.700          16.3004
 106914382.398 8  83309924.35947  20345111.145
  20345100.4354         50.100          42.3004
 108709677.770 7  84708804.66546  20686744.991
  20686731.5854         47.500          38.8004
 121338064.767 6  94549091.03644  23089863.512
  23089850.1644         39.800          24.5004
 130706520.820 5                  24872625.280
                        32.300
 129583386.154 5 100974022.47742  24658897.585
  24658889.8054         34.700          15.6004
 112541100.811 7  87694312.62445  21415850.479
  21415837.4824         47.700          35.3004
 122327890.393 6  95320406.58844  23278219.521
  23278208.1074         41.800          26.8004
 126765256.029 6  98778056.42843  24122620.517
  24122608.5174         38.600          20.4004
 132413017.922 5                  25197360.233
                        32.900
 16  2 13  2 45  0.0000000  0 11G07G08G30G28G11G20G01G13G17G15G19
 113940401.780 7  88784752.01245  21682105.954
  21682092.6064         45.800          33.9004
 123488441.732 6  96224752.68344  23499051.510
  23499041.3854         40.900          24.7004
 106940185.471 8  83330030.66047  20350021.253
  20350010.9534         50.100          42.3004
 108692684.146 7  84695562.89146  20683511.230
  20683497.5884         47.500          38.9004
 121292333.624 6  94513456.38544  23081161.850
  23081147.8574         41.600          24.7004
 130752038.445 5                  24881286.747
                        31.600
 129501491.182 5 100910208.30942  24643312.093
  24643305.1344         34.400          16.9004
 112498565.696 8  87661168.39845  21407756.518
  21407743.4634         48.600          35.6004
 122226107.080 7  95241094.93344  23258851.731
  23258839.3794         42.800          28.1004
 126682272.848 6  98713394.29643  24106830.145
  24106818.0284         39.200          20.9004
 132288355.460 5                  25173638.423
                        33.200
 16  2 13  2 45 30.0000000  0 11G07G08G30G28G11G20G01G13G17G15G19
 114011940.312 7  88840496.32245  21695719.225
  21695706.2294         45.900          34.6004
 123573527.415 6  96291053.20443  23515241.324
  23515232.1964         39.500          23.5004
 106966389.006 8  83350449.01147  20355007.497
  20354997.3724         50.300          42.0004
 108676028.776 7  84682584.69946  20680341.679
  20680328.3904         47.500          39.2004
 121247114.909 6  94478221.03943  23072556.146
  23072542.6224         41.300          23.8004
 130797969.643 5                  24890025.333
                        30.500
 129419814.503 5 100846564.18442  24627767.853
  24627762.8864         34.700          16.9004
 112456608.517 8  87628474.51445  21399772.044
  21399759.2244         48.700          35.6004
 122124532.369 7  95161945.86444  23239522.579
  23239510.9314         42.400          26.9004
 126599647.993 6  98649011.35943  24091106.609
  24091095.1954         39.100          20.6004
 132163678.603 5                  25149912.110
                        33.200
 16  2 13  2 46  0.0000000  0 11G07G08G30G28G11G20G01G13G17G15G19
 114083787.977 7  88896481.51745  21709391.768
  21709378.5964         45.800          34.8004
 123658960.868 6  96357624.70243  23531499.486
  23531489.4794         39.800          22.8004
 106992992.663 8  83371179.14646  20360070.215
  20360059.6224         50.500          41.6004
 108659710.594 7  84669869.25246  20677236.597
  20677222.6044         47.000          39.1004
 121202410.400 6  94443386.38644  23064049.314
  23064036.0834         40.900          24.7004
 130844311.212 5                  24898846.066
                        31.300
 129338359.036 5 100783092.38342  24612267.266
  24612261.1854         34.600          17.8004
 112415230.528 8  87596231.94245  21391897.906
  21391884.9104         48.300          35.5004
 122023168.545 7  95082961.12344  23220235.013
  23220221.7824         43.700          28.1004
 126517383.241 6  98584909.00443  24075452.848
  24075440.2624         40.500          21.5004
 132038989.373 5                  25126184.685
                        31.800
 16  2 13  2 46 30.0000000  0 11G07G08G30G28G11G20G01G13G17G15G19
 114155944.801 7  88952707.60945  21723121.862
  21723109.6284         45.000          33.8004
 123744739.899 6  96424465.49043  23547822.092
  23547812.9054         39.200          22.2004
 107019997.330 8  83392221.75546  20365209.008
  20365198.7074         50.000          41.2004
 108643730.069 8  84657416.91246  20674195.556
  20674181.7394         48.100          39.4004
 121158223.143 6  94408954.76643  23055640.652
  23055627.4804         41.400          22.5004
 130891062.227 5                  24907740.478
                        30.500
 129257128.629 6 100719796.04542  24596813.442
  24596804.8414         37.300          16.9004
 112374434.286 8  87564442.68246  21384134.747
  21384121.6924         48.900          36.1004
 121922018.574 7  95004143.03244  23200986.267
  23200973.7404         42.800          29.0004
 126435482.056 6  98521089.93143  24059866.706
  24059854.5304         39.400          20.1004
 131914291.123 5                  25102456.447
                        32.500
 16  2 13  2 47  0.0000000  0 11G07G08G30G28G11G20G01G13G17G15G19
 114228409.030 7  89009173.24845  21736911.751
  21736898.8724         46.000          34.2004
 123830860.768 6  96491572.65743  23564210.763
  23564200.8144         38.400          22.6004
 107047402.053 8  83413576.09446  20370423.849
  20370413.4904         50.800          41.8004
 108628085.615 7  84645226.45346  20671218.728
  20671204.8534         47.600          39.0004
 121114554.665 6  94374927.39443  23047331.836
  23047317.6674         41.900          22.6004
 130938219.244 5                  24916715.385
                        31.800
 129176125.551 6 100656676.82642  24581396.581
  24581389.3284         36.000          16.9004
 112334220.682 8  87533107.42645  21376481.995
  21376469.2924         48.200          35.6004
 121821084.392 7  94925493.09044  23181778.359
  23181765.8904         42.200          29.3004
 126353945.688 6  98457555.15643  24044351.633
  24044339.2234         40.000          20.9004
 131789585.464 5 102693134.33542  25078725.219
  25078712.9854         32.500          16.3004
 16  2 13  2 47 30.0000000  0 11G07G08G30G28G11G20G01G13G17G15G19
 114301180.202 7  89065878.05445  21750759.417
  21750746.4214         45.600          34.3004
 123917321.290 6  96558944.49943  23580663.087
  23580653.4904         37.900          22.3004
 107075206.992 8  83435242.29047  20375715.622
  20375704.2664         50.800          42.0004
 108612776.576 7  84633297.34346  20668304.835
  20668291.6634         47.300          38.5004
 121071407.081 6  94341305.94543  23039119.475
  23039106.2444         41.300          23.4004
 130985780.094 5                  24925764.620
                        32.300
 129095352.990 6 100593737.24342  24566025.474
  24566018.7484         37.100          17.4004
 112294591.306 8  87502227.41745  21368940.983
  21368928.0454         48.700          35.5004
 121720368.342 7  94847013.09744  23162612.971
  23162600.2684         42.300          28.5004
 126272776.697 6  98394306.63843  24028903.836
  24028893.9464         40.200          22.2004
 131664875.238 5 102595957.56342  25054993.826
  25054981.9434         32.500          16.3004
 16  2 13  2 48  0.0000000  0 11G07G08G30G28G11G20G01G13G17G15G19
 114374257.353 7  89122821.29845  21764666.168
  21764652.8204         45.600          33.8004
 124004118.265 6  96626578.52643  23597180.090
  23597170.3764         37.600          22.2004
 107103411.808 8  83457220.07747  20381082.457
  20381071.4544         50.300          42.5004
 108597801.934 7  84621628.81646  20665455.568
  20665441.8104         47.300          39.3004
 121028782.406 6  94308091.93443  23031009.400
  23030995.0564         39.900          22.9004
 131033742.061 5                  24934893.022
                        32.900
 129014813.925 6 100530979.59942  24550701.107
  24550692.3314         36.800          16.9004
 112255547.683 7  87471803.82645  21361510.663
  21361498.1944         47.900          35.2004
 121619872.619 6  94768704.79844  23143488.149
  23143476.3254         41.000          26.9004
 126191977.493 6  98331346.29343  24013530.114
  24013518.9354         40.000          22.8004
 131540162.684 5 102498779.02842  25031261.008
  25031249.0664         34.200          16.9004
 16  2 13  2 48 30.0000000  0 11G07G08G30G28G11G20G01G13G17G15G19
 114447640.743 7  89180003.15745  21778630.004
  21778617.3014         46.000          33.3004
 124091250.142 6  96694473.49643  23613761.020
  23613750.6034         38.900          21.7004
 107132017.566 8  83479510.28746  20386526.065
  20386515.2954         50.800          41.6004
 108583162.340 7  84610221.35346  20662669.547
  20662656.2574         47.600          39.0004
 120986683.007 6  94275287.22843  23022997.047
  23022984.0514         40.700          22.5004
 131082103.863 5                  24944093.105
                        30.700
 128934512.373 5 100468407.00842  24535421.121
  24535411.8174         35.100          17.4004
 112217092.356 8  87441838.65045  21354193.001
  21354180.3564         48.300          35.6004
 121519600.530 7  94690570.78244  23124408.185
  23124395.5404         42.100          27.3004
 126111551.036 6  98268676.39843  23998225.334
  23998213.1584         40.800          22.6004
 131415451.010 5 102401601.21742  25007530.124
  25007518.3004         34.800          13.9004
 16  2 13  2 49  0.0000000  0 11G07G08G30G28G11G20G01G13G17G15G19
 114521329.366 7  89237422.86045  21792652.653
  21792640.0084         45.200          32.5004
 124178714.073 6  96762627.20043  23630404.618
  23630394.3764         39.200          21.8004
 107161024.103 8  83502112.80146  20392045.466
  20392034.8144         50.100          41.5004
 108568857.022 7  84599074.37146  20659947.201
  20659933.6774         46.900          39.2004
 120945111.115 6  94242893.56943  23015086.864
  23015072.6954         41.300          22.6004
 131130862.316 5                  24953373.759
                        32.000
 128854451.375 5 100406021.83542  24520183.550
  24520176.7664         33.500          17.4004
 112179226.741 7  87412332.99445  21346987.019
  21346974.9614         47.600          35.2004
 121419553.866 7  94612612.40744  23105369.118
  23105357.2934         42.700          27.8004
 126031499.895 6  98206298.95743  23982991.996
  23982980.2304         39.300          22.3004
 131290743.048 5 102304426.24442  24983799.930
  24983786.9934         35.100          17.4004
 16  2 13  2 49 30.0000000  0 11G07G08G30G28G11G20G01G13G17G15G19
 114595322.003 7  89295079.46345  21806732.388
  21806720.1544         45.000          33.2004
 124266507.213 6  96831037.47243  23647112.029
  23647100.8494         39.000          22.2004
 107190431.318 8  83525027.52547  20397641.376
  20397630.5484         50.500          42.3004
 108554885.245 7  84588187.28646  20657288.601
  20657275.1364         46.900          39.1004
 120904069.099 6  94210912.80243  23007276.142
  23007263.0874         39.900          23.3004
 131180015.561 5                  24962728.832
                        33.800
 128774633.961 5 100343826.49342  24504995.081
  24504987.7114         32.800          16.9004
 112141952.745 8  87383288.34246  21339895.208
  21339881.6854         48.400          36.4004
 121319735.369 7  94534831.84045  23086374.513
  23086362.6304         42.800          30.0004
 125951825.982 6  98144215.44943  23967830.181
  23967818.3574         39.700          21.8004
 131166040.996 5 102207255.82942  24960068.736
  24960056.2674         34.600          17.8004
 16  2 13  2 50  0.0000000  0 11G07G08G30G28G11G20G01G13G17G15G19
 114669618.671 7  89352972.96145  21820870.410
  21820858.1764         45.300          33.4004
 124354627.094 6  96899702.29643  23663881.720
  23663870.3644         38.100          22.6004
 107220239.161 8  83548254.43546  20403313.815
  20403302.9294         50.600          41.5004
 108541246.252 7  84577559.52046  20654693.382
  20654679.5074         46.600          38.6004
 120863558.717 6  94179346.26443  22999567.664
  22999553.8474         41.100          22.8004
 131229561.600 5                  24972155.828
                        31.900
 128695063.288 5 100281823.47142  24489852.163
  24489846.5524         31.800          15.6004
 112105271.332 8  87354705.43146  21332915.175
  21332901.5934         48.800          36.4004
 121220147.453 7  94457230.94845  23067424.555
  23067411.9694         43.800          30.4004
 125872531.715 6  98082427.78043  23952741.303
  23952728.8344         39.200          21.7004
 131041347.498 6 102110092.16542  24936340.831
  24936328.1274         36.200          14.8004
 16  2 13  2 50 30.0000000  0 11G07G08G30G28G11G20G01G13G17G15G19
 114744218.172 7  89411102.42345  21835067.274
  21835053.9264         45.400          33.6004
 124443071.125 6  96968619.69643  23680710.791
  23680700.7254         37.900          20.4004
 107250447.282 8  83571793.23847  20409061.854
  20409051.3194         50.500          42.2004
 108527939.198 7  84567190.39846  20652160.716
  20652147.2514         46.500          38.6004
 120823581.751 6  94148195.42443  22991959.955
  22991946.5484         40.300          22.9004
 131279497.216 5                  24981658.094
                        33.200
 128615742.126 5 100220014.83042  24474759.304
  24474752.0524         33.000          16.9004
 112069183.698 8  87326585.21746  21326047.552
  21326034.2624         48.300          36.1004
 121120791.938 7  94379811.12544  23048516.816
  23048504.8744         43.400          29.4004
 125793619.080 6  98020937.45243  23937723.713
  23937711.7134         39.200          21.8004
 130916664.700 5 102012936.80842  24912613.746
  24912601.9814         34.200          17.8004
 16  2 13  2 51  0.0000000  0 11G07G08G30G28G11G20G01G13G17G15G19
 114819120.804 7  89469468.12145  21849320.033
  21849307.5054         45.000          32.9004
 124531837.298 6  97037788.14943  23697602.707
  23697592.3484         38.500          21.5004
 107281056.866 8  83595644.86846  20414886.760
  20414876.2254         50.600          41.7004
 108514964.626 7  84557080.35646  20649691.758
  20649678.5864         47.200          38.9004
 120784141.270 6  94117462.59343  22984455.050
  22984441.6434         40.700          22.3004
 131329821.133 5                  24991233.428
                        30.300
 128536674.953 5 100158404.12642  24459714.459
  24459705.6834         34.000          16.9004
 112033692.611 8  87298929.84145  21319293.223
  21319280.3444         48.800          35.8004
 121021672.287 7  94302575.10644  23029654.868
  23029642.8684         43.000          29.3004
 125715091.742 6  97959747.34943  23922780.505
  23922768.7984         38.100          22.3004
 130791996.520 5 101915792.83942  24888890.681
  24888877.8024         35.600          16.9004
 16  2 13  2 51 30.0000000  0 11G07G08G30G28G11G20G01G13G17G15G19
 114894324.883 7  89528068.70245  21863631.080
  21863618.4364         45.100          33.3004
 124620922.184 6  97107204.94243  23714553.975
  23714544.4954         38.700          21.5004
 107312066.935 8  83619808.56047  20420787.706
  20420777.2884         50.500          42.1004
 108502320.712 7  84547227.97846  20647286.165
  20647272.7584         47.000          38.8004
 120745238.402 6  94087148.70743  22977052.260
  22977038.7374         41.200          22.9004
 131380530.029 5                  25000884.792
                        34.000
 128457863.861 5 100096992.95042  24444716.140
  24444708.8294         34.400          15.6004
 111998798.949 8  87271739.99546  21312653.136
  21312640.4334         48.200          36.0004
 120922790.463 7  94225524.40344  23010838.310
  23010826.3684         43.100          29.7004
 125636951.007 6  97898858.54643  23907911.751
  23907898.9314         38.100          22.2004
 130667344.664 5 101818661.56942  24865169.897
  24865157.3694         35.600          15.6004
 16  2 13  2 52  0.0000000  0 11G07G08G30G28G11G20G01G13G17G15G19
 114969829.253 7  89586903.26345  21877998.825
  21877986.6504         44.600          33.3004
 124710323.107 6  97176867.97343  23731567.264
  23731557.1394         36.900          20.4004
 107343477.346 8  83644284.21947  20426765.266
  20426754.5564         50.200          42.0004
 108490007.047 7  84537632.92446  20644942.850
  20644929.1504         46.800          38.5004
 120706874.950 6  94057255.12043  22969751.521
  22969738.6424         41.300          23.9004
 131431621.457 5                  25010607.712
                        31.300
 128379311.763 5 100035783.56643  24429769.326
  24429760.6084         35.200          18.3004
 111964504.106 8  87245016.76545  21306127.500
  21306114.6214         48.800          35.4004
 120824148.310 7  94148660.46244  22992066.749
  22992055.4524         42.900          29.3004
 125559199.451 6  97838272.99643  23893115.114
  23893103.4074         38.700          22.8004
 130542711.410 5 101721544.79542  24841453.487
  24841440.4914         35.800          15.6004
 16  2 13  2 52 30.0000000  0 11G07G08G30G28G11G20G01G13G17G15G19
 115045634.730 7  89645972.46345  21892424.211
  21892411.6254         45.100          32.0004
 124800038.829 6  97246776.35343  23748638.947
  23748629.2914         36.800          21.7004
 107375289.336 8  83669072.79147  20432819.089
  20432808.0854         49.700          42.4004
 108478024.492 7  84528295.87646  20642662.479
  20642648.4864         46.800          38.7004
 120669053.995 6  94027784.27643  22962555.011
  22962541.7214         41.300          22.9004
 131483083.332 5                  25020400.738
                        32.200
 128301023.222 5  99974779.52043  24414871.711
  24414862.5244         35.200          19.0004
 111930810.759 8  87218762.22346  21299715.726
  21299703.0234         48.600          36.0004
 120725749.565 7  94071986.17544  22973341.990
  22973330.5764         43.000          29.7004
 125481840.457 6  97777993.28843  23878394.630
  23878382.2784         38.800          22.6004
 130418100.724 5 101624445.65442  24817739.240
  24817727.0644         35.200          13.9004
 16  2 13  2 53  0.0000000  0 11G07G08G30G28G11G20G01G13G17G15G19
 115121743.911 7  89705278.31545  21906907.700
  21906895.0554         45.400          32.7004
 124890070.223 6  97316930.65143  23765770.791
  23765761.6634         36.000          20.4004
 107407506.275 8  83694176.91346  20438949.749
  20438938.6864         50.200          41.6004
 108466375.500 7  84519218.77246  20640445.621
  20640431.8634         46.700          38.3004
 120631781.359 6  93998740.67543  22955462.550
  22955448.8504         41.600          23.8004
                                  25030267.915
                        31.200
 128223004.736 5  99913985.97443  24400023.944
  24400015.0504         35.500          18.6004
 111897723.629 8  87192980.06346  21293419.560
  21293406.7404         48.800          36.6004
 120627599.898 7  93995505.97544  22954665.205
  22954653.1464         43.600          29.8004
 125404879.866 6  97718024.02543  23863748.304
  23863736.8314         39.200          22.6004
 130293518.899 5 101527368.97042  24794031.990
  24794019.6384         33.700          16.3004
 16  2 13  2 53 30.0000000  0 11G07G08G30G28G11G20G01G13G17G15G19
 115198141.370 7  89764808.81645  21921445.739
  21921432.9184         45.800          33.0004
 124980399.664 5  97387317.23543  23782961.031
  23782951.1994         35.800          21.1004
 107440113.559 8  83719585.19947  20445154.618
  20445143.6154         50.500          42.2004
 108455044.880 7  84510389.72846  20638289.446
  20638275.6294         46.500          38.8004
 120595044.348 6  93970114.47443  22948471.239
  22948457.7154         41.700          23.3004
 131587172.685 5                  25040206.731
                        32.500
 128145244.977 5  99853394.05343  24385226.216
  24385218.0254         35.500          18.6004
 111865229.808 8  87167660.21846  21287236.204
  21287222.7974         48.400          36.1004
 120529687.311 7  93919210.50944  22936032.917
  22936020.6244         43.900          29.2004
 125328305.143 6  97658355.47643  23849177.628
  23849165.4524         39.300          22.3004
 130168953.866 5 101430305.36242  24770330.352
  24770315.4214         35.200          17.4004
 16  2 13  2 54  0.0000000  0 11G07G08G30G28G11G20G01G13G17G15G19
 115274843.218 7  89824576.47645  21936041.509
  21936028.7474         45.500          32.4004
 125071041.816 6  97457947.46943  23800209.208
  23800200.1394         37.100          21.5004
 107473128.032 8  83745310.76846  20451437.145
  20451426.2004         50.000          41.3004
 108444048.871 7  84501821.42846  20636197.605
  20636183.7304         47.200          39.0004
 120558861.538 6  93941920.09243  22941585.460
  22941572.2294         41.500          23.2004
                                  25050215.091
                        32.500
 128067763.905 5  99793019.24943  24370481.881
  24370473.8664         34.800          18.3004
 111833347.419 8  87142816.81046  21281169.310
  21281156.0214         48.600          36.0004
 120432031.199 7  93843114.87844  22917449.183
  22917436.9484         43.800          29.9004
 125252135.989 6  97599002.95043  23834683.382
  23834670.7964         39.000          22.5004
 130044425.289 6 101333270.14842  24746633.258
  24746618.6214         36.500          16.9004
 16  2 13  2 54 30.0000000  0 11G07G08G30G28G11G20G01G13G17G15G19
 115351838.769 7  89884573.01045  21950692.705
  21950680.1194         44.900          32.7004
 125161983.755 6  97528811.28643  23817514.566
  23817505.9074         36.600          20.9004
 107506539.563 8  83771345.73646  20457794.734
  20457784.0824         50.200          41.7004
 108433376.718 7  84493505.47646  20634166.605
  20634152.7884         47.600          38.8004
 120523224.933 6  93914151.32243  22934804.696
  22934790.2344         41.000          22.2004
 131692739.120 5                  25060295.938
                        30.300
 127990554.551 6  99732856.20943  24355790.107
  24355781.3314         36.100          19.0004
 111802067.753 8  87118443.06346  21275216.410
  21275203.7074         48.100          36.5004
 120334623.598 7  93767212.90344  22898914.413
  22898901.3584         43.700          29.9004
 125176364.223 6  97539960.07043  23820264.828
  23820251.4804         39.600          22.6004
 129919925.264 5 101236257.21542  24722940.278
  24722927.5754         35.900          17.4004
 16  2 13  2 55  0.0000000  0 11G07G08G30G28G11G20G01G13G17G15G19
 115429131.976 7  89944801.47845  21965401.360
  21965388.9504         44.700          32.0004
 125253227.992 6  97599910.72943  23834878.550
  23834868.6014         36.900          21.5004
 107540352.774 8  83797693.69547  20464229.006
  20464218.7064         49.800          42.1004
 108423032.717 7  84485445.22346  20632197.523
  20632184.3514         46.400          39.2004
 120488140.753 7  93886813.02244  22928128.321
  22928114.0944         42.300          24.6004
 131746075.918 5                  25070445.741
                        32.800
 127913624.797 6  99672911.02343  24341150.037
  24341142.4914         36.300          19.0004
 111771396.898 7  87094543.71045  21269379.766
  21269367.1214         47.900          35.9004
 120237471.392 7  93691509.92745  22880425.883
  22880413.7074         43.400          31.0004
 125100996.933 6  97481232.36443  23805923.848
  23805910.2074         40.600          22.6004
 129795461.478 5 101139272.48542  24699255.399
  24699241.9344         35.900          17.8004
 16  2 13  2 55 30.0000000  0 11G07G08G30G28G11G20G01G13G17G15G19
 115506722.969 7  90005261.98345  21980166.351
  21980153.9994         43.700          31.9004
 125344772.823 6  97671244.34143  23852298.714
  23852288.8244         37.900          20.4004
 107574568.742 8  83824355.50346  20470740.087
  20470729.5524         50.400          41.8004
 108413017.280 7  84477641.00046  20630291.549
  20630278.0254         47.000          39.0004
 120453612.359 6  93859907.79143  22921558.282
  22921543.4694         41.900          22.9004
 131799780.681 5                  25080664.661
                        31.200
 127836978.940 6  99613187.04143  24326565.777
  24326556.7664         36.200          19.0004
 111741337.535 7  87071120.85146  21263659.759
  21263646.9974         47.600          36.0004
 120140578.354 7  93616008.91544  22861987.199
  22861975.5514         43.000          29.6004
 125026037.753 6  97422822.66544  23791658.444
  23791645.4474         40.800          24.4004
 129671037.822 6 101042319.06943  24675579.575
  24675565.3484         36.500          18.3004
 16  2 13  2 56  0.0000000  0 10G07G08G30G28G11G01G13G17G15G19
 115584606.439 7  90065950.39145  21994987.564
  21994974.6854         44.700          31.6004
 125436611.128 6  97742806.67143  23869774.967
  23869764.7254         37.500          20.1004
 107609182.902 8  83851327.58346  20477327.196
  20477316.4854         49.600          41.9004
 108403325.273 7  84470088.81646  20628447.459
  20628433.5834         47.800          39.2004
 120419636.890 6  93833433.41843  22915092.726
  22915078.5584         41.800          23.8004
 127760615.654 6  99553683.26943  24312033.610
  24312025.4784         36.600          20.1004
 111711886.424 8  87048171.95945  21258056.106
  21258042.4064         48.700          35.9004
 120043942.133 7  93540708.02345  22843598.112
  22843586.2304         42.900          31.0004
 124951484.414 6  97364729.19243  23777470.471
  23777458.5884         39.400          22.5004
 129546652.109 6 100945395.22443  24651908.143
  24651895.7324         36.600          18.6004
 16  2 13  2 56 30.0000000  0 10G07G08G30G28G11G01G13G17G15G19
 115662784.613 7  90126868.44545  22009864.828
  22009851.5974         45.100          31.4004
 125528742.999 6  97814597.73543  23887306.690
  23887296.7424         36.100          20.1004
 107644198.038 8  83878612.10347  20483990.133
  20483979.8334         49.800          42.2004
 108393959.063 7  84462790.48246  20626665.821
  20626651.7704         46.500          39.2004
 120386219.268 6  93807393.72643  22908732.643
  22908718.8264         41.500          22.9004
 127684540.793 6  99494404.25043  24297557.302
  24297549.3464         36.900          18.6004
 111683047.684 7  87025700.23046  21252568.185
  21252554.8964         47.500          36.3004
 119947568.299 7  93465611.58445  22825258.697
  22825246.8154         42.300          30.1004
 124877342.355 6  97306956.24143  23763360.720
  23763349.3064         37.900          21.7004
 129422310.108 6 100848505.39542  24628246.808
  24628233.5774         36.600          16.9004
 16  2 13  2 57  0.0000000  0 10G07G08G30G28G11G01G13G17G15G19
 115741256.819 7  90188015.61245  22024797.057
  22024784.1194         44.500          31.9004
 125621165.785 6  97886615.49643  23904893.841
  23904884.5964         37.300          20.6004
 107679613.972 8  83906208.94247  20490730.140
  20490719.0774         49.600          42.0004
 108384917.768 7  84455745.33446  20624945.359
  20624931.1904         46.700          39.2004
 120353361.056 7  93781789.94644  22902481.030
  22902466.6854         42.000          24.7004
 127608757.477 6  99435352.36643  24283136.341
  24283127.8584         36.600          19.0004
 111654822.775 7  87003706.81045  21247196.729
  21247183.7924         47.900          35.6004
 119851459.787 7  93390721.88645  22806971.137
  22806957.8474         43.700          31.4004
 124803613.177 6  97249505.00043  23749331.514
  23749318.8704         38.900          22.0004
 129298014.465 5 100751651.77643  24604593.312
  24604581.4884         35.700          18.3004
 16  2 13  2 57 30.0000000  0 10G07G08G30G28G11G01G13G17G15G19
 115820021.139 7  90249390.41045  22039785.673
  22039772.6764         44.700          32.4004
 125713876.033 6  97958857.24043  23922535.500
  23922526.8994         37.200          20.1004
 107715429.916 8  83934117.48246  20497545.913
  20497534.7344         49.900          41.5004
 108376200.270 7  84448952.48946  20623286.303
  20623272.3104         46.800          39.0004
 120321063.495 6  93756623.02444  22896334.536
  22896320.6604         41.500          24.8004
 127533268.173 5  99376529.57843  24268770.919
  24268763.3154         35.500          18.3004
 111627212.057 7  86982191.98945  21241942.430
  21241929.6684         47.700          35.9004
 119755616.732 7  93316039.03745  22788731.220
  22788719.7484         43.100          30.4004
 124730298.794 6  97192376.94044  23735379.926
  23735367.8094         40.100          24.4004
 129173767.022 6 100654835.62942  24580950.395
  24580937.5754         36.900          17.4004
 16  2 13  2 58  0.0000000  0 10G07G08G30G28G11G01G13G17G15G19
 115899076.649 7  90310992.10545  22054829.427
  22054816.3724         45.300          32.1004
 125806871.072 6  98031320.94043  23940233.449
  23940222.9734         37.200          20.1004
 107751645.422 8  83962337.36946  20504437.105
  20504426.4534         49.600          41.8004
 108367805.260 7  84442410.93546  20621688.783
  20621674.7324         47.300          38.9004
 120289327.765 6  93731893.88844  22890295.600
  22890281.6664         41.700          24.4004
 127458075.637 5  99317938.05942  24254461.730
  24254454.0684         35.000          17.8004
 111600216.535 7  86961156.52646  21236805.455
  21236792.3414         47.600          36.0004
 119660041.836 7  93241565.15744  22770543.909
  22770533.0234         43.100          29.9004
 124657401.216 6  97135573.67143  23721508.069
  23721495.6584         40.300          22.8004
 129049570.283 6 100558059.04042  24557317.295
  24557303.2434         36.600          16.9004
 16  2 13  2 58 30.0000000  0 10G07G08G30G28G11G01G13G17G15G19
 115978423.399 7  90372820.73945  22069928.948
  22069915.5414         44.700          33.0004
 125900149.215 6  98104005.19543  23957982.915
  23957973.0254         37.500          19.9004
 107788261.246 8  83990869.18947  20511405.268
  20511394.3234         50.400          42.0004
 108359733.212 7  84436121.04346  20620152.846
  20620138.4434         46.700          38.9004
 120258156.668 6  93707604.74543  22884363.493
  22884349.7354         41.400          23.6004
 127383183.752 6  99259580.82242  24240211.431
  24240201.6584         36.800          17.8004
 111573838.229 7  86940602.03145  21231785.538
  21231772.5424         47.900          35.6004
 119564738.356 7  93167302.76945  22752408.615
  22752397.3774         43.700          30.7004
 124584923.388 6  97079097.47343  23707715.794
  23707703.6194         39.500          23.0004
 128925427.550 6 100461324.53943  24533693.056
  24533679.8254         36.300          18.6004
 16  2 13  2 59  0.0000000  0 10G07G08G30G28G11G01G13G17G15G19
 116058058.917 7  90434874.38745  22085083.168
  22085069.7614         44.700          32.5004
 125993706.716 6  98176907.11343  23975787.094
  23975777.1454         37.800          20.1004
 107825276.005 8  84019711.86346  20518448.469
  20518437.8174         49.500          41.0004
 108351981.986 7  84430081.13746  20618677.440
  20618663.6824         46.300          38.8004
 120227550.728 6  93683755.97443  22878538.072
  22878525.6614         40.400          22.6004
 127308594.537 6  99201459.40442  24226017.866
  24226008.1514         36.000          17.4004
 111548077.088 7  86920528.43245  21226884.091
  21226870.5674         47.800          35.9004
 119469707.301 7  93093252.66545  22734324.694
  22734313.2804         44.700          31.2004
 124512866.578 6  97022949.36044  23694004.588
  23693991.4744         39.400          24.7004
 128801340.372 5 100364633.25942  24510079.508
  24510065.7504         34.900          16.9004
 16  2 13  2 59 30.0000000  0 10G07G08G30G28G11G01G13G17G15G19
 116137984.025 7  90497153.69845  22100292.224
  22100278.7004         43.500          32.3004
 126087541.889 6  98250025.42243  23993644.167
  23993633.1644         37.700          20.6004
 107862690.811 8  84048866.26746  20525568.155
  20525557.4444         48.800          41.6004
 108344552.053 7  84424291.58746  20617263.491
  20617249.9674         46.400          38.7004
 120197512.358 6  93660349.48343  22872822.265
  22872809.2684         40.800          23.8004
 127234312.161 5  99143577.10343  24211880.719
  24211873.2914         35.800          19.0004
 111522935.700 7  86900937.75346  21222099.634
  21222085.9344         46.200          36.0004
 119374952.058 7  93019417.46345  22716293.815
  22716281.5224         44.800          31.2004
 124441234.068 6  96967131.89744  23680373.202
  23680360.6754         40.700          25.3004
 128677312.819 5 100267988.54343  24486478.892
  24486464.8414         35.800          18.3004
 16  2 13  3  0  0.0000000  0 10G07G08G30G28G11G01G13G17G15G19
 116218200.276 7  90559659.86445  22115556.404
  22115543.6424         43.700          31.6004
 126181654.658 6  98323360.02343  24011552.175
  24011542.9884         37.400          21.3004
 107900507.838 8  84078334.09146  20532763.910
  20532753.9034         49.500          41.8004
 108337445.393 7  84418753.94146  20615911.052
  20615897.2354         46.800          38.8004
 120168045.731 6  93637388.49843  22867215.002
  22867202.2414         40.600          23.3004
 127160342.187 5  99085938.20743  24197806.858
  24197796.4404         35.100          18.6004
 111498417.281 7  86881832.50746  21217434.473
  21217420.4224         47.600          36.2004
 119280477.763 7  92945801.15645  22698315.630
  22698303.4544         44.500          30.7004
 124370030.470 6  96911648.60243  23666823.455
  23666811.1044         39.000          22.9004
 128553349.497 5 100171393.83843  24462888.349
  24462876.1144         35.900          18.6004
 16  2 13  3  0 30.0000000  0 10G07G08G30G28G11G01G13G17G15G19
 116298698.015 7  90622385.37745  22130875.044
  22130861.9304         43.200          32.1004
 126276033.555 6  98396902.03343  24029511.036
  24029501.9664         37.200          19.9004
 107938718.414 8  84108108.56746  20540035.562
  20540025.1454         49.300          41.9004
 108330652.844 7  84413461.05746  20614618.382
  20614604.7414         46.700          38.8004
 120139144.497 6  93614868.05943  22861715.763
  22861702.4744         41.600          22.2004
 127086679.008 5  99028538.36842  24183788.389
  24183779.4374         34.900          17.4004
 111474514.575 7  86863207.04346  21212885.655
  21212871.6034         47.500          36.5004
 119186277.850 7  92872398.68745  22680389.458
  22680377.9274         43.900          31.8004
 124299249.433 6  96856494.61444  23653354.659
  23653342.1324         39.200          24.0004
 128429445.015 6 100074844.95043  24439309.379
  24439297.4374         36.000          19.0004
 16  2 13  3  1  0.0000000  0 10G07G08G30G28G11G01G13G17G15G19
 116379486.022 7  90685337.05645  22146249.396
  22146235.3444         44.300          31.9004
 126370685.639 6  98470656.87243  24047522.601
  24047513.7074         36.400          19.9004
 107977331.672 8  84138196.81346  20547382.783
  20547373.0694         49.600          41.6004
 108324183.052 7  84408419.68646  20613387.188
  20613373.5474         46.100          38.6004
 120110818.967 6  93592796.22943  22856326.501
  22856312.6264         41.700          22.5004
 127013335.188 5  98971387.45342  24169829.959
  24169822.7064         34.300          16.9004
 111451237.917 7  86845069.40046  21208455.318
  21208442.7314         47.500          36.4004
 119092364.170 7  92799219.25845  22662518.260
  22662506.7874         43.700          31.3004
 124228902.742 6  96801679.04543  23639967.825
  23639955.5904         39.600          23.6004
 128305611.407 6  99978351.29843  24415745.655
  24415732.6004         36.000          18.6004
 16  2 13  3  1 30.0000000  0 10G07G08G30G28G11G01G13G17G15G19
 116460559.587 7  90748511.25845  22161676.658
  22161663.6034         43.900          31.2004
 126465604.851 6  98544619.86143  24065586.179
  24065576.4654         36.600          20.6004
 108016344.062 8  84168596.08746  20554807.305
  20554796.8874         50.200          41.7004
 108318031.572 7  84403626.33846  20612216.312
  20612203.0814         45.600          39.2004
 120083067.717 6  93571171.91943  22851045.291
  22851031.0644         40.600          22.8004
 126940310.253 5  98914484.93342  24155933.807
  24155926.2034         34.000          16.9004
 111428585.305 7  86827418.03046  21204145.000
  21204132.4734         47.500          36.1004
 118998735.037 7  92726261.54145  22644701.553
  22644689.8464         44.300          31.5004
 124158988.765 6  96747200.66343  23626662.618
  23626650.9704         39.300          23.3004
 128181847.647 6  99881912.09243  24392194.682
  24392181.2164         36.900          19.6004
 16  2 13  3  2  0.0000000  0 10G07G08G30G28G11G01G13G17G15G19
 116541917.221 7  90811906.82545  22177157.759
  22177144.8804         43.200          30.7004
 126560787.547 6  98618788.20243  24083698.510
  24083689.1474         37.500          19.9004
 108055754.388 8  84199305.43646  20562306.738
  20562296.5554         50.000          41.7004
 108312197.162 7  84399080.06646  20611106.099
  20611092.3994         45.800          38.7004
 120055891.117 6  93549995.34643  22845873.463
  22845859.5294         41.100          22.6004
 126867606.376 5  98857832.63242  24142098.531
  24142090.9274         35.100          16.9004
 111406556.690 8  86810252.89146  21199952.810
  21199939.9904         48.200          36.6004
 118905392.138 7  92653526.86445  22626939.426
  22626927.4844         44.500          32.9004
 124089508.935 6  96693060.57543  23613441.994
  23613429.8184         39.900          22.8004
 128058155.575 6  99785528.72543  24368657.013
  24368644.2514         36.400          18.3004
 16  2 13  3  2 30.0000000  0 10G07G08G30G28G11G01G13G17G15G19
 116623558.557 7  90875523.44445  22192693.313
  22192680.4934         44.100          30.4004
 126656231.835 6  98693160.41743  24101861.492
  24101851.7784         36.700          20.4004
 108095563.141 8  84230325.25446  20569882.045
  20569871.8624         50.400          41.3004
 108306679.374 7  84394780.51046  20610056.414
  20610043.0074         45.900          38.8004
 120029291.303 6  93529268.24443  22840811.651
  22840797.4244         40.900          22.5004
 126795227.197 5  98801433.30243  24128325.235
  24128317.1034         35.000          18.6004
 111385153.278 8  86793574.91646  21195880.087
  21195866.6814         48.200          36.7004
 118812338.325 7  92581017.44345  22609231.685
  22609219.4514         44.900          32.5004
 124020466.121 6  96639261.02844  23600303.033
  23600291.5024         40.000          24.9004
 127934538.759 6  99689203.99643  24345131.968
  24345120.0854         36.000          18.3004
 16  2 13  3  3  0.0000000  0 10G07G08G30G28G11G01G13G17G15G19
 116705483.541 7  90939361.08645  22208283.174
  22208270.2954         44.100          30.4004
 126751935.565 6  98767734.73443  24120073.332
  24120063.5604         37.300          20.1004
 108135770.977 8  84261656.04446  20577533.474
  20577522.7054         50.100          41.6004
 108301478.791 7  84390728.12446  20609066.608
  20609052.9674         46.300          39.0004
 120003270.902 6  93508992.62843  22835859.800
  22835845.9834         41.400          22.0004
 126723176.689 5  98745290.11343  24114616.670
  24114606.7804         34.800          18.3004
 111364377.095 8  86777385.70146  21191926.424
  21191913.8964         48.700          36.4004
 118719576.702 7  92508735.70245  22591579.412
  22591567.4124         44.400          32.7004
 123951863.362 6  96585804.40244  23587247.692
  23587236.3954         39.900          25.6004
 127811000.400 6  99592940.38943  24321624.009
  24321611.0134         36.600          19.6004
 16  2 13  3  3 30.0000000  0 10G07G08G30G28G11G01G13G17G15G19
 116787690.684 7  91003418.59145  22223927.551
  22223914.0864         45.000          31.3004
 126847895.730 6  98842508.88443  24138333.846
  24138323.6054         38.100          19.9004
 108176377.002 8  84293297.11546  20585260.614
  20585250.1384         49.400          41.3004
 108296593.585 7  84386921.47846  20608136.939
  20608123.3564         45.800          38.7004
 119977830.427 6  93489168.89443  22831017.761
  22831005.3514         40.900          22.5004
 126651457.170 5  98689404.80643  24100969.016
  24100959.0674         35.700          19.0004
 111344228.688 8  86761685.64746  21188092.182
  21188079.2454         48.200          36.5004
 118627108.897 7  92436682.91045  22573983.734
  22573971.6174         44.700          33.2004
 123883701.915 6  96532691.64644  23574277.372
  23574265.3134         40.300          25.3004
 127687542.727 6  99496739.68843  24298132.173
  24298117.5354         38.000          19.6004
 16  2 13  3  4  0.0000000  0 10G07G08G30G28G11G01G13G17G15G19
 116870179.219 7  91067695.35945  22239623.744
  22239611.1584         44.100          31.3004
 126944110.201 6  98917481.19643  24156642.790
  24156632.3734         37.700          19.9004
 108217381.203 8  84325248.45146  20593063.108
  20593052.5734         49.900          41.2004
 108292023.814 7  84383360.63346  20607267.570
  20607253.3434         45.600          38.3004
 119952971.807 6  93469798.55743  22826287.262
  22826274.5594         41.400          23.6004
 126580071.889 5  98633779.92943  24087382.538
  24087374.1724         35.100          19.9004
 111324709.116 8  86746475.59946  21184377.973
  21184364.8594         48.700          36.9004
 118534937.371 7  92364861.00445  22556443.943
  22556431.7084         44.900          32.7004
 123815984.316 6  96479924.70644  23561391.305
  23561379.5984         40.400          24.1004
 127564168.556 6  99400604.03743  24274653.884
  24274639.5984         36.700          19.6004
 16  2 13  3  4 30.0000000  0 10G07G08G30G28G11G01G13G17G15G19
 116952948.263 7  91132190.71745  22255374.349
  22255361.9974         44.400          30.7004
 127040576.165 6  98992649.50443  24174998.349
  24174989.3964         36.100          19.3004
 108258783.487 8  84357509.97146  20600941.743
  20600931.3254         49.800          40.6004
 108287768.567 7  84380044.86046  20606457.719
  20606443.8444         44.700          38.3004
 119928696.534 6  93450882.78044  22821669.037
  22821655.4544         41.600          24.3004
 126509024.024 5  98578417.99543  24073862.557
  24073854.0744         34.900          19.3004
 111305819.485 8  86731756.41846  21180783.312
  21180770.3744         48.800          36.5004
 118443064.567 7  92293271.85345  22538961.095
  22538948.7434         44.400          31.2004
 123748712.850 6  96427505.43444  23548589.640
  23548578.2264         40.000          24.7004
 127440880.805 6  99304535.71643  24251191.986
  24251178.9314         36.400          20.1004
 16  2 13  3  5  0.0000000  0 10G07G08G30G28G11G01G13G17G15G19
 117035997.634 7  91196904.49545  22271178.235
  22271165.4734         44.500          31.4004
 127137291.851 6  99068012.35743  24193403.053
  24193393.8664         37.900          19.0004
 108300584.156 8  84390081.93046  20608895.813
  20608885.9234         49.500          41.4004
 108283827.909 7  84376974.23246  20605707.675
  20605694.1514         45.300          38.7004
 119905006.552 7  93432423.06943  22817161.304
  22817147.3124         42.400          22.6004
 126438317.033 5  98523321.66843  24060407.512
  24060399.7914         34.600          19.0004
 111287561.433 8  86717529.38346  21177309.396
  21177295.6964         48.800          36.7004
 118351493.326 7  92221917.69245  22521534.756
  22521522.9904         43.800          32.1004
 123681890.199 6  96375435.88344  23535873.791
  23535862.2604         40.500          25.6004
 127317682.678 6  99208537.18343  24227748.440
  24227734.6234         36.300          20.4004
 16  2 13  3  5 30.0000000  0 10G07G08G30G28G11G01G13G17G15G19
 117119325.183 7  91261835.04345  22287035.106
  22287022.2854         43.800          30.5004
 127234253.567 6  99143566.94943  24211855.057
  24211845.4014         37.900          19.3004
 108342782.276 8  84422963.57746  20616926.197
  20616915.5454         49.700          41.1004
 108280200.276 7  84374147.52746  20605017.233
  20605003.8274         44.500          38.6004
 119881902.513 7  93414419.94843  22812764.505
  22812750.5124         42.200          22.6004
 126367953.352 5  98468492.82543  24047017.816
  24047009.5674         34.900          19.3004
 111269934.934 8  86703794.46046  21173955.233
  21173941.8264         49.900          36.5004
 118260225.017 7  92150799.58345  22504166.345
  22504155.4004         43.300          31.1004
 123615517.617 6  96323717.03844  23523244.529
  23523231.8264         40.700          25.6004
 127194576.243 5  99112610.17543  24204321.637
  24204308.4064         35.500          19.6004
 16  2 13  3  6  0.0000000  0 10G07G08G30G28G11G01G13G17G15G19
 117202930.868 7  91326982.31645  22302945.247
  22302931.3124         44.200          30.8004
 127331458.978 6  99219311.36843  24230352.259
  24230343.0144         37.300          18.3004
 108385377.645 8  84456154.78446  20625031.896
  20625021.0104         50.300          40.8004
 108276884.943 7  84371564.16446  20604386.257
  20604372.8504         45.600          38.9004
 119859386.026 7  93396874.65643  22808479.704
  22808465.7114         42.200          22.9004
 126297936.018 5  98413933.91843  24033693.727
  24033685.5374         35.500          19.6004
 111252940.779 8  86690552.27246  21170721.366
  21170707.9604         48.800          37.2004
 118169261.871 7  92079919.24945  22486857.904
  22486845.6114         43.900          32.8004
 123549597.419 6  96272350.67244  23510699.831
  23510687.5974         40.500          27.2004
 127071564.354 5  99016756.83443  24180913.427
  24180900.3134         35.500          19.3004
 16  2 13  3  6 30.0000000  0 10G07G08G30G28G11G01G13G17G15G19
 117286813.402 7  91392345.31745  22318906.805
  22318894.2194         44.300          30.1004
 127428905.377 6  99295243.64442  24248896.888
  24248886.1774         37.200          17.8004
 108428369.850 8  84489655.20746  20633213.120
  20633202.5274         50.300          40.6004
 108273881.295 7  84369223.68946  20603814.922
  20603801.2224         45.800          38.4004
 119837458.074 7  93379787.93844  22804307.387
  22804292.6914         43.000          24.4004
 126228267.797 6  98359647.02443  24020437.004
  24020428.9894         36.100          18.3004
 111236579.597 8  86677803.30446  21167608.009
  21167594.4274         48.900          37.0004
 118078606.011 7  92009278.36945  22469607.195
  22469594.3744         43.900          33.2004
 123484131.319 6  96221338.15444  23498242.110
  23498229.5824         40.400          24.7004
 126948649.513 6  98920979.11243  24157525.188
  24157509.6714         36.600          19.9004
 16  2 13  3  7  0.0000000  0 10G07G08G30G28G11G01G13G17G15G19
 117370971.649 7  91457923.17745  22334921.668
  22334908.4384         44.100          30.0004
 127526590.022 6  99371361.51743  24267486.973
  24267474.3874         37.900          19.6004
 108471758.682 8  84523464.69246  20641469.988
  20641458.9844         49.800          40.6004
 108271188.606 7  84367125.49946  20603302.218
  20603288.6354         45.000          39.0004
 119816120.260 7  93363161.09144  22800246.840
  22800232.4954         43.000          24.9004
 126158951.806 6  98305634.63843  24007246.978
  24007237.7914         36.200          19.3004
 111220852.263 8  86665548.25246  21164614.968
  21164601.2104         49.200          37.0004
 117988260.255 7  91938879.13445  22452414.020
  22452401.9034         44.600          33.5004
 123419121.775 6  96170681.44444  23485870.807
  23485858.4554         39.800          24.8004
 126825834.469 6  98825279.15243  24134152.358
  24134138.3664         37.100          20.1004
 16  2 13  3  7 30.0000000  0 10G07G08G30G28G11G01G13G17G15G19
 117455404.142 7  91523714.71245  22350988.350
  22350975.5294         43.000          30.0004
 127624510.186 6  99447662.94843  24286119.176
  24286108.4654         38.200          19.9004
 108515543.283 8  84557582.56746  20649801.743
  20649790.6804         50.000          41.0004
 108268805.272 7  84365268.35946  20602849.115
  20602835.1814         45.600          38.6004
 119795373.159 7  93346994.52044  22796298.558
  22796284.3894         42.600          25.6004
 126089990.443 6  98251898.55543  23994124.719
  23994114.4194         36.800          18.6004
 111205759.424 8  86653787.60546  21161742.874
  21161729.3504         48.900          36.3004
 117898225.592 7  91868722.31645  22435281.586
  22435269.0584         44.600          32.7004
 123354570.024 6  96120381.39344  23473586.882
  23473574.4134         40.500          25.8004
 126703121.488 6  98729658.70843  24110801.335
  24110786.8154         36.700          21.3004
 16  2 13  3  8  0.0000000  0 10G07G08G30G28G11G01G13G17G15G19
 117540110.133 7  91589719.36745  22367107.848
  22367094.9114         43.700          30.5004
 127722663.270 6  99524145.83543  24304795.721
  24304787.5314         37.200          19.3004
 108559723.721 8  84592008.88446  20658208.717
  20658198.1234         50.000          41.2004
 108266731.280 7  84363652.27646  20602454.352
  20602440.8864         44.900          38.5004
 119775217.785 7  93331289.03943  22792462.853
  22792449.6224         42.400          23.9004
 126021386.945 6  98198441.35742  23981067.989
  23981059.0954         37.100          17.4004
 111191301.781 8  86642521.92046  21158991.745
  21158978.2804         48.700          36.7004
 117808504.196 7  91798809.60245  22418208.168
  22418195.6414         45.800          32.5004
 123290478.540 6  96070440.03144  23461390.461
  23461378.4614         39.300          24.9004
 126580513.561 6  98634120.07943  24087469.561
  24087455.9204         37.600          20.1004
 16  2 13  3  8 30.0000000  0 10G07G08G30G28G11G01G13G17G15G19
 117625089.620 7  91655937.12745  22383278.813
  22383266.3444         42.800          30.2004
 127821047.624 6  99600808.94543  24323519.320
  24323509.8404         38.200          18.6004
 108604300.491 8  84626744.03446  20666691.484
  20666680.8914         49.900          41.0004
 108264966.736 7  84362277.32546  20602117.955
  20602104.7834         44.600          38.4004
 119755657.328 7  93316047.13944  22788740.900
  22788727.4934         42.600          25.6004
 125953145.145 6  98145265.95542  23968083.253
  23968073.1294         37.900          17.8004
 111177481.128 8  86631752.58946  21156361.833
  21156348.3094         48.800          36.8004
 117719099.762 7  91729143.84845  22401195.224
  22401181.9354         45.900          33.4004
 123226850.097 6  96020859.45744  23449281.720
  23449270.0714         40.100          26.5004
 126458014.067 6  98538665.98943  24064158.497
  24064144.8564         38.200          20.9004
 16  2 13  3  9  0.0000000  0 10G07G08G30G28G11G01G13G17G15G19
 117710341.951 7  91722367.50245  22399503.136
  22399488.6754         44.600          31.1004
 127919660.631 6  99677650.30343  24342284.556
  24342274.5484         37.600          19.0004
 108649273.741 8  84661788.12646  20675249.361
  20675239.1784         49.800          40.8004
 108263511.056 7  84361143.04446  20601841.560
  20601828.0364         45.800          39.1004
 119736692.764 7  93301269.57344  22785132.085
  22785118.3854         42.700          25.0004
 125885268.365 6  98092374.95842  23955165.872
  23955157.2714         36.200          17.4004
 111164298.439 8  86621480.37546  21153852.560
  21153839.7394         48.500          36.5004
 117630015.006 7  91659727.19045  22384242.295
  22384230.0024         44.600          33.1004
 123163687.040 6  95971641.53044  23437262.315
  23437251.0774         40.100          26.0004
 126335626.000 6  98443298.73043  24040868.583
  24040855.2934         36.900          20.4004
 16  2 13  3  9 30.0000000  0 10G07G08G30G28G11G01G13G17G15G19
 117795865.554 7  91789009.27145  22415776.428
  22415763.2564         43.000          30.6004
 128018499.695 6  99754667.74943  24361091.544
  24361082.0644         36.200          19.0004
 108694642.336 8  84697140.27946  20683883.125
  20683872.6494         49.200          40.2004
 108262363.004 7  84360248.47246  20601622.770
  20601609.1874         45.600          39.4004
 119718324.682 7  93286956.79244  22781636.033
  22781622.8024         42.200          26.1004
 125817758.813 6  98039770.17743  23942319.525
  23942310.3384         36.800          19.0004
 111151753.277 7  86611704.93746  21151466.094
  21151452.6294         47.800          36.8004
 117541250.875 7  91590560.35845  22367350.971
  22367338.7964         44.500          33.5004
 123100991.013 6  95922787.54544  23425332.737
  23425319.9754         40.400          26.5004
 126213351.941 6  98348020.31443  24017600.214
  24017587.6284         36.900          20.6004
 16  2 13  3 10  0.0000000  0 10G07G08G30G28G11G01G13G17G15G19
 117881659.236 7  91855861.47444  22432103.252
  22432089.0834         43.400          29.2004
 128117561.585 6  99831858.82543  24379943.226
  24379933.7464         37.400          19.6004
 108740405.703 8  84732800.05446  20692591.427
  20692580.8344         48.400          40.5004
 108261521.671 7  84359592.89846  20601462.388
  20601449.2744         44.900          38.6004
 119700553.878 6  93273109.43444  22778254.811
  22778240.7594         41.800          24.9004
 125750619.197 6  97987453.66743  23929543.140
  23929534.8914         36.000          19.3004
 111139846.316 7  86602426.79946  21149199.647
  21149186.8274         47.600          37.0004
 117452809.248 7  91521644.85545  22350521.182
  22350509.0064         45.500          33.7004
 123038763.553 6  95874298.65144  23413490.416
  23413478.8854         39.900          26.5004
 126091194.371 6  98252832.67343  23994353.891
  23994341.4814         36.900          21.1004
 16  2 13  3 10 30.0000000  0 10G07G08G30G28G11G01G13G17G15G19
 117967722.523 7  91922923.76244  22448479.211
  22448467.1524         42.700          29.8004
 128216844.211 6  99909221.88642  24398837.260
  24398826.5494         36.800          17.8004
 108786564.227 8  84768767.73446  20701375.096
  20701364.5624         49.100          40.8004
 108260986.942 7  84359176.23346  20601361.444
  20601347.4524         45.700          39.2004
 119683382.504 7  93259729.14044  22774987.828
  22774972.8394         43.600          24.3004
 125683853.187 6  97935428.24943  23916838.754
  23916829.2744         36.900          19.3004
 111128579.120 7  86593647.17946  21147055.985
  21147043.1064         47.900          37.3004
 117364692.999 7  91452982.89945  22333753.897
  22333741.0174         45.200          34.2004
 122977007.402 6  95826176.99744  23401739.660
  23401726.4884         41.100          25.3004
 125969156.113 6  98157737.95343  23971132.984
  23971118.1124         38.400          21.3004
 16  2 13  3 11  0.0000000  0 10G07G08G30G28G11G01G13G17G15G19
 118054053.004 7  91990194.25345  22464907.313
  22464895.1964         43.400          30.4004
 128316344.276 6  99986754.44343  24417770.058
  24417760.1094         36.000          18.6004
 108833116.297 8  84805042.08046  20710233.907
  20710222.8454         49.400          40.5004
 108260756.641 7  84358996.79946  20601317.016
  20601303.9024         45.700          38.3004
 119666810.215 7  93246815.67644  22771833.859
  22771819.5154         42.000          24.9004
 125617462.154 6  97883695.02942  23904204.742
  23904195.3794         37.400          17.8004
 111117950.544 8  86585365.17246  21145033.245
  21145019.9564         48.200          37.0004
 117276903.164 7  91384575.27945  22317047.579
  22317035.1104         45.400          34.6004
 122915723.326 6  95778423.20244  23390077.071
  23390064.8954         40.700          26.5004
 125847238.916 6  98062737.60443  23947932.341
  23947918.1144         37.200          20.4004
 16  2 13  3 11 30.0000000  0 10G07G08G30G28G11G01G13G17G15G19
 118140650.982 7  92057673.18844  22481387.114
  22481374.3524         42.200          29.2004
 128416059.777 6 100064454.80643  24436745.341
  24436735.2754         37.300          19.6004
 108880062.509 8  84841623.54246  20719167.542
  20719156.4804         48.600          40.1004
 108260830.921 7  84359054.68546  20601331.573
  20601317.8154         46.000          38.9004
 119650839.076 7  93234370.64244  22768794.560
  22768780.2164         42.300          25.1004
 125551450.229 6  97832257.19543  23891642.956
  23891633.9464         36.400          20.1004
 111107962.398 7  86577582.22246  21143132.572
  21143119.3414         47.800          36.8004
 117189442.967 7  91316424.51445  22300403.606
  22300391.8994         45.600          34.0004
 122854914.048 6  95731039.39644  23378505.000
  23378493.4114         41.300          26.0004
 125725446.592 6  97967834.50243  23924756.216
  23924741.8714         38.300          22.2004
 16  2 13  3 12  0.0000000  0 10G07G08G30G28G11G01G13G17G15G19
 118227515.254 7  92125359.59844  22497917.050
  22497904.3474         42.300          29.3004
 128515988.196 6 100142321.09643  24455761.203
  24455750.9024         37.500          18.6004
 108927402.508 8  84878511.85346  20728176.131
  20728165.1274         49.700          40.5004
 108261209.428 7  84359349.63046  20601403.627
  20601390.2794         45.900          38.9004
 119635469.784 7  93222394.57744  22765869.226
  22765855.8194         42.800          25.0004
 125485820.191 6  97781116.96643  23879153.969
  23879144.4894         37.000          20.4004
 111098615.140 8  86570298.64846  21141353.297
  21141340.4184         48.200          36.2004
 117102314.235 7  91248532.04345  22283823.658
  22283811.6584         45.400          33.6004
 122794581.473 6  95684027.03944  23367025.040
  23367012.4544         40.500          27.3004
 125603781.711 6  97873030.76443  23901604.726
  23901590.0304         38.800          22.2004
 16  2 13  3 12 30.0000000  0 10G07G08G30G28G11G01G13G17G15G19
 118314645.397 6  92193253.23644  22514497.184
  22514483.8364         41.800          28.1004
 128616127.616 6 100220351.75543  24474817.437
  24474807.2544         36.900          18.3004
 108975136.399 8  84915707.10346  20737259.546
  20737248.4844         49.600          40.3004
 108261891.760 7  84359881.32646  20601533.444
  20601519.7444         45.700          39.0004
 119620704.065 6  93210888.84444  22763059.696
  22763046.0554         41.600          25.6004
 125420575.455 6  97730276.90043  23866738.076
  23866729.1244         36.400          19.6004
 111089909.983 8  86563515.40946  21139696.908
  21139683.9124         48.300          36.1004
 117015519.742 7  91180900.02645  22267307.707
  22267294.7694         44.900          34.4004
 122734728.152 6  95637388.12444  23355634.974
  23355622.9744         41.100          25.6004
 125482247.737 6  97778329.01343  23878476.853
  23878463.2124         38.600          22.5004
 16  2 13  3 13  0.0000000  0 10G07G08G30G28G11G01G13G17G15G19
 118402039.689 7  92261352.66144  22531127.651
  22531115.1824         42.100          27.7004
 128716474.638 6 100298544.25743  24493912.254
  24493902.1884         36.700          18.3004
 109023263.192 8  84953208.50746  20746417.613
  20746406.7854         48.800          40.8004
 108262876.506 7  84360648.66546  20601720.546
  20601707.3744         45.900          39.5004
 119606542.751 7  93199854.07744  22760365.820
  22760351.3594         42.600          25.3004
 125355718.213 6  97679738.78843  23854397.385
  23854386.5574         36.300          18.3004
 111081846.954 8  86557232.54646  21138162.777
  21138149.7814         48.000          37.0004
 116929060.838 7  91113529.50045  22250855.144
  22250842.3234         44.400          33.6004
 122675355.392 6  95591123.65744  23344336.640
  23344324.1714         41.200          24.8004
 125360846.517 6  97683730.70343  23855373.734
  23855361.2654         36.800          21.7004
 16  2 13  3 13 30.0000000  0 10G07G08G30G28G11G01G13G17G15G19
 118489700.770 6  92329659.99244  22547808.881
  22547795.7674         41.600          27.9004
 128817030.618 6 100376899.57842  24513047.328
  24513037.9074         36.700          17.4004
 109071786.309 8  84991018.72346  20755651.313
  20755640.4854         48.600          40.4004
 108264166.826 7  84361654.11846  20601965.610
  20601952.8484         46.400          38.8004
 119592990.222 7  93189293.67244  22757786.265
  22757772.0384         42.600          25.9004
 125291255.148 5  97629507.82043  23842127.716
  23842119.8194         35.400          19.3004
 111074429.388 7  86551452.63646  21136751.519
  21136738.4644         47.900          36.8004
 116842943.493 7  91046425.11045  22234466.635
  22234454.2834         45.100          33.7004
 122616468.843 6  95545238.06744  23333131.107
  23333118.4044         41.200          25.8004
 125239584.760 6  97589241.08843  23832299.253
  23832285.8474         37.400          22.6004
 16  2 13  3 14  0.0000000  0 10G07G08G30G28G11G01G13G17G15G19
 118577617.293 6  92398166.36144  22564538.348
  22564526.0554         41.800          28.1004
 128917782.391 6 100455407.40742  24532220.992
  24532210.8094         37.400          17.4004
 109120694.871 8  85029129.29646  20764958.311
  20764947.6594         49.500          40.0004
 108265751.502 7  84362888.92846  20602268.235
  20602254.4184         46.300          38.8004
 119580037.210 7  93179200.42144  22755321.318
  22755307.5014         42.700          25.2004
 125227178.547 5  97579578.03443  23829935.661
  23829927.0614         35.300          19.6004
 111067647.689 8  86546168.20746  21135460.665
  21135447.9034         48.800          36.8004
 116757159.379 7  90979580.37945  22218143.846
  22218130.2644         44.600          34.0004
 122558059.855 6  95499724.60844  23322015.921
  23322003.6874         40.900          26.0004
 125118454.773 6  97494854.15543  23809249.129
  23809235.6054         38.300          22.9004
 16  2 13  3 14 30.0000000  0 10G07G08G30G28G11G01G13G17G15G19
 118665798.332 7  92466878.85244  22581319.614
  22581306.1494         42.300          28.1004
 129018737.568 5 100534073.80342  24551431.015
  24551422.0634         35.400          15.6004
 109169998.538 8  85067547.74146  20774340.470
  20774329.9364         49.300          40.9004
 108267639.873 7  84364360.39946  20602627.249
  20602613.4324         44.500          38.7004
 119567694.616 7  93169582.83744  22752972.442
  22752958.5084         42.600          25.8004
 125163501.473 5  97529959.60043  23817818.484
  23817809.2384         35.400          19.0004
 111061512.784 8  86541387.77746  21134293.278
  21134280.0474         48.800          37.0004
 116671720.749 7  90913004.84745  22201884.879
  22201872.2934         45.000          34.2004
 122500140.516 6  95454592.69244  23310994.320
  23310982.6134         40.300          26.5004
 124997469.315 6  97400579.83043  23786225.375
  23786212.5554         37.600          22.6004
 16  2 13  3 15  0.0000000  0 10G07G08G30G28G11G01G13G17G15G19
 118754239.386 7  92535793.93544  22598150.027
  22598136.5034         42.100          29.0004
 129119890.607 6 100612894.35342  24570680.108
  24570670.9804         36.400          16.9004
 109219693.665 8  85106271.21146  20783796.890
  20783786.2964         50.000          40.1004
 108269827.775 7  84366065.27446  20603043.223
  20603029.6414         46.100          38.6004
 119555960.059 7  93160439.02144  22750739.316
  22750725.3824         43.100          24.2004
 125100223.430 5  97480652.05143  23805777.076
  23805767.8314         35.900          19.6004
 111056021.148 8  86537108.59146  21133248.210
  21133235.3314         48.200          37.2004
 116586626.251 7  90846697.47445  22185692.069
  22185679.7174         44.600          34.7004
 122442709.429 6  95409841.21944  23300065.538
  23300053.7724         40.500          26.7004
 124876627.922 6  97306417.74943  23763230.773
  23763216.7814         38.800          22.6004
 16  2 13  3 15 30.0000000  0 10G07G08G30G28G11G01G13G17G15G19
 118842940.085 6  92604911.36944  22615027.876
  22615015.6414         41.500          28.7004
 129221239.311 6 100691867.38442  24589966.679
  24589956.8484         36.300          17.4004
 109269780.347 8  85145299.80246  20793328.046
  20793317.3944         49.500          40.5004
 108272315.267 7  84368003.59146  20603516.783
  20603503.0834         45.600          39.5004
 119544834.892 7  93151770.09744  22748622.877
  22748608.0644         42.400          25.2004
 125037347.820 5  97431658.10743  23793810.982
  23793802.6164         35.100          19.3004
 111051173.991 8  86533331.59146  21132326.097
  21132312.7494         48.500          36.6004
 116501878.425 7  90780660.24145  22169565.102
  22169552.4574         45.500          35.1004
 122385769.053 6  95365472.12944  23289230.080
  23289217.9634         41.400          28.6004
 124755933.963 6  97212370.55043  23740263.203
  23740249.0354         38.300          22.6004
 16  2 13  3 16  0.0000000  0 10G07G08G30G28G11G01G13G17G15G19
 118931898.008 6  92674229.19544  22631956.358
  22631943.4204         41.800          27.3004
 129322779.692 6 100770989.71743  24609289.150
  24609279.3194         36.700          18.3004
 109320256.892 8  85184632.17846  20802933.671
  20802922.6674         49.800          40.4004
 108275100.069 7  84370173.57646  20604046.999
  20604032.6544         45.700          39.0004
 119534318.735 7  93143575.69344  22746621.819
  22746607.2994         42.900          24.7004
 124974876.042 6  97382978.85443  23781923.760
  23781914.8084         36.100          19.6004
 111046970.450 8  86530056.11446  21131526.153
  21131512.8054         48.900          36.0004
 116417478.529 7  90714894.12245  22153503.869
  22153491.9864         46.000          35.6004
 122329319.743 6  95321485.67444  23278488.293
  23278476.1764         41.800          26.2004
 124635388.524 6  97118439.09343  23717323.544
  23717310.0204         37.500          21.8004
 16  2 13  3 16 30.0000000  0 10G07G08G30G28G11G01G13G17G15G19
 119021113.026 6  92743747.38944  22648932.993
  22648920.4654         40.700          26.2004
 129424510.383 6 100850260.36042  24628646.619
  24628637.9014         37.100          17.4004
 109371123.720 8  85224268.67346  20812613.616
  20812602.6714         49.500          40.8004
 108278182.348 7  84372575.35646  20604633.431
  20604619.7904         45.600          39.2004
 119524413.356 7  93135857.23144  22744737.437
  22744722.7414         42.700          24.2004
 124912811.906 5  97334617.21143  23770113.646
  23770104.3424         35.400          20.4004
 111043411.581 8  86527282.97346  21130848.863
  21130835.2804         48.300          36.8004
 116333428.869 7  90649400.91445  22137510.063
  22137497.0674         45.600          35.4004
 122273364.339 6  95277884.09244  23267838.723
  23267827.9544         40.400          26.2004
 124514995.531 6  97024626.35943  23694414.401
  23694400.2914         38.200          22.6004
 16  2 13  3 17  0.0000000  0 10G07G08G30G28G11G01G13G17G15G19
 119110588.327 6  92813468.39044  22665959.807
  22665946.3424         40.900          27.0004
 129526432.761 6 100929680.37643  24648041.284
  24648034.0314         37.100          18.3004
 109422384.631 8  85264212.24246  20822368.049
  20822357.2804         49.300          40.6004
 108281565.813 7  84375211.81646  20605277.787
  20605263.3254         46.400          38.7004
 119515123.587 7  93128618.46444  22742969.443
  22742954.5714         43.800          26.7004
 124851162.318 5  97286578.59343  23758381.809
  23758373.0324         35.000          20.9004
 111040502.197 8  86525015.93046  21130294.779
  21130281.8994         48.100          36.7004
 116249735.960 7  90584185.70745  22121583.190
  22121571.0734         44.900          34.1004
 122217908.746 6  95234671.98344  23257287.332
  23257274.9814         40.900          27.0004
 124394762.044 6  96930937.98643  23671534.459
  23671519.7634         38.900          22.5004
 16  2 13  3 17 30.0000000  0 10G07G08G30G28G11G01G13G17G15G19
 119200312.202 6  92883383.07344  22683033.634
  22683020.5794         41.500          26.1004
 129628534.201 6 101009239.93842  24667471.191
  24667462.4734         36.700          17.4004
 109474028.494 8  85304454.20946  20832195.039
  20832184.7974         50.100          40.0004
 108285238.817 7  84378073.90946  20605976.602
  20605962.3174         45.300          39.4004
 119506439.988 7  93121852.03444  22741316.863
  22741302.1084         43.700          24.6004
 124789919.460 6  97238856.90043  23746727.843
  23746719.0084         36.400          20.9004
 111038231.451 8  86523246.52546  21129863.242
  21129850.0124         48.800          36.4004
 116166391.078 7  90519241.68245  22105722.781
  22105710.7814         45.100          34.4004
 122162944.014 6  95191842.35244  23246828.020
  23246815.6684         41.700          27.4004
 124274680.342 6  96837367.91743  23648682.306
  23648669.2514         38.200          23.5004
 16  2 13  3 18  0.0000000  0 10G07G08G30G28G11G01G13G17G15G19
 119290292.878 6  92953497.87044  22700156.411
  22700143.3564         41.200          27.2004
 129730820.949 6 101088943.88442  24686936.659
  24686926.8274         37.100          17.8004
 109526064.126 8  85345001.46146  20842097.710
  20842087.2344         49.900          40.6004
 108289210.081 7  84381168.40846  20606731.899
  20606718.0244         46.600          39.0004
 119498372.981 7  93115566.06244  22739781.149
  22739766.9214         42.300          24.4004
 124729095.374 6  97191461.53043  23735154.303
  23735143.8854         37.500          21.1004
 111036608.809 8  86521982.14046  21129554.739
  21129541.0984         49.100          37.0004
 116083405.703 7  90454577.79145  22089932.228
  22089919.4074         45.500          35.1004
 122108481.468 6  95149404.03844  23236462.913
  23236451.7934         40.500          25.3004
 124154762.296 6  96743925.33443  23625863.532
  23625849.7734         39.200          22.6004
 16  2 13  3 18 30.0000000  0 10G07G08G30G28G11G01G13G17G15G19
 119380526.035 6  93023809.39444  22717327.536
  22717314.8324         40.800          27.6004
 129833287.343 5 101168787.79542  24706434.379
  24706425.4274         35.700          16.9004
 109578487.958 8  85385851.19446  20852073.548
  20852062.8964         49.700          40.4004
 108293475.651 7  84384492.23546  20607544.042
  20607529.7564         45.500          38.5004
 119490919.352 7  93109758.04544  22738362.208
  22738348.5674         42.200          25.3004
 124668689.634 6  97144392.18443  23723659.822
  23723649.4634         38.600          20.6004
 111035631.667 8  86521220.73746  21129368.614
  21129355.3834         48.700          36.9004
 116000778.786 7  90390193.20845  22074208.534
  22074195.0104         46.300          35.3004
 122054519.708 6  95107355.93544  23226195.206
  23226182.6784         40.600          27.0004
 124035007.193 6  96650609.72443  23603074.707
  23603061.2424         39.000          22.9004
 16  2 13  3 19  0.0000000  0 10G07G08G30G28G11G01G13G17G15G19
 119471011.117 6  93094317.21644  22734546.186
  22734533.0734         41.200          26.8004
 129935931.509 6 101248770.22542  24725967.449
  24725958.1454         36.300          17.4004
 109631300.153 8  85427003.54746  20862123.193
  20862112.4244         49.000          39.9004
 108298035.596 7  84388045.44946  20608411.363
  20608397.7224         45.200          39.3004
 119484080.667 7  93104429.21644  22737061.589
  22737047.1274         42.300          24.9004
 124608705.790 6  97097651.57643  23712243.611
  23712234.9524         37.600          21.3004
 111035300.744 8  86520962.88346  21129305.204
  21129291.9734         48.800          36.6004
 115918512.744 7  90326089.81945  22058552.111
  22058540.8734         45.700          35.4004
 122001061.070 7  95065699.89244  23216023.099
  23216009.9854         42.000          28.1004
 123915418.649 6  96557423.90343  23580317.892
  23580304.1344         39.100          23.6004
 16  2 13  3 19 30.0000000  0 10G07G08G30G28G11G01G13G17G15G19
 119561746.414 6  93165020.02444  22751812.349
  22751799.4704         41.400          26.2004
 130038750.346 6 101328888.79442  24745533.583
  24745523.6354         36.800          15.6004
 109684499.483 8  85468457.57046  20872246.729
  20872235.9014         49.300          39.8004
 108302888.264 7  84391826.76146  20609334.609
  20609320.8514         45.300          39.1004
 119477856.863 7  93099579.51143  22735876.765
  22735862.5964         42.900          23.9004
 124549145.696 6  97051241.10843  23700910.053
  23700900.6324         37.900          21.7004
 111035615.329 8  86521208.01546  21129364.961
  21129352.1414         48.800          36.9004
 115836608.825 7  90262268.62945  22042967.371
  22042955.2534         45.900          35.4004
 121948106.510 6  95024436.62844  23205946.189
  23205933.1934         40.900          26.4004
 123795998.946 6  96464369.64243  23557594.260
  23557578.9784         40.400          22.0004
 16  2 13  3 20  0.0000000  0 10G07G08G30G28G11G01G13G17G15G19
 119652730.836 6  93235916.95344  22769127.175
  22769113.3004         41.600          25.9004
 130141742.132 6 101409142.16842  24765132.711
  24765122.0014         36.300          16.9004
 109738085.781 8  85510213.13646  20882444.179
  20882432.8824         49.600          39.3004
 108308033.267 7  84395835.86546  20610313.691
  20610299.7574         43.900          38.9004
 119472248.846 7  93095209.63144  22734809.780
  22734796.1394         43.900          25.9004
 124490012.370 6  97005163.24743  23689657.465
  23689647.5754         39.000          21.3004
 111036575.959 8  86521956.56746  21129547.980
  21129534.5734         48.100          36.9004
 115755069.432 7  90198731.49245  22027452.200
  22027439.1454         46.400          35.9004
 121895658.117 6  94983567.75444  23195964.307
  23195952.3074         41.600          27.7004
 123676750.950 6  96371449.14643  23534901.538
  23534886.3144         40.700          22.6004
 16  2 13  3 20 30.0000000  0 10G07G08G30G28G11G01G13G17G15G19
 119743964.428 7  93307008.05944  22786488.767
  22786474.0714         42.500          25.2004
 130244904.312 5 101489528.26542  24784762.911
  24784752.4934         35.800          16.3004
 109792059.008 8  85552270.19446  20892714.885
  20892703.6474         48.900          39.8004
 108313470.462 7  84400072.64146  20611348.413
  20611334.8304         44.900          39.0004
 119467257.562 7  93091320.31844  22733860.210
  22733846.1004         42.300          25.6004
 124431309.001 6  96959420.41143  23678487.518
  23678477.0424         39.200          21.5004
 111038183.172 7  86523208.94646  21129854.129
  21129840.4884         47.900          37.2004
 115673897.116 7  90135480.37445  22012005.135
  22011992.3734         47.000          35.7004
 121843718.105 6  94943095.05544  23186080.051
  23186069.2824         40.700          28.8004
 123557677.871 6  96278664.95743  23512243.259
  23512227.4494         41.100          23.3004
 16  2 13  3 21  0.0000000  0 10G07G08G30G28G11G01G13G17G15G19
 119835445.215 6  93378291.76244  22803896.300
  22803882.6014         41.300          26.9004
 130348234.003 6 101570044.85942  24804425.816
  24804416.1024         36.500          16.9004
 109846418.142 8  85594627.95846  20903059.097
  20903047.8004         49.100          39.8004
 108319198.376 7  84404535.96146  20612438.423
  20612424.7244         46.000          38.9004
 119462883.598 7  93087912.04344  22733027.329
  22733013.8054         43.000          25.9004
 124373037.769 6  96914014.27643  23667397.465
  23667388.0444         38.000          21.1004
 111040436.586 8  86524964.86046  21130282.812
  21130269.6984         48.500          36.7004
 115593093.274 7  90072516.38245  21996628.345
  21996615.5254         47.000          35.8004
 121792287.477 6  94903019.27044  23176294.266
  23176281.6214         41.000          26.6004
 123438782.170 6  96186019.00544  23489617.885
  23489603.1894         41.400          24.9004
 16  2 13  3 21 30.0000000  0 10G07G08G30G28G11G01G13G17G15G19
 119927171.787 6  93449766.98244  22821351.238
  22821337.8904         40.400          26.2004
 130451728.906 5 101650690.29042  24824120.633
  24824110.5084         34.800          16.9004
 109901162.672 8  85637286.02446  20913476.267
  20913465.5564         49.100          39.7004
 108325216.394 7  84409225.34046  20613583.265
  20613569.8584         45.800          39.7004
 119459127.318 7  93084985.07744  22732312.132
  22732298.9604         43.000          25.5004
 124315201.374 6  96868946.99143  23656391.664
  23656381.6574         38.100          20.9004
 111043336.210 8  86527224.31646  21130834.411
  21130821.0634         49.200          37.0004
 115512659.551 7  90009840.79746  21981322.473
  21981310.1214         46.800          36.0004
 121741368.127 6  94863341.89944  23166604.795
  23166592.3854         41.300          27.0004
 123320066.525 6  96093513.36044  23467026.966
  23467012.1524         39.900          26.5004
 16  2 13  3 22  0.0000000  0 10G07G08G30G28G11G01G13G17G15G19
 120019143.594 6  93521433.26144  22838852.785
  22838839.4964         40.700          25.7004
 130555386.563 5 101731462.43642  24843846.446
  24843836.3804         35.600          17.8004
 109956292.287 8  85680244.17246  20923967.709
  20923956.8224         49.300          40.3004
 108331523.989 7  84414140.35646  20614783.783
  20614769.9664         45.600          39.2004
 119455989.520 7  93082540.06244  22731714.964
  22731701.6164         42.800          26.0004
 124257802.720 6  96824220.77543  23645470.192
  23645459.2474         38.200          21.7004
 111046881.875 7  86529987.16946  21131508.853
  21131495.5634         47.900          36.8004
 115432598.483 7  89947455.59046  21966087.309
  21966075.1924         46.400          36.5004
 121690961.876 7  94824064.31344  23157012.175
  23157000.1164         42.000          28.4004
 123201534.115 6  96001150.49244  23444469.986
  23444456.9314         39.200          25.0004
 16  2 13  3 22 30.0000000  0 10G07G08G30G28G11G01G13G17G15G19
 120111360.190 6  93593290.30944  22856400.081
  22856388.1984         39.400          24.8004
 130659205.150 5 101812359.98842  24863602.280
  24863593.1524         34.600          16.3004
 110011806.920 8  85723502.33446  20934531.523
  20934520.6374         49.500          40.0004
 108338121.529 7  84419281.30146  20616039.996
  20616025.9444         43.300          38.7004
 119453471.322 6  93080577.84343  22731236.456
  22731222.9334         41.600          23.8004
 124200844.888 6  96779838.08543  23634629.528
  23634620.1074         36.900          19.9004
 111051074.358 7  86533254.03745  21132306.864
  21132293.8674         46.400          35.9004
 115352912.871 7  89885362.94946  21950923.386
  21950910.9754         47.100          36.3004
 121641070.913 7  94785188.28444  23147519.586
  23147505.4764         42.000          28.0004
 123083187.833 6  95908932.68444  23421950.699
  23421936.1784         40.100          25.2004
 16  2 13  3 23  0.0000000  0 10G07G08G30G28G11G01G13G17G15G19
 120203819.124 6  93665336.21644  22873995.436
  22873982.3234         40.200          26.7004
 130763181.041 5 101893380.14642  24883388.324
  24883378.7274         34.100          15.6004
 110067705.118 8  85767059.36846  20945168.291
  20945157.7564         48.800          39.4004
 108345006.240 7  84424646.00846  20617349.743
  20617335.6924         44.900          39.3004
 119451572.231 6  93079098.02544  22730875.643
  22730861.2404         41.300          25.8004
 124144329.587 6  96735800.17243  23623875.360
  23623865.4124         37.500          19.9004
 111055912.890 8  86537024.32546  21133227.956
  21133214.6084         48.400          36.0004
 115273602.809 7  89823562.95245  21935831.850
  21935818.9714         46.600          35.9004
 121591695.953 7  94746714.28944  23138122.479
  23138109.9514         42.400          27.7004
 122965030.059 6  95816861.72644  23399464.013
  23399451.3104         38.500          26.0004
 16  2 13  3 23 30.0000000  0 10G07G08G30G28G11G01G13G17G15G19
 120296520.155 6  93737570.76044  22891635.582
  22891622.6454         39.900          25.8004
 130867312.908 5 101974521.89842  24903203.164
  24903194.5054         32.600          15.6004
 110123987.081 8  85810915.44346  20955878.658
  20955867.7724         49.300          39.8004
 108352178.476 7  84430234.78046  20618714.001
  20618700.4774         45.800          39.0004
 119450293.657 6  93078101.74044  22730631.375
  22730618.3794         41.800          26.2004
 124088260.245 5  96692109.80143  23613205.210
  23613195.9644         35.900          19.0004
 111061398.184 8  86541298.58146  21134271.482
  21134257.8414         48.000          36.6004
 115194671.151 7  89762057.79846  21920810.654
  21920798.4194         47.000          36.0004
 121542839.216 6  94708644.15644  23128825.349
  23128812.9384         41.700          27.3004
 122847063.791 6  95724940.01944  23377017.174
  23377002.9474         40.600          25.8004
 16  2 13  3 24  0.0000000  0 10G07G08G30G28G11G01G13G17G15G19
 120389461.771 6  93809992.77644  22909322.054
  22909308.9404         40.400          26.6004
 130971597.738 5 102055782.73642  24923048.202
  24923039.8944         34.100          17.8004
 110180652.088 8  85855069.98746  20966661.082
  20966650.4894         48.800          39.9004
 108359637.735 7  84436047.19746  20620133.796
  20620119.6274         46.500          39.7004
 119449635.462 6  93077588.86544  22730506.960
  22730493.1434         41.700          25.4004
 124032639.345 6  96648768.82843  23602622.276
  23602612.0344         36.000          19.3004
 111067529.577 8  86546076.29546  21135438.168
  21135425.1134         48.200          36.6004
 115116119.940 7  89700849.10146  21905863.128
  21905850.7764         47.200          36.6004
 121494502.055 7  94670978.84744  23119627.517
  23119615.1064         42.200          28.4004
 122729291.452 6  95633169.41744  23354606.007
  23354591.6044         40.100          27.0004
 16  2 13  3 24 30.0000000  0 10G07G08G30G28G11G01G13G17G15G19
 120482642.336 6  93882600.98144  22927053.495
  22927040.3234         41.100          26.0004
 131076032.664 5 102137160.60742  24942922.354
  24942913.5774         33.700          16.3004
 110237698.798 8  85899521.96846  20977516.479
  20977506.4134         48.200          39.5004
 108367382.471 7  84442082.06446  20621607.466
  20621593.7074         46.600          38.7004
 119449597.470 6  93077559.27444  22730499.359
  22730485.5434         41.900          25.1004
 123977468.590 6  96605778.66843  23592122.376
  23592113.5414         36.400          19.3004
 111074306.172 8  86551356.76846  21136727.754
  21136714.1714         48.700          37.0004
 115037950.456 7  89639937.84546  21890987.712
  21890975.3604         47.900          36.6004
 121446685.296 7  94633719.06444  23110529.136
  23110515.3194         42.500          28.6004
 122611715.626 6  95541551.94144  23332231.529
  23332217.4784         40.800          25.8004
 16  2 13  3 25  0.0000000  0 10G07G08G30G28G11G01G13G17G15G19
 120576061.808 6  93955395.32644  22944830.573
  22944817.4594         41.300          25.8004
 131180616.597 5 102218654.54442  24962821.283
  24962815.9064         32.500          16.9004
 110295127.910 8  85944271.91846  20988445.241
  20988434.8234         48.000          39.7004
 108375413.027 7  84448339.63846  20623135.751
  20623121.1134         46.400          38.6004
 119450181.007 6  93078014.00244  22730610.630
  22730596.8714         41.800          25.7004
 123922751.947 5  96563142.35043  23581710.413
  23581701.9894         35.700          19.3004
 111081729.476 8  86557141.16846  21138140.401
  21138127.0534         48.300          36.8004
 114960165.796 7  89579326.45646  21876185.449
  21876173.5084         47.200          37.3004
 121399391.750 6  94596866.96944  23101528.064
  23101515.3024         41.600          28.5004
 122494340.272 6  95450090.67744  23309894.830
  23309881.3654         39.200          25.7004
 16  2 13  3 25 30.0000000  0 10G07G08G30G28G11G01G13G17G15G19
 120669718.143 6  94028374.26144  22962652.800
  22962640.0384         40.700          26.7004
 131285345.816 5 102300261.70842  24982750.761
  24982744.8564         32.300          14.8004
 110352937.861 8  85989318.63346  20999446.338
  20999435.6284         48.400          39.2004
 108383727.629 7  84454818.54746  20624718.282
  20624703.7624         47.000          38.6004
 119451385.953 6  93078952.93244  22730839.450
  22730825.2814         41.900          24.6004
 123868490.936 6  96520861.04443  23571385.016
  23571376.4164         36.600          19.9004
 111089798.216 8  86563428.49746  21139676.145
  21139662.5044         48.500          36.4004
 114882766.455 7  89519015.32146  21861457.143
  21861445.0844         47.200          37.1004
 121352622.184 7  94560423.16544  23092628.983
  23092615.4004         42.800          28.2004
 122377166.867 6  95358786.77144  23287598.165
  23287583.7034         40.500          27.0004
 16  2 13  3 26  0.0000000  0 10G07G08G30G28G11G01G13G17G15G19
 120763610.774 6  94101537.30944  22980520.578
  22980506.9374         40.900          25.7004
 131390218.288 5 102381980.49342  25002710.230
  25002701.5124         33.800          16.3004
 110411128.592 8  86034662.05446  21010520.001
  21010508.9974         48.400          39.3004
 108392326.047 7  84461518.62846  20626354.323
  20626340.0954         47.000          39.2004
 119453213.385 7  93080376.91144  22731188.006
  22731173.1924         43.100          26.1004
 123814688.736 6  96478937.30243  23561146.785
  23561138.4774         36.400          19.0004
 111098512.648 8  86570218.97246  21141334.700
  21141320.8244         48.400          36.4004
 114805754.956 8  89459006.37546  21846802.504
  21846789.6844         48.100          36.9004
 121306378.744 7  94524389.34044  23083828.528
  23083815.4144         42.600          27.9004
 122260198.943 6  95267642.99444  23265339.966
  23265326.1494         39.900          26.0004
 16  2 13  3 26 30.0000000  0 10G07G08G30G28G11G01G13G17G15G19
 120857737.997 6  94174883.14244  22998431.834
  22998419.2474         39.900          24.0004
 131495231.491 5 102463809.01242  25022692.359
  25022684.6374         33.400          16.3004
 110469699.029 8  86080301.35746  21021665.316
  21021654.3714         48.500          39.7004
 108401207.108 7  84468438.93546  20628043.967
  20628030.3844         46.600          39.1004
 119455662.911 7  93082285.63544  22731654.453
  22731639.2884         42.900          25.2004
 123761347.346 6  96437372.59542  23550997.577
  23550986.6324         36.500          17.8004
 111107871.785 8  86577511.81046  21143115.115
  21143101.7084         48.600          36.6004
 114729132.893 8  89399300.89446  21832222.564
  21832208.9814         48.100          36.3004
 121260662.220 6  94488766.10844  23075128.219
  23075115.8674         41.500          27.1004
 122143438.966 6  95176661.24044  23243119.746
  23243107.2184         40.500          26.1004
 16  2 13  3 27  0.0000000  0 10G07G08G30G28G11G01G13G17G15G19
 120952099.327 6  94248411.43143  23016388.338
  23016375.2244         40.100          23.5004
 131600384.079 5 102545746.05642  25042701.575
  25042694.1464         33.300          16.3004
 110528649.736 8  86126236.96346  21032882.660
  21032872.4774         48.400          38.6004
 108410371.103 7  84475579.73146  20629787.409
  20629773.4754         46.700          38.8004
 119458735.692 7  93084680.02144  22732238.767
  22732224.0714         43.800          24.3004
 123708470.426 5  96396169.84643  23540933.694
  23540924.0974         34.500          19.0004
 111117876.838 7  86585307.95146  21145019.294
  21145005.7124         47.900          36.6004
 114652903.001 7  89339900.99846  21817715.967
  21817703.1464         47.600          36.8004
 121215475.166 6  94453555.44144  23066529.262
  23066516.9104         40.900          27.0004
 122026890.119 6  95085844.00044  23220943.319
  23220928.7984         41.500          26.9004
 16  2 13  3 27 30.0000000  0 10G07G08G30G28G11G01G13G17G15G19
 121046692.922 6  94322120.68844  23034388.361
  23034376.2444         39.200          24.0004
 131705672.771 5 102627789.17742  25062737.528
  25062730.5104         31.600          14.8004
 110587978.906 8  86172467.48246  21044172.592
  21044162.1754         48.300          38.8004
 108419816.626 7  84482939.88546  20631585.631
  20631570.9354         47.000          39.2004
 119462430.936 7  93087559.45044  22732942.174
  22732927.5364         43.100          26.0004
 123656059.343 6  96355330.02843  23530961.879
  23530951.4034         36.600          19.3004
 111128526.219 7  86593606.17746  21147045.910
  21147032.0354         47.900          36.8004
 114577066.376 7  89280807.56146  21803285.201
  21803271.9704         47.200          36.7004
 121170818.200 7  94418757.84944  23058032.549
  23058019.4354         42.100          27.7004
 121910554.869 6  94995193.20144  23198803.595
  23198790.5404         40.200          25.4004
 16  2 13  3 28  0.0000000  0 10G07G08G30G28G11G01G13G17G15G19
 121141517.620 6  94396010.01644  23052433.713
  23052420.7754         40.400          26.0004
 131811094.598 5 102709936.04242  25082799.302
  25082791.8154         33.100          16.3004
 110647685.848 8  86218992.37746  21055534.567
  21055524.1494         48.300          39.2004
 108429542.975 7  84490518.86446  20633435.801
  20633422.5704         43.200          38.6004
 119466748.985 7  93090924.16444  22733763.405
  22733749.1784         43.100          26.1004
 123604116.456 5  96314855.06242  23521074.674
  23521067.4224         34.700          17.8004
 111139819.605 7  86602406.22046  21149194.459
  21149181.4044         46.300          37.0004
 114501625.010 7  89222022.12646  21788928.613
  21788915.9684         47.600          37.6004
 121126692.571 6  94384374.25144  23049634.386
  23049623.0314         41.200          28.2004
 121794435.902 6  94904710.92344  23176708.193
  23176693.9074         41.000          27.4004
 16  2 13  3 28 30.0000000  0 10G07G08G30G28G11G01G13G17G15G19
 121236572.133 6  94470078.41544  23070521.848
  23070509.0274         41.200          26.3004
 131916545.335 5 102792087.81742  25102885.106
  25102878.2644         33.700          16.3004
 110707769.952 7  86265811.15946  21066968.097
  21066957.8564         47.900          39.0004
 108439549.069 7  84498315.82846  20635340.585
  20635326.3584         46.500          38.9004
 119471690.163 7  93094774.44044  22734703.772
  22734688.9014         43.500          26.9004
 123552644.485 5  96274747.07743  23511279.691
  23511273.7874         35.600          18.3004
 111151756.957 8  86611708.05846  21151465.832
  21151452.8954         48.700          36.3004
 114426580.220 7  89163545.70146  21774647.470
  21774634.7674         47.600          36.7004
 121083100.022 6  94350406.05044  23041339.641
  23041327.1144         41.300          27.5004
 121678535.699 7  94814399.13044  23154653.278
  23154638.8754         42.000          27.1004
 16  2 13  3 29  0.0000000  0 10G07G08G30G28G11G01G13G17G15G19
 121331859.617 6  94544328.38344  23088654.899
  23088641.3754         40.600          26.4004
                                  25122996.707
  25122988.9854         32.500          14.8004
 110768235.123 8  86312926.87146  21078474.550
  21078464.1914         48.200          38.6004
 108449838.496 7  84506333.57546  20637298.676
  20637284.4494         45.300          38.9004
 119477258.939 7  93099113.75144  22735763.098
  22735749.2234         42.900          25.5004
 123501650.191 6  96235011.26443  23501578.656
  23501568.2394         37.600          20.1004
 111164342.386 7  86621514.89846  21153861.329
  21153847.9814         47.300          36.6004
 114351937.775 7  89105382.78646  21760443.581
  21760431.2884         46.400          37.0004
 121040046.121 6  94316857.58844  23033146.893
  23033134.0734         41.700          28.2004
 121562861.631 6  94724263.53144  23132641.431
  23132626.4414         41.400          27.4004
 16  2 13  3 29 30.0000000  0 10G07G08G30G28G11G01G13G17G15G19
 121427366.120 6  94618748.98744  23106828.670
  23106816.0844         41.100          24.4004
 132128043.242 5                  25143130.190
                        32.400
 110829067.710 7  86360328.88546  21090050.719
  21090040.1844         47.800          39.1004
 108460397.802 7  84514561.61046  20639307.573
  20639293.6984         45.000          38.6004
 119483442.342 7  93103931.99144  22736940.932
  22736925.5924         42.900          26.9004
 123451123.164 6  96195639.59643  23491962.491
  23491953.8324         36.000          20.4004
 111177562.137 7  86631816.00146  21156377.027
  21156363.6214         46.300          36.5004
 114277687.098 7  89047525.14446  21746314.827
  21746301.1864         47.000          37.1004
 120997519.270 6  94283719.79844  23025055.200
  23025041.6184         41.800          28.2004
 121447403.445 6  94634296.14644  23110669.495
  23110655.7374         40.400          27.2004
 16  2 13  3 30  0.0000000  0 10G07G08G30G28G11G01G13G17G15G19
 121523107.009 6  94693352.24044  23125048.125
  23125035.4214         40.400          26.5004
                                  25163289.040
                        33.000
 110890283.879 8  86408029.79246  21101699.511
  21101689.0354         48.200          38.8004
 108471242.931 7  84523012.36146  20641371.371
  20641357.4374         46.700          38.9004
 119490257.746 7  93109242.71044  22738236.245
  22738222.3704         42.400          26.0004
 123401082.667 6  96156646.99743  23482440.505
  23482431.7874         36.500          20.9004
 111191432.563 7  86642624.12746  21159016.146
  21159003.0324         47.800          37.3004
 114203846.803 7  88989987.27146  21732262.686
  21732250.5694         46.400          37.4004
 120955537.768 7  94251006.95144  23017066.376
  23017053.0284         43.200          28.3004
 121332180.627 6  94544512.16844  23088742.855
  23088729.9174         40.500          26.8004
 16  2 13  3 30 30.0000000  0 10G07G08G30G28G11G01G13G17G15G19
 121619064.937 6  94768124.59844  23143307.252
  23143295.5454         40.400          25.4004
 132340032.946 5 103122054.86943  25183469.960
  25183460.0704         32.400          18.3004
 110951866.532 8  86456016.26046  21113418.492
  21113408.0754         48.000          38.8004
 108482356.611 7  84531672.38046  20643486.074
  20643472.4334         47.000          39.1004
 119497688.833 7  93115033.18544  22739650.823
  22739636.7134         42.100          24.6004
 123351514.653 6  96118022.61943  23473008.285
  23472998.6884         38.300          21.1004
 111205936.892 8  86653926.20446  21161776.375
  21161763.0274         48.000          36.8004
 114130402.511 7  88932757.98746  21718287.205
  21718274.3844         46.600          37.4004
 120914086.628 7  94218707.38544  23009177.900
  23009164.4354         42.200          28.4004
 121217179.780 6  94454901.15444  23066860.445
  23066845.5734         41.600          26.9004
 16  2 13  3 31  0.0000000  0 10G07G08G30G28G11G01G13G17G15G19
 121715251.604 6  94843075.23143  23161611.222
  23161598.8124         39.400          22.6004
 132446206.099 5 103204793.99442  25203675.411
  25203665.1694         34.700          17.4004
 111013828.293 7  86504298.14546  21125209.608
  21125199.0154         47.800          38.8004
 108493752.068 7  84540551.97246  20645654.397
  20645640.8154         45.000          39.2004
 119505748.715 7  93121313.60744  22741185.247
  22741171.0194         43.400          25.8004
 123302434.807 6  96079778.57843  23463667.918
  23463658.9654         36.400          21.8004
 111221088.263 7  86665732.47346  21164659.193
  21164645.8454         46.800          36.6004
 114057368.535 7  88875848.44246  21704389.306
  21704376.3094         46.900          38.0004
 120873180.476 6  94186832.48344  23001393.097
  23001380.8634         41.900          27.5004
 121102416.973 6  94365475.63444  23045021.593
  23045006.6634         41.700          27.5004
 16  2 13  3 31 30.0000000  0 10G07G08G30G28G11G01G13G17G15G19
 121811664.496 6  94918202.11544  23179958.836
  23179945.6054         40.000          24.7004
 132552500.807 5 103287621.01042  25223903.051
  25223893.0444         34.200          16.3004
 111076166.796 8  86552873.59946  21137072.327
  21137061.7924         48.100          38.5004
 108505426.410 7  84549648.86446  20647876.243
  20647862.4844         45.900          39.5004
 119514435.930 6  93128082.88244  22742836.958
  22742824.1384         41.000          26.0004
 123253843.842 6  96041915.50643  23454422.855
  23454412.4964         37.800          21.3004
 111236884.222 7  86678041.01846  21167665.116
  21167652.2374         47.800          36.4004
 113984745.252 7  88819258.90546  21690569.598
  21690557.1294         47.600          37.8004
 120832818.926 6  94155381.93644  22993712.041
  22993700.2754         40.900          28.0004
 120987893.247 6  94276236.44044  23023227.873
  23023213.3534         40.400          27.2004
 16  2 13  3 32  0.0000000  0 10G07G08G30G28G11G01G13G17G15G19
 121908292.258 6  94993496.46044  23198345.707
  23198332.8284         39.400          24.0004
 132658903.314 5 103370532.02742  25244149.466
  25244141.1584         33.800          13.9004
 111138871.440 8  86601734.36646  21149004.491
  21148994.0154         48.000          38.7004
 108517369.223 7  84558954.96046  20650148.991
  20650135.2324         47.300          39.0004
 119523740.603 7  93135333.28644  22744609.002
  22744592.7234         42.900          25.5004
 123205734.170 6  96004427.45743  23445268.228
  23445257.5764         38.300          21.5004
 111253314.227 7  86690843.62146  21170791.388
  21170778.6264         47.200          36.6004
 113912524.690 8  88762983.16146  21676826.276
  21676813.3974         48.100          38.6004
 120792993.378 6  94124349.06144  22986133.738
  22986121.2694         40.900          28.0004
 120873601.113 7  94187177.66644  23001478.608
  23001464.3804         42.100          26.5004
 16  2 13  3 32 30.0000000  0 10G07G08G30G28G11G01G13G17G15G19
 122005143.790 6  95068965.16144  23216776.659
  23216763.9564         40.000          24.0004
 132765422.050 5                  25264419.187
                        32.500
 111201951.640 8  86650887.76346  21161007.795
  21160997.2604         48.100          37.9004
 108529589.639 7  84568477.36546  20652474.946
  20652460.7194         47.100          38.6004
 119533672.689 7  93143072.56944  22746498.212
  22746484.0434         42.200          25.0004
 123158118.366 6  95967324.24043  23436205.750
  23436196.5054         39.000          22.5004
 111270388.135 8  86704147.95946  21174040.521
  21174027.8184         48.400          36.8004
 113840718.675 7  88707030.44946  21663162.046
  21663149.2844         47.200          38.6004
 120753715.216 6  94093742.72144  22978659.233
  22978647.0574         40.900          29.1004
 120759553.918 7  94098309.77744  22979776.492
  22979761.6214         42.000          28.5004
 16  2 13  3 33  0.0000000  0 10G07G08G30G28G11G01G13G17G15G19
 122102214.723 6  95144604.83343  23235248.304
  23235235.5424         40.700          22.6004
 132872051.023 5                  25284710.320
                        31.900
 111265403.458 7  86700330.73046  21173083.293
  21173072.3484         47.600          38.0004
 108542083.803 7  84578213.07646  20654851.214
  20654837.8664         47.200          38.4004
 119544229.042 7  93151298.30844  22748507.127
  22748492.7834         42.300          24.3004
 123110995.492 6  95930605.15243  23427239.197
  23427229.3654         39.000          22.2004
 111288101.831 8  86717950.83846  21177412.051
  21177398.2934         48.800          36.1004
 113769325.352 7  88651399.32346  21649575.540
  21649563.1304         47.100          37.6004
 120714982.594 6  94063561.49844  22971288.790
  22971276.7324         40.700          28.9004
 120645751.002 6  94009632.22144  22958120.084
  22958105.7394         41.400          27.2004
 16  2 13  3 33 30.0000000  0 10G07G08G30G28G11G01G13G17G15G19
 122199502.719 6  95220413.60443  23253761.249
  23253748.3704         39.900          22.6004
 132978787.410 5                  25305021.256
                        30.700
 111329225.233 8  86750061.98046  21185227.849
  21185216.7874         48.100          38.3004
 108554850.498 7  84588161.15246  20657281.244
  20657267.6034         47.400          39.2004
 119555408.436 6  93160009.52444  22750634.157
  22750620.5154         41.700          24.2004
 123064366.844 6  95894271.16643  23418364.704
  23418355.8104         38.800          22.3004
 111306453.992 8  86732251.22346  21180904.137
  21180890.7314         48.500          36.6004
 113698345.713 8  88596090.55346  21636069.245
  21636056.2484         48.000          37.8004
 120676795.639 7  94033805.45944  22964022.031
  22964009.8554         42.100          29.2004
 120532194.164 6  93921146.40944  22936510.895
  22936496.4334         41.700          26.9004
 16  2 13  3 34  0.0000000  0  9G07G30G28G11G01G13G17G15G19
 122297018.103 6  95296399.59444  23272317.620
  23272306.4404         39.800          24.9004
 111393427.704 7  86800089.86746  21197444.730
  21197433.7264         47.500          37.7004
 108567899.846 7  84598329.49546  20659764.574
  20659750.4644         46.900          38.6004
 119567222.427 7  93169215.22844  22752882.087
  22752868.7984         42.400          25.0004
 123018246.227 6  95858333.02543  23409589.334
  23409579.5614         39.200          22.3004
 111325455.409 8  86747057.52846  21184519.954
  21184506.4894         48.700          36.7004
 113627792.816 8  88541114.30046  21622643.468
  21622630.4134         48.200          38.2004
 120639167.437 6  94004484.82644  22956861.274
  22956849.4504         41.700          28.9004
 120418897.475 7  93832863.31344  22914951.425
  22914936.6704         42.100          26.7004
 16  2 13  3 34 30.0000000  0  9G07G30G28G11G01G13G17G15G19
 122394735.115 6  95372542.69143  23290913.952
  23290900.4874         39.600          22.8004
 111457985.662 7  86850394.77346  21209730.109
  21209718.9294         47.500          37.8004
 108581206.776 8  84608698.53346  20662296.876
  20662282.7074         48.100          39.5004
 119579646.607 7  93178896.42044  22755246.108
  22755233.1124         42.700          25.5004
 122972611.483 6  95822773.50743  23400905.787
  23400895.4284         38.700          21.5004
 111345080.933 8  86762350.15346  21188254.373
  21188240.9084         48.700          36.3004
 113557644.086 8  88486452.96846  21609294.736
  21609281.5644         48.000          37.7004
 120602074.405 6  93975581.16644  22949803.546
  22949790.2564         41.800          29.3004
 120305839.602 7  93744766.31044  22893437.460
  22893422.9984         42.500          28.8004
 16  2 13  3 35  0.0000000  0  9G07G30G28G11G01G13G17G15G19
 122492668.920 6  95448854.70444  23309549.652
  23309536.8324         40.400          24.2004
 111522914.744 7  86900988.86646  21222085.380
  21222074.4944         47.700          37.6004
 108594786.953 7  84619280.48446  20664881.330
  20664867.0454         47.500          39.2004
 119592697.100 7  93189065.63244  22757729.602
  22757716.6654         42.400          24.8004
 122927481.228 6  95787607.08443  23392316.790
  23392307.1354         38.300          22.0004
 111365346.198 8  86778141.26445  21192110.608
  21192097.7884         48.200          35.8004
 113487917.152 8  88432120.30546  21596025.731
  21596013.3804         48.200          38.0004
 120565533.985 7  93947108.13544  22942850.023
  22942836.9094         42.200          29.0004
 120193039.534 7  93656870.19644  22871972.104
  22871957.5254         42.100          28.1004
 16  2 13  3 35 30.0000000  0  9G07G30G28G11G01G13G17G15G19
 122590816.413 6  95525333.22544  23328226.207
  23328213.6214         40.500          25.7004
 111588212.410 7  86951870.15346  21234511.152
  21234500.5594         47.500          37.3004
 108608638.182 7  84630073.65146  20667517.185
  20667502.7244         47.300          38.6004
 119606371.948 7  93199721.38944  22760332.327
  22760318.5694         43.400          25.3004
 122882855.934 6  95752834.14243  23383824.206
  23383815.8404         38.100          22.9004
 111386248.785 8  86794429.00546  21196088.336
  21196075.4574         48.400          37.0004
 113418612.158 8  88378116.42946  21582837.675
  21582825.1484         48.200          38.3004
 120529545.928 6  93919065.50044  22936001.025
  22935989.0254         41.300          29.1004
 120080498.253 6  93569175.74144  22850555.754
  22850541.5274         41.700          28.9004
 16  2 13  3 36  0.0000000  0  9G07G30G28G11G01G13G17G15G19
 122689175.145 6  95601976.35443  23346944.277
  23346930.9874         41.200          22.6004
 111653876.712 8  87003037.13046  21247006.959
  21246996.4834         48.000          37.9004
 108622758.508 7  84641076.51146  20670203.956
  20670190.3154         47.200          38.7004
 119620669.895 7  93210862.62044  22763053.371
  22763039.4954         42.600          25.6004
 122838736.643 6  95718455.48244  23375430.384
  23375420.5534         38.700          24.0004
 111407786.467 8  86811211.61945  21200187.031
  21200173.9184         48.600          35.9004
 113349729.398 8  88324441.56346  21569729.594
  21569717.4764         48.300          38.2004
 120494110.072 7  93891453.17444  22929258.245
  22929245.2494         42.600          27.9004
 119968217.210 7  93481684.07244  22829189.311
  22829174.8494         42.200          27.9004
 16  2 13  3 36 30.0000000  0  9G07G30G28G11G01G13G17G15G19
 122787743.735 6  95678782.99944  23365701.897
  23365688.1974         40.400          24.5004
 111719906.649 8  87054489.02846  21259572.229
  21259561.4024         48.700          37.6004
 108637147.017 7  84652288.35246  20672941.975
  20672928.1584         47.300          39.0004
 119635590.293 7  93222488.90044  22765892.512
  22765878.0514         42.800          25.7004
 122795125.283 6  95684472.64643  23367130.736
  23367121.4914         38.800          21.8004
 111429958.491 8  86828488.51746  21204406.387
  21204393.0984         48.200          36.2004
 113281270.203 8  88271096.77846  21556702.816
  21556690.0554         48.300          38.8004
 120459227.101 7  93864271.64444  22922620.869
  22922607.5214         42.800          28.4004
 119856198.983 7  93394397.21244  22807872.710
  22807858.4834         42.300          28.5004
 16  2 13  3 37  0.0000000  0  9G07G30G28G11G01G13G17G15G19
 122886521.308 6  95755752.49943  23384497.196
  23384485.5474         40.000          22.5004
 111786302.103 7  87106225.74646  21272206.872
  21272195.8104         47.700          37.2004
 108651803.497 7  84663708.98646  20675731.169
  20675717.1764         47.600          39.0004
 119651133.622 7  93234600.59844  22768850.477
  22768836.4254         42.600          25.2004
 122752024.713 6  95650887.80943  23358929.098
  23358919.2664         38.600          22.2004
 111452764.953 8  86846259.78446  21208746.054
  21208732.6484         48.000          36.2004
 113213237.239 7  88218084.11846  21543755.266
  21543743.3834         47.800          38.4004
 120424899.040 7  93837522.53644  22916088.101
  22916074.9884         42.500          29.3004
 119744447.340 6  93307318.06044  22786606.659
  22786593.0184         41.900          28.6004
 16  2 13  3 37 30.0000000  0  9G07G30G28G11G01G13G17G15G19
 122985506.590 6  95832883.82544  23403333.844
  23403321.8444         39.600          24.0004
 111853062.204 7  87158246.60146  21284909.787
  21284899.4284         47.200          37.7004
 108666727.076 7  84675337.74546  20678571.121
  20678557.1284         47.600          38.4004
 119667299.544 7  93247197.41144  22771926.465
  22771912.7664         42.300          25.6004
 122709437.076 6  95617702.63043  23350824.806
  23350814.7984         38.200          22.3004
 111476204.630 7  86864524.47346  21213206.629
  21213193.5164         47.800          36.6004
 113145631.714 7  88165404.50446  21530890.671
  21530878.3784         47.000          38.6004
 120391126.735 7  93811206.45044  22909660.780
  22909647.9604         43.600          29.7004
 119632964.328 7  93220448.22044  22765392.624
  22765378.6314         42.800          29.6004
 16  2 13  3 38  0.0000000  0  9G07G30G28G11G01G13G17G15G19
 123084701.421 6  95910178.47443  23422209.544
  23422197.2514         39.500          23.0004
 111920189.005 7  87210553.19046  21297684.297
  21297673.3524         47.800          37.6004
 108681920.071 7  84687176.45346  20681462.390
  20681448.1044         47.500          39.5004
 119684090.709 7  93260281.44944  22775121.551
  22775107.9694         42.300          25.1004
 122667367.347 6  95584921.03543  23342819.086
  23342809.0794         37.400          21.1004
 111500279.319 7  86883283.96446  21217787.897
  21217774.6664         47.600          36.6004
 113078457.988 7  88113061.36646  21518108.513
  21518095.7514         47.900          37.8004
 120357914.231 6  93785326.59644  22903340.304
  22903328.0704         41.700          28.7004
 119521755.887 7  93133792.32544  22744230.622
  22744216.9814         43.300          29.6004
 16  2 13  3 38 30.0000000  0  9G07G30G28G11G01G13G17G15G19
 123184095.068 6  95987628.02044  23441124.184
  23441111.3634         38.800          25.0004
 111987672.496 7  87263137.72646  21310525.912
  21310515.4364         47.000          37.8004
 108697372.365 7  84699217.21446  20684402.586
  20684388.5934         47.000          39.0004
 119701497.500 7  93273845.18944  22778434.060
  22778420.3604         43.000          25.5004
 122625808.452 6  95552537.51143  23334911.035
  23334900.9114         37.300          20.4004
 111524979.478 8  86902530.84046  21222488.076
  21222475.1384         48.000          37.1004
 113011708.427 8  88061048.75846  21505406.683
  21505393.4524         48.000          38.6004
 120325253.571 6  93759876.75344  22897126.045
  22897113.7524         41.000          29.1004
 119410815.297 7  93047345.14444  22723119.335
  22723105.4014         43.200          29.4004
 16  2 13  3 39  0.0000000  0  9G07G30G28G11G01G13G17G15G19
 123283695.725 6  96065238.86043  23460075.987
  23460065.0424         38.100          22.5004
 112055521.552 7  87316007.10646  21323437.225
  21323426.3384         47.300          37.0004
 108713093.128 7  84711467.16446  20687393.913
  20687379.6864         46.700          39.2004
 119719529.231 7  93287895.87343  22781864.146
  22781851.7954         42.400          23.0004
 122584772.146 6  95520561.15443  23327101.284
  23327091.6874         38.100          21.5004
 111550313.283 7  86922271.46946  21227308.603
  21227295.9004         47.000          36.8004
 112945394.232 7  88009375.38746  21492786.592
  21492774.4164         46.400          38.3004
 120293155.227 7  93734865.08144  22891018.030
  22891005.5614         42.400          28.9004
 119300155.234 7  92961116.55644  22702060.814
  22702046.7044         43.400          28.5004
 16  2 13  3 39 30.0000000  0  9G07G30G28G11G01G13G17G15G19
 123383498.646 6  96143007.34443  23479067.706
  23479056.2924         39.000          22.2004
 112123731.569 8  87369157.77046  21336417.280
  21336406.8624         48.300          37.8004
 108729077.817 7  84723922.78046  20690435.605
  20690421.8464         46.700          38.6004
 119738182.007 6  93302430.51144  22785415.070
  22785400.7844         41.800          24.9004
 122544256.768 6  95488990.76443  23319391.775
  23319382.3544         39.100          21.7004
 111576276.399 7  86942502.47846  21232249.309
  21232236.5474         46.800          36.0004
 112879513.451 7  87958039.70746  21480250.071
  21480237.8364         47.300          39.0004
 120261616.186 7  93710289.22344  22885015.681
  22885003.5054         42.600          28.8004
 119189774.324 7  92875105.49144  22681056.694
  22681042.4084         42.400          27.7004
 16  2 13  3 40  0.0000000  0  9G07G30G28G11G01G13G17G15G19
 123483502.308 6  96220932.19343  23498098.986
  23498086.7524         37.500          21.8004
 112192301.750 8  87422589.07646  21349465.048
  21349455.3344         48.200          37.7004
 108745325.931 7  84736583.65246  20693527.653
  20693513.4264         47.500          39.8004
 119757455.309 7  93317448.68244  22789082.620
  22789068.6864         43.100          24.3004
 122504264.437 6  95457827.90343  23311781.468
  23311771.8124         38.800          22.5004
 111602867.713 7  86963222.98546  21237309.379
  21237296.6174         46.700          36.1004
 112814067.239 8  87907042.69246  21467797.890
  21467783.3704         48.200          39.0004
 120230637.863 7  93686150.27744  22879121.504
  22879108.6844         42.200          29.3004
 119079675.749 7  92789314.44044  22660105.581
  22660090.2404         43.200          29.4004
 16  2 13  3 40 30.0000000  0  9G07G30G28G11G01G13G17G15G19
 123583705.377 6  96299012.49543  23517166.410
  23517154.5274         38.300          21.8004
 112261231.109 8  87476300.25646  21362582.502
  21362571.6744         48.200          36.9004
 108761836.381 7  84749448.94946  20696669.317
  20696655.7344         47.400          39.4004
 119777348.469 7  93332949.83544  22792868.174
  22792854.0644         42.100          24.6004
 122464797.049 6  95427074.12043  23304271.563
  23304261.6144         38.800          22.0004
 111630086.147 7  86984432.15046  21242489.597
  21242476.3664         47.000          36.5004
 112749057.073 7  87856385.44946  21455425.226
  21455412.6404         47.300          38.8004
 120200220.999 7  93662448.84044  22873333.200
  22873320.3794         42.600          29.5004
 118969861.912 7  92703745.24744  22639209.150
  22639194.2204         43.400          29.2004
 16  2 13  3 41  0.0000000  0  9G07G30G28G11G01G13G17G15G19
 123684107.448 6  96377247.81043  23536272.334
  23536260.5104         39.100          21.8004
 112330519.725 7  87530291.38646  21375767.996
  21375757.0514         46.800          37.3004
 108778609.432 7  84762518.86846  20699861.173
  20699847.2394         47.500          38.4004
 119797862.122 7  93348934.50044  22796772.127
  22796757.6664         42.300          24.7004
 122425857.516 6  95396731.63943  23296860.398
  23296851.5054         39.300          22.9004
 111657931.675 7  87006129.96346  21247788.184
  21247774.6604         47.500          36.3004
 112684485.444 7  87806069.89846  21443137.079
  21443124.8454         47.400          38.6004
 120170367.391 7  93639186.31044  22867652.141
  22867639.6734         42.900          29.7004
 118860336.495 7  92618400.80644  22618365.963
  22618352.0294         43.100          29.9004
 16  2 13  3 41 30.0000000  0  9G07G30G28G11G01G13G17G15G19
 123784706.508 6  96455636.64243  23555416.606
  23555404.4304         39.600          22.0004
 112400165.816 7  87584561.06046  21389020.908
  21389010.2564         47.500          37.0004
 108795643.708 7  84775792.33546  20703102.471
  20703089.1234         47.100          39.2004
 119818994.616 7  93365401.37244  22800793.051
  22800778.8824         42.000          24.4004
 122387447.052 6  95366801.40443  23289552.477
  23289542.4114         39.500          22.6004
 111686402.506 7  87028315.02146  21253205.884
  21253192.7714         46.800          36.1004
 112620352.962 8  87756096.57046  21430934.858
  21430920.6894         48.500          38.5004
 120141076.940 7  93616362.58545  22862078.250
  22862066.1334         43.200          30.4004
 118751101.359 7  92533282.57245  22597580.287
  22597565.5324         43.600          31.1004
 16  2 13  3 42  0.0000000  0  9G07G30G28G11G01G13G17G15G19
 123885504.236 6  96534180.28343  23574596.762
  23574585.2314         39.100          22.2004
 112470171.904 7  87639111.24646  21402342.229
  21402331.8114         47.100          36.6004
 108812941.700 7  84789271.28846  20706394.582
  20706380.6474         46.900          39.2004
 119840749.009 7  93382352.86043  22804932.631
  22804918.7554         42.100          23.2004
 122349570.894 6  95337287.52243  23282345.101
  23282334.3904         39.600          22.9004
 111715500.621 7  87050988.87346  21258742.873
  21258729.8184         47.900          36.0004
 112556664.488 7  87706469.23846  21418814.422
  21418801.2504         47.000          38.4004
 120112354.271 7  93593981.30045  22856613.524
  22856600.1174         43.300          30.8004
 118642162.353 7  92448395.08144  22576849.261
  22576834.3304         42.600          29.3004
 16  2 13  3 42 30.0000000  0  9G07G30G28G11G01G13G17G15G19
 123986491.246 6  96612871.41043  23593815.806
  23593802.5754         40.000          22.8004
 112540528.971 7  87693934.92146  21415731.317
  21415720.3724         47.600          37.0004
 108830494.742 7  84802948.99546  20709734.354
  20709720.8304         47.900          38.8004
 119863116.567 6  93399782.13444  22809188.749
  22809174.8734         41.900          24.3004
 122312222.949 6  95308185.24143  23275237.908
  23275227.6664         39.700          23.0004
 111745216.847 8  87074144.37746  21264398.235
  21264384.2424         48.300          36.6004
 112493413.271 7  87657182.57946  21406776.267
  21406765.2054         45.600          39.0004
 120084191.798 7  93572036.54445  22851254.138
  22851240.3214         43.100          31.2004
 118533514.158 7  92363734.21244  22556174.138
  22556160.0874         43.200          29.6004
 16  2 13  3 43  0.0000000  0  9G07G30G28G11G01G13G17G15G19
 124087673.193 6  96691714.46243  23613069.977
  23613056.9814         39.000          22.2004
 112611243.087 7  87749036.83646  21429188.150
  21429177.3814         47.400          37.2004
 108848309.010 7  84816830.23646  20713124.295
  20713110.7124         47.400          39.3004
 119886103.723 6  93417694.20343  22813564.145
  22813549.0974         41.900          23.6004
 122275412.019 6  95279501.41343  23268232.063
  23268222.5844         39.200          23.0004
 111775556.999 7  87097786.05545  21270171.124
  21270157.6004         47.500          35.6004
 112430607.348 8  87608242.93946  21394828.874
  21394813.4754         48.800          39.3004
 120056597.601 7  93550534.57345  22846003.727
  22845989.3834         43.800          30.2004
 118425166.504 7  92279307.52245  22535556.758
  22535542.2384         43.600          30.4004
 16  2 13  3 43 30.0000000  0  9G07G30G28G11G01G13G17G15G19
 124189047.133 6  96770707.08443  23632359.765
  23632347.5304         38.500          22.0004
 112682311.788 7  87804415.03746  21442711.193
  21442701.0104         47.500          36.7004
 108866382.250 7  84830913.27246  20716563.923
  20716549.8714         47.000          38.8004
 119909708.137 7  93436087.27844  22818055.539
  22818041.1944         42.600          24.6004
 122239138.611 6  95251236.43243  23261329.816
  23261319.6914         39.200          22.6004
 111806518.706 8  87121912.05946  21276063.325
  21276049.8604         48.600          36.1004
 112368247.001 7  87559650.51446  21382959.559
  21382946.5634         47.200          38.5004
 120029570.577 7  93529474.56944  22840859.707
  22840846.4184         43.600          29.6004
 118317120.531 7  92195115.90044  22514995.979
  22514980.9314         44.100          29.8004
 16  2 13  3 44  0.0000000  0  9G07G30G28G11G01G13G17G15G19
 124290612.352 6  96849848.76943  23651687.683
  23651674.6864         38.500          20.4004
 112753734.752 7  87860069.27746  21456303.020
  21456292.7204         47.600          36.8004
 108884714.281 7  84845197.98046  20720052.484
  20720038.3164         47.600          39.0004
 119933930.140 6  93454961.56244  22822664.408
  22822650.5914         41.000          24.8004
 122203405.059 6  95223392.12544  23254528.584
  23254519.9834         39.000          24.7004
 111838100.987 7  87146521.62846  21282072.789
  21282059.8524         47.200          36.5004
 112306334.026 7  87511406.62046  21371177.509
  21371164.8064         47.900          39.1004
 120003112.279 7  93508857.72444  22835824.335
  22835811.5734         43.000          29.8004
 118209379.537 7  92111161.91944  22494492.490
  22494478.2054         42.900          29.9004
 16  2 13  3 44 30.0000000  0  9G07G30G28G11G01G13G17G15G19
 124392366.443 6  96929137.63043  23671048.920
  23671037.6244         37.200          19.6004
 112825510.259 7  87915998.23846  21469961.690
  21469950.5694         47.900          37.4004
 108903303.511 7  84859683.10546  20723589.624
  20723575.8074         47.700          39.0004
 119958767.950 6  93474315.71144  22827390.293
  22827377.2384         41.500          24.1004
 122168212.513 6  95195969.37943  23247832.302
  23247823.1744         38.800          23.0004
 111870301.770 8  87171613.13246  21288200.595
  21288187.3644         48.400          36.0004
 112244868.840 8  87463511.72146  21359482.894
  21359468.3734         48.200          39.2004
 119977222.761 7  93488684.09245  22830897.261
  22830885.0854         42.800          30.8004
 118101945.144 7  92027446.85244  22474049.250
  22474034.2614         43.900          29.9004
 16  2 13  3 45  0.0000000  0  9G07G30G28G11G01G13G17G15G19
 124494307.827 6  97008572.44143  23690449.280
  23690436.8114         38.400          19.9004
 112897636.913 8  87972200.81846  21483687.249
  21483676.1874         48.100          36.5004
 108922148.780 7  84874367.73646  20727175.827
  20727162.0684         47.800          39.0004
 119984220.385 6  93494148.77443  22832233.025
  22832220.2634         41.300          22.2004
 122133562.397 6  95168969.29844  23241238.028
  23241229.7204         39.900          24.2004
 111903119.720 8  87197185.55146  21294445.781
  21294432.6094         48.300          36.2004
 112183852.765 7  87415966.73746  21347869.014
  21347857.3664         46.800          38.8004
 119951902.465 7  93468953.98044  22826079.667
  22826066.7884         42.700          29.1004
 117994819.364 7  91943972.26245  22453663.484
  22453649.1394         43.600          30.8004
 16  2 13  3 45 30.0000000  0  9G07G30G28G11G01G13G17G15G19
 124596434.566 6  97088151.64343  23709882.750
  23709871.6884         38.400          21.7004
 112970113.306 7  88028675.92446  21497478.242
  21497467.1804         46.800          36.3004
 108941249.158 7  84889251.15146  20730810.483
  20730796.6074         47.700          38.5004
 120010286.473 6  93514460.02443  22837194.211
  22837180.3944         40.400          22.9004
 122099455.962 6  95142392.87244  23234749.248
  23234739.1824         40.300          24.5004
 111936552.902 8  87223237.38645  21300808.461
  21300794.5854         48.500          35.6004
 112123286.803 7  87368772.48246  21336345.899
  21336331.8484         47.900          38.7004
 119927151.421 7  93449667.48044  22821369.266
  22821356.8564         42.100          29.9004
 117888004.947 7  91860740.28945  22433338.618
  22433323.3354         44.500          31.0004
 16  2 13  3 46  0.0000000  0 10G07G24G30G28G11G01G13G17G15G19
 124698749.872 6  97167877.81143  23729354.348
  23729341.0004         39.300          20.4004
                                  25127670.826
                        33.300
 113042942.807 7  88085426.18046  21511337.465
  21511326.7554         47.700          36.0004
 108960608.224 7  84904336.14246  20734494.254
  20734480.4374         47.700          38.9004
 120036970.209 6  93535252.53243  22842271.961
  22842258.3784         41.400          22.8004
 122065899.495 6  95116245.00143  23228364.176
  23228353.2894         39.400          22.3004
 111970604.451 8  87249771.07045  21307287.640
  21307274.2924         48.100          35.6004
 112063176.087 7  87321932.99446  21324905.564
  21324893.1544         46.900          38.6004
 119902974.642 7  93430828.45044  22816769.336
  22816755.9294         43.500          29.1004
 117781509.073 7  91777756.52145  22413072.522
  22413057.6504         44.600          31.3004
 16  2 13  3 46 30.0000000  0 10G07G24G30G28G11G01G13G17G15G19
 124801236.656 6  97247737.59643  23748857.494
  23748843.9704         39.600          20.9004
 131941190.286 5                  25107571.875
                        33.200
 113116109.125 7  88142438.88846  21525260.308
  21525249.8904         47.300          36.7004
 108980209.865 7  84919610.15646  20738224.104
  20738210.5224         47.900          39.3004
 120064255.022 6  93556513.42843  22847463.849
  22847449.6804         40.900          22.9004
 122032879.203 6  95090514.88643  23222079.239
  23222069.8764         38.900          22.5004
 112005257.709 8  87276773.61845  21313882.310
  21313868.7284         48.100          35.9004
 112003506.734 7  87275437.37946  21313551.093
  21313538.8584         47.300          38.6004
 119879357.764 7  93412425.69444  22812274.693
  22812261.8144         43.300          29.3004
 117675318.629 7  91695010.74745  22392864.593
  22392850.2494         44.600          31.0004
 16  2 13  3 47  0.0000000  0 10G07G24G30G28G11G01G13G17G15G19
 124903914.765 6  97327746.43543  23768394.822
  23768382.9984         38.300          20.9004
 131835611.373 5                  25087479.800
                        32.400
 113189632.443 7  88199729.77446  21539251.413
  21539240.8784         47.400          36.3004
 109000074.748 7  84935089.29046  20742004.849
  20741990.7984         47.900          38.7004
 120092161.415 6  93578258.67043  22852774.838
  22852760.5534         41.500          22.9004
 122000418.142 6  95065220.57043  23215900.789
  23215892.4224         38.200          22.6004
 112040532.314 8  87304260.30545  21320594.667
  21320581.1434         48.200          35.3004
 111944301.134 8  87229303.18146  21302285.938
  21302272.1214         48.300          38.7004
 119856322.327 7  93394476.02345  22807890.704
  22807878.4114         43.000          30.2004
 117569457.310 7  91612521.44945  22372720.549
  22372705.3844         44.500          30.5004
 16  2 13  3 47 30.0000000  0 10G07G24G30G28G11G01G13G17G15G19
 125006773.208 6  97407895.82743  23787969.418
  23787957.0084         38.100          20.6004
 131730059.228 5                  25067397.364
                        33.900
 113263502.278 7  88257290.67546  21553308.445
  21553297.7344         47.000          36.7004
 109020192.192 7  84950765.22746  20745832.912
  20745819.0954         47.900          39.2004
 120120678.946 6  93600480.11644  22858200.282
  22858187.4034         40.600          24.5004
 121968508.564 6  95040355.98643  23209829.519
  23209820.2734         39.200          22.0004
 112076417.458 8  87332222.73946  21327423.353
  21327409.8294         48.000          36.5004
 111885551.206 7  87183524.02446  21291104.898
  21291092.5474         47.500          38.7004
 119833859.640 7  93376972.63545  22803617.118
  22803603.8284         43.200          30.4004
 117463918.344 7  91530283.32145  22352636.488
  22352621.9674         43.700          30.2004
 16  2 13  3 48  0.0000000  0 10G07G24G30G28G11G01G13G17G15G19
 125109814.795 6  97488187.93043  23807575.443
  23807564.8504         37.100          19.3004
                                  25047314.091
                        33.800
 113337722.046 7  88315124.24246  21567432.547
  21567421.4844         47.500          36.6004
 109040566.572 7  84966641.36346  20749710.046
  20749696.2884         47.600          39.2004
 120149811.194 6  93623180.56943  22863744.058
  22863731.7064         40.500          22.6004
 121937156.556 6  95015925.86543  23203865.621
  23203854.0904         40.400          23.8004
 112112915.995 7  87360663.16445  21334368.580
  21334355.4674         46.900          35.7004
 111827262.450 7  87138104.22846  21280013.577
  21280000.6984         47.600          38.8004
 119811974.588 7  93359919.35845  22799452.931
  22799439.6414         43.200          30.0004
 117358708.718 7  91448301.82945  22332615.605
  22332601.6124         43.900          31.4004
 16  2 13  3 48 30.0000000  0 10G07G24G30G28G11G01G13G17G15G19
 125213026.285 6  97568612.41243  23827217.480
  23827205.4224         36.500          19.9004
 131519030.769 5 102482322.01242  25027240.075
  25027231.2404         33.100          16.3004
 113412278.322 7  88373220.03146  21581619.721
  21581608.9524         47.500          36.1004
 109061184.391 8  84982707.19746  20753633.600
  20753619.6664         48.000          39.0004
 120179544.890 6  93646349.68743  22869402.439
  22869389.0914         40.400          23.2004
 121906351.370 6  94991921.83644  23198002.541
  23197992.1824         40.500          24.4004
 112150014.203 8  87389570.84945  21341428.716
  21341415.1924         48.000          35.7004
 111769423.994 7  87093035.31446  21269006.683
  21268993.9214         47.700          39.5004
 119790655.356 7  93343306.98144  22795394.515
  22795382.2814         43.700          29.9004
 117253818.642 7  91366569.33645  22312656.021
  22312641.6184         44.300          32.2004
 16  2 13  3 49  0.0000000  0 10G07G24G30G28G11G01G13G17G15G19
 125316418.043 6  97649177.37143  23846893.260
  23846879.8534         38.600          20.4004
 131413568.558 5 102400143.85642  25007170.642
  25007163.2724         33.200          15.6004
 113487182.063 7  88431586.59446  21595873.014
  21595862.8894         47.100          36.3004
 109082056.907 7  84998971.49846  20757605.573
  20757591.2874         47.900          39.1004
 120209891.078 6  93669996.06443  22875177.620
  22875163.8614         41.100          22.8004
 121876106.650 6  94968354.52344  23192246.848
  23192237.0174         40.700          24.6004
 112187722.696 8  87418954.08846  21348603.872
  21348590.4064         48.600          36.0004
 111712048.753 8  87048327.34646  21258089.456
  21258076.2254         48.800          39.4004
 119769914.585 7  93327145.37145  22791448.332
  22791435.4534         43.300          30.0004
 117149262.774 7  91285097.25845  22292759.753
  22292745.2914         45.300          32.2004
 16  2 13  3 49 30.0000000  0 10G07G24G30G28G11G01G13G17G15G19
 125419984.386 6  97729878.33043  23866601.624
  23866588.0424         38.500          21.1004
 131308139.332 5 102317991.34742  24987107.907
  24987100.3034         32.600          15.6004
 113562428.085 7  88490219.84845  21610192.258
  21610181.6064         47.000          35.5004
 109103179.316 7  85015430.53946  20761624.982
  20761610.9894         47.500          39.1004
 120240844.717 6  93694115.77043  22881068.932
  22881054.4704         40.700          23.2004
 121846419.827 6  94945221.94743  23186597.421
  23186588.0004         38.900          22.8004
 112226036.051 8  87448808.65045  21355893.959
  21355881.1384         48.500          34.9004
 111655133.675 7  87003977.95946  21247258.397
  21247245.7534         47.900          39.7004
 119749748.581 7  93311431.59845  22787612.115
  22787597.7704         43.900          30.5004
 117045039.652 7  91203884.46445  22272926.224
  22272912.2904         44.200          32.3004
 16  2 13  3 50  0.0000000  0 10G07G24G30G28G11G01G13G17G15G19
 125523725.306 6  97810715.39043  23886340.580
  23886329.4594         37.700          20.6004
 131202746.128 5 102235867.05442  24967052.330
  24967045.0784         33.100          14.8004
 113638016.855 7  88549120.17846  21624575.850
  21624565.9604         46.400          36.1004
 109124552.477 8  85032084.94346  20765692.027
  20765678.0344         48.100          39.5004
 120272406.602 6  93718709.45943  22887074.807
  22887060.4634         41.600          22.0004
 121817294.008 6  94922526.51144  23181055.067
  23181045.4704         40.500          26.0004
 112264953.827 7  87479134.19445  21363300.233
  21363287.1784         47.500          35.3004
 111598681.895 8  86959989.57346  21236515.821
  21236502.8844         48.100          39.3004
 119730159.374 7  93296167.28945  22783883.230
  22783870.5854         42.200          31.3004
 116941153.285 7  91122934.08345  22253157.797
  22253143.0424         44.900          32.3004
 16  2 13  3 50 30.0000000  0 10G07G24G30G28G11G01G13G17G15G19
 125627638.037 6  97891686.29543  23906115.601
  23906102.9564         37.600          19.6004
 131097389.497 5                  24947003.267
                        32.200
 113713946.025 7  88608285.76046  21639025.047
  21639014.6884         46.800          36.2004
 109146174.340 8  85048933.16146  20769806.430
  20769792.5544         48.200          39.3004
 120304574.258 7  93743775.15143  22893196.260
  22893181.6824         42.000          22.9004
 121788729.467 6  94900268.43943  23175619.438
  23175609.9004         39.600          23.8004
 112304473.296 8  87509928.59345  21370820.605
  21370807.6094         48.000          35.3004
 111542693.030 8  86916361.90746  21225861.747
  21225848.5164         48.200          39.6004
 119711145.970 7  93281351.66245  22780264.815
  22780252.6394         44.200          31.1004
 116837605.150 7  91042247.26145  22233452.842
  22233438.2054         45.100          32.3004
 16  2 13  3 51  0.0000000  0 10G07G24G30G28G11G01G13G17G15G19
 125731721.695 6  97972790.43143  23925922.127
  23925908.7794         36.100          18.6004
 130992071.437 5                  24926962.704
                        31.800
 113790215.219 7  88667716.29045  21653538.459
  21653527.9244         46.700          35.9004
 109168044.831 8  85065975.11246  20773968.443
  20773954.5684         48.500          39.4004
 120337347.285 6  93769312.59943  22899431.692
  22899417.9344         40.600          23.8004
 121760728.533 6  94878449.52444  23170291.319
  23170281.7224         40.500          25.7004
 112344593.728 8  87541191.26246  21378455.528
  21378442.5904         48.000          36.0004
 111487168.787 8  86873096.26746  21215295.440
  21215282.9134         48.200          39.3004
 119692709.788 7  93266985.80845  22776756.652
  22776744.0664         44.200          30.8004
 116734397.964 7  90961826.09345  22213813.475
  22213798.8964         45.000          31.5004
 16  2 13  3 51 30.0000000  0 10G07G24G30G28G11G01G13G17G15G19
 125835974.366 6  98054026.20643  23945760.417
  23945748.2414         37.200          19.0004
 130886793.189 5                  24906928.740
                        32.600
 113866822.725 7  88727410.44345  21668116.493
  21668105.6654         47.000          35.6004
 109190162.707 7  85083209.82646  20778177.132
  20778163.2574         47.800          38.9004
 120370724.244 6  93795320.58743  22905783.324
  22905769.3314         41.300          22.8004
 121733291.997 6  94857070.41244  23165070.593
  23165060.5854         39.600          25.6004
 112385312.847 7  87572920.43845  21386203.892
  21386190.6024         47.700          35.7004
 111432109.995 7  86830193.33246  21204818.215
  21204805.0434         47.900          39.4004
 119674850.521 7  93253069.49745  22773357.988
  22773345.8714         43.700          31.8004
 116631533.938 7  90881672.33245  22194238.744
  22194224.3414         44.700          32.3004
 16  2 13  3 52  0.0000000  0 10G07G24G30G28G11G01G13G17G15G19
 125940398.013 5  98135395.27343  23965631.949
  23965619.4804         35.700          19.0004
 130781559.698 5                  24886903.353
                        31.600
 113943771.017 7  88787370.14746  21682759.518
  21682749.2174         47.100          36.1004
 109212530.983 8  85100639.66146  20782433.257
  20782419.6754         48.000          39.5004
 120404707.434 6  93821801.01643  22912251.504
  22912236.7494         41.400          23.6004
 121706424.943 6  94836135.05744  23159957.490
  23159947.8344         39.300          25.1004
 112426632.537 7  87605117.59345  21394066.774
  21394053.3084         46.800          35.9004
 111377521.040 8  86787656.49446  21194430.526
  21194417.1194         48.400          39.9004
 119657572.056 7  93239605.78345  22770070.169
  22770057.6414         43.100          31.3004
 116529019.473 7  90801790.96945  22174730.303
  22174716.4284         44.000          32.5004
 16  2 13  3 52 30.0000000  0 10G07G24G30G28G11G01G13G17G15G19
 126044981.481 6  98216888.81943  23985533.126
  23985520.8334         36.900          19.3004
 130676362.911 5 101825696.04542  24866885.078
  24866875.3054         33.100          16.3004
 114021049.356 7  88847587.03646  21697465.161
  21697454.2164         46.700          36.0004
 109235138.861 8  85118256.19746  20786735.925
  20786721.9914         48.300          38.8004
 120439286.049 6  93848745.39044  22918831.477
  22918816.6644         41.600          24.1004
 121680119.165 6  94815637.06144  23154951.488
  23154942.4774         38.600          24.6004
 112468541.359 7  87637773.82245  21402042.074
  21402028.4914         47.700          34.5004
 111323393.178 8  86745478.95646  21184130.758
  21184117.0594         48.400          39.5004
 119640865.149 7  93226587.41245  22766890.730
  22766878.1444         43.700          30.8004
 116426847.144 7  90722176.18545  22155288.062
  22155273.9524         44.900          33.4004
 16  2 13  3 53  0.0000000  0 10G07G24G30G28G11G01G13G17G15G19
 126149733.735 5  98298513.89043  24005467.637
  24005455.1684         35.800          19.0004
 130571215.100 5 101743762.75842  24846875.156
  24846867.2004         32.000          15.6004
 114098666.809 7  88908068.14845  21712235.901
  21712224.8394         46.700          35.7004
 109257996.225 7  85136067.13246  20791085.813
  20791071.7624         47.800          39.0004
 120474469.113 6  93876160.75043  22925526.937
  22925511.5374         40.900          23.0004
 121654386.379 6  94795585.53543  23150054.408
  23150045.8074         38.600          23.6004
 112511048.103 8  87670895.95945  21410130.446
  21410117.3914         48.100          35.2004
 111269737.880 8  86703669.65146  21173920.492
  21173906.9684         48.300          39.8004
 119624740.339 7  93214022.65245  22763822.670
  22763809.7914         43.300          30.2004
 116325029.656 7  90642837.92245  22135913.295
  22135898.4234         45.500          33.2004
 16  2 13  3 53 30.0000000  0 10G07G24G30G28G11G01G13G17G15G19
 126254648.940 6  98380265.90243  24025431.687
  24025420.1564         36.000          19.6004
 130466113.055 5 101661865.20942  24826874.719
  24826866.2944         32.600          14.8004
 114176618.079 7  88968809.39245  21727069.154
  21727058.3264         47.000          35.6004
 109281097.988 8  85154068.51246  20795481.248
  20795467.7824         48.000          38.9004
 120510251.707 6  93904043.28643  22932336.083
  22932321.4464         41.700          22.9004
 121629223.745 6  94775978.29243  23145266.442
  23145257.1974         39.600          23.8004
 112554146.760 8  87704479.32345  21418332.359
  21418319.1284         48.200          35.3004
 111216552.034 8  86662226.14846  21163799.420
  21163786.1894         48.900          40.2004
 119609193.911 7  93201908.56945  22760863.989
  22760851.6964         43.500          30.6004
 116223565.465 7  90563774.94345  22116605.385
  22116590.3964         44.900          32.4004
 16  2 13  3 54  0.0000000  0 10G07G24G30G28G11G01G13G17G15G19
 126359726.520 6  98462144.46943  24045426.826
  24045415.9404         36.900          20.6004
 130361060.011 5 101580005.79742  24806883.850
  24806875.4254         33.800          15.6004
 114254903.153 7  89029810.73745  21741965.578
  21741955.5714         46.200          35.3004
 109304444.728 7  85172260.77846  20799924.174
  20799910.0644         47.500          39.5004
 120546633.569 6  93932392.78643  22939258.438
  22939244.2694         41.700          22.9004
 121604633.785 6  94756817.27043  23140586.919
  23140577.7904         39.000          22.5004
 112597836.493 7  87738523.26945  21426645.896
  21426632.5484         47.200          35.3004
 111163838.008 8  86621150.30146  21153767.877
  21153755.1154         48.400          40.3004
 119594227.189 7  93190246.19245  22758015.903
  22758003.4344         42.000          30.9004
 116122458.196 7  90484990.08045  22097364.515
  22097349.7614         44.700          32.9004
 16  2 13  3 54 30.0000000  0 10G07G24G30G28G11G01G13G17G15G19
 126464968.221 5  98544150.93543  24065453.588
  24065442.2334         35.800          19.3004
 130256060.546 5 101498188.14142  24786903.096
  24786894.2024         34.200          14.8004
 114333524.106 7  89091073.80245  21756926.195
  21756916.6574         45.600          34.9004
 109328038.803 7  85190645.77346  20804413.980
  20804399.9294         47.900          39.5004
 120583616.589 6  93961210.72043  22946294.912
  22946281.7404         41.300          22.5004
 121580621.026 6  94738106.06543  23136017.731
  23136008.3104         38.800          22.8004
 112642119.096 7  87773029.17945  21435072.396
  21435059.6344         47.500          34.6004
 111111599.402 8  86580444.90746  21143827.282
  21143814.1104         48.400          40.0004
 119579843.547 7  93179038.17445  22755278.879
  22755265.9424         42.900          31.1004
 116021713.460 7  90406487.71845  22078193.971
  22078178.9234         45.100          33.0004
 16  2 13  3 55  0.0000000  0 10G07G24G30G28G11G01G13G17G15G19
 126570362.841 5  98626276.58743  24085509.311
  24085498.3664         35.400          19.0004
 130151106.472 5 101416405.85042  24766930.798
  24766922.6074         34.900          15.6004
 114412469.999 7  89152590.06845  21771950.138
  21771939.6614         45.900          35.2004
 109351869.878 7  85209215.44046  20808949.369
  20808935.2594         47.900          39.5004
 120621189.913 6  93990488.64744  22953445.986
  22953431.5244         41.700          24.3004
 121557177.091 6  94719838.08344  23131556.773
  23131547.1764         38.800          24.8004
 112686982.893 7  87807987.96945  21443609.455
  21443596.5764         47.600          35.5004
 111059827.951 8  86540103.53446  21133975.490
  21133962.3184         48.600          39.9004
 119566033.600 7  93168277.18445  22752651.464
  22752638.2914         42.900          30.9004
 115921323.994 7  90328262.17045  22059090.140
  22059075.3854         45.100          32.8004
 16  2 13  3 55 30.0000000  0 10G07G24G30G28G11G01G13G17G15G19
 126675923.956 6  98708531.97943  24105597.188
  24105585.7744         36.400          18.3004
                                  24746971.595
  24746962.3504         34.100          16.9004
 114491754.513 7  89214370.20545  21787037.277
  21787026.7424         45.500          35.3004
 109375951.953 7  85227980.70746  20813531.340
  20813517.5814         47.800          39.2004
 120659366.852 6  94020236.90943  22960710.976
  22960696.5144         41.400          22.2004
 121534318.072 6  94702025.87544  23127206.747
  23127197.3844         38.700          24.0004
 112732440.879 7  87843409.77845  21452260.150
  21452247.0364         46.500          35.1004
 111008539.374 8  86500138.41546  21124215.154
  21124202.7434         48.200          39.4004
 119552812.201 7  93157974.80845  22750135.336
  22750122.5744         43.300          30.7004
 115821307.231 7  90250327.05745  22040057.599
  22040042.8454         44.900          33.5004
 16  2 13  3 56  0.0000000  0 10G07G24G30G28G11G01G13G17G15G19
 126781629.334 6  98790899.73343  24125712.965
  24125701.1994         36.100          18.6004
 129941359.495 5 101252974.34642  24727019.331
  24727010.3794         33.700          17.4004
 114571355.929 7  89276397.27845  21802185.499
  21802174.3194         46.800          35.5004
 109400263.875 7  85246925.05746  20818158.089
  20818144.2724         47.200          39.0004
 120698125.895 6  94050438.77443  22968086.555
  22968072.0354         41.300          22.5004
 121512024.786 6  94684654.50044  23122963.943
  23122955.2254         39.600          24.8004
 112778470.607 7  87879277.09245  21461019.381
  21461006.0914         47.800          35.1004
 110957714.035 8  86460534.27046  21114542.939
  21114530.0594         48.900          39.5004
 119540159.133 7  93148115.28845  22747727.243
  22747713.8364         43.500          31.3004
 115721645.029 7  90172668.23045  22021093.523
  22021078.2404         45.800          34.0004
 16  2 13  3 56 30.0000000  0 10G07G24G30G28G11G01G13G17G15G19
 126887494.986 6  98873392.43543  24145858.679
  24145846.6204         36.900          18.6004
 129836573.970 5 101171323.45042  24707077.952
  24707069.9964         32.600          16.3004
 114651291.029 7  89338684.36145  21817396.424
  21817385.5964         46.200          34.8004
 109424822.865 8  85266061.93446  20822831.269
  20822817.6284         48.500          39.1004
 120737483.574 6  94081107.08643  22975575.325
  22975561.0984         41.100          21.8004
 121490316.397 6  94667738.88843  23118832.598
  23118824.2314         40.100          23.5004
 112825088.505 7  87915602.73245  21469891.016
  21469877.3164         47.900          35.0004
 110907370.902 7  86421305.86946  21104963.292
  21104950.3544         47.900          40.1004
 119528092.521 7  93138712.74645  22745430.965
  22745417.9694         43.400          31.0004
 115622357.893 7  90095301.66045  22002198.874
  22002184.5884         44.600          33.9004
 16  2 13  3 57  0.0000000  0 10G07G24G30G28G11G01G13G17G15G19
 126993514.685 6  98956005.09943  24166034.967
  24166021.2084         37.700          19.9004
 129731848.263 5 101089719.09142  24687149.502
  24687140.7264         33.700          15.6004
 114731553.534 7  89401226.56745  21832669.817
  21832658.5794         45.600          33.9004
 109449623.103 8  85285386.80146  20827550.883
  20827536.7144         48.300          39.2004
 120777433.454 6  94112236.86443  22983177.556
  22983163.2704         40.900          22.3004
 121469188.975 6  94651275.96043  23114813.655
  23114803.1204         39.500          22.8004
 112872287.151 7  87952380.89645  21478871.782
  21478858.6684         47.300          34.8004
 110857505.733 8  86382449.90746  21095474.418
  21095461.5984         48.500          39.8004
 119516607.591 7  93129763.45545  22743245.638
  22743232.6424         43.200          30.7004
 115523442.906 7  90018225.07845  21983375.911
  21983361.1564         44.700          34.0004
 16  2 13  3 57 30.0000000  0 10G07G24G30G28G11G01G13G17G15G19
 127099686.131 6  99038735.99343  24186237.297
  24186225.1214         37.400          19.3004
 129627182.795 5 101008161.72842  24667232.643
  24667222.8704         35.200          17.4004
 114812141.575 7  89464022.43445  21848005.372
  21847994.2514         45.500          34.4004
 109474663.285 7  85304898.63946  20832315.451
  20832301.5754         47.200          39.0004
 120817973.724 6  94143826.66943  22990893.053
  22990878.0054         40.800          22.6004
 121448643.244 6  94635266.31044  23110903.563
  23110893.4394         39.700          24.7004
 112920064.094 7  87989609.69045  21487963.898
  21487950.5504         47.000          35.2004
 110808119.008 7  86343966.75946  21086076.058
  21086063.9414         47.900          39.9004
 119505703.508 7  93121266.76645  22741170.253
  22741158.4874         42.700          31.6004
 115424902.234 7  89941440.17145  21964624.519
  21964609.4724         45.500          33.3004
 16  2 13  3 58  0.0000000  0 10G07G24G30G28G11G01G13G17G15G19
 127206010.780 6  99121586.33543  24206470.773
  24206458.4804         37.100          18.6004
 129522582.515 5 100926655.09442  24647328.573
  24647318.2734         34.900          17.4004
 114893056.986 7  89527073.39445  21863402.881
  21863392.0544         45.700          35.3004
 109499945.524 7  85324599.08846  20837126.842
  20837112.9084         47.900          38.6004
 120859105.703 6  94175877.56643  22998719.683
  22998705.3384         41.100          22.9004
 121428683.265 6  94619713.08444  23107105.028
  23107095.3724         39.700          24.1004
 112968420.542 7  88027290.03645  21497165.196
  21497152.7274         45.900          34.5004
 110759214.044 8  86305859.00646  21076770.507
  21076757.6864         48.100          40.5004
 119495383.664 7  93113225.34145  22739206.927
  22739193.8724         44.100          30.9004
 115326740.999 7  89864950.92945  21945944.944
  21945929.8964         44.400          33.7004
 16  2 13  3 58 30.0000000  0 10G07G24G30G28G11G01G13G17G15G19
 127312477.720 5  99204547.53943  24226730.951
  24226718.5404         35.400          19.9004
 129418040.042 5 100845193.52542  24627434.013
  24627424.4174         35.100          17.4004
 114974289.222 7  89590371.23145  21878860.602
  21878850.2434         45.400          34.6004
 109525460.026 7  85344480.52546  20841982.501
  20841968.3914         47.900          39.3004
 120900818.999 6  94208381.42143  23006657.428
  23006643.0254         41.100          22.9004
 121409300.946 6  94604610.00043  23103416.470
  23103407.2844         40.300          23.5004
 113017345.283 7  88065413.20445  21506476.254
  21506462.6724         47.600          34.0004
 110710782.627 7  86268120.24846  21067553.922
  21067541.2194         47.300          39.7004
 119485638.856 7  93105631.97945  22737352.532
  22737339.8294         43.800          30.7004
 115228952.636 7  89788752.23345  21927336.485
  21927322.1404         44.400          34.2004
 16  2 13  3 59  0.0000000  0 10G07G24G30G28G11G01G13G17G15G19
 127419096.102 5  99287626.76743  24247018.485
  24247007.1884         35.400          18.6004
 129313567.520 5 100763786.43842  24607552.978
  24607544.2024         34.500          16.3004
 115055847.630 7  89653923.22045  21894379.924
  21894369.8584         44.600          33.6004
 109551216.671 7  85364550.63646  20846883.722
  20846869.5534         47.600          39.2004
 120943122.547 7  94241345.21643  23014708.356
  23014693.1324         42.400          22.9004
 121390507.933 6  94589966.08944  23099839.717
  23099831.0004         39.800          25.6004
 113066846.873 7  88103985.87045  21515895.539
  21515882.3674         47.500          34.8004
 110662836.559 7  86230759.68946  21058430.199
  21058417.3784         47.800          39.8004
 119476479.219 7  93098494.59945  22735609.431
  22735596.8454         43.600          31.1004
 115131549.804 7  89712853.95945  21908800.741
  21908786.4554         43.000          34.3004
 16  2 13  3 59 30.0000000  0 10G07G24G30G28G11G01G13G17G15G19
 127525860.101 5  99370819.41543  24267335.337
  24267323.9234         35.000          19.3004
 129209162.436 5 100682431.82842  24587685.927
  24587677.1504         34.400          17.4004
 115137726.992 7  89717725.31245  21909961.644
  21909951.2854         45.100          33.5004
 109577210.871 7  85384805.86546  20851830.256
  20851815.8534         47.700          39.2004
 120986011.166 6  94274764.93043  23022869.193
  23022854.7904         41.800          22.8004
 121372301.360 6  94575779.16444  23096374.753
  23096366.2114         40.000          25.8004
 113116919.278 7  88143003.31845  21525424.737
  21525410.9204         47.500          35.1004
 110615372.584 8  86193774.78346  21049397.963
  21049385.1434         48.300          40.3004
 119467901.106 7  93091810.37745  22733977.145
  22733964.0314         43.600          31.4004
 115034531.189 7  89637255.07445  21890338.994
  21890324.3574         43.600          33.9004
 16  2 13  4  0  0.0000000  0 10G07G24G30G28G11G01G13G17G15G19
 127632768.612 5  99454124.72542  24287678.482
  24287668.8854         33.600          16.9004
 129104827.392 5 100601131.97442  24567831.026
  24567823.1874         33.000          16.3004
 115219926.545 7  89781776.89145  21925604.041
  21925593.3894         46.000          34.1004
 109603442.154 7  85405245.83546  20856821.761
  20856807.7694         47.800          39.1004
 121029483.687 6  94308639.59043  23031141.267
  23031127.4504         41.700          23.9004
 121354682.856 6  94562050.46644  23093022.891
  23093013.5874         40.900          24.7004
 113167561.069 8  88182464.45445  21535060.998
  21535047.7094         48.200          35.1004
 110568391.765 8  86157166.35946  21040457.783
  21040444.7284         49.000          39.5004
 119459904.976 7  93085579.63745  22732455.266
  22732442.7984         43.700          30.9004
 114937899.559 7  89561957.71945  21871950.887
  21871935.8394         45.000          34.1004
 16  2 13  4  0 30.0000000  0 10G07G24G30G28G11G01G13G17G15G19
 127739819.174 5  99537540.72542  24308049.985
  24308039.7434         34.300          17.8004
 129000562.558 5 100519886.71942  24547990.811
  24547981.4494         34.400          16.9004
 115302443.597 7  89846075.86945  21941306.847
  21941295.4334         44.600          34.0004
 109629908.432 7  85425868.90846  20861858.274
  20861844.1054         47.900          39.3004
 121073536.931 6  94342966.81343  23039523.409
  23039510.2374         40.000          22.3004
 121337651.923 6  94548779.61343  23089780.747
  23089772.6164         39.400          23.3004
 113218768.665 7  88222366.47045  21544805.689
  21544792.5754         47.600          34.4004
 110521893.600 8  86120934.03346  21031609.741
  21031596.6284         48.800          40.1004
 119452489.187 7  93079801.10045  22731043.962
  22731031.2584         44.100          31.5004
 114841655.684 7  89486962.52045  21853636.132
  21853621.5534         44.900          34.8004
 16  2 13  4  1  0.0000000  0 10G07G24G30G28G11G01G13G17G15G19
 127847011.188 6  99621066.88843  24328448.728
  24328437.7834         36.300          18.6004
 128896371.428 5 100438698.89442  24528163.735
  24528154.1384         34.900          16.9004
 115385278.413 7  89910622.46445  21957069.901
  21957058.8974         45.300          33.4004
 109656610.587 7  85446675.78946  20866939.306
  20866925.4894         47.200          39.2004
 121118171.119 6  94377746.70643  23048017.842
  23048004.2594         38.700          21.3004
 121321211.195 6  94535968.67544  23086653.960
  23086643.3084         40.400          24.6004
 113270541.392 7  88262708.84745  21554658.218
  21554644.3424         47.100          35.0004
 110475880.008 8  86085079.29646  21022853.508
  21022840.5704         48.500          40.3004
 119445655.342 7  93074476.02545  22729743.614
  22729730.9694         43.200          30.5004
 114745803.449 7  89412272.49245  21835396.149
  21835381.6294         44.600          35.1004
 16  2 13  4  1 30.0000000  0 10G07G24G30G28G11G01G13G17G15G19
 127954342.961 5  99704701.95042  24348873.847
  24348861.9064         34.700          17.4004
 128792254.932 5 100357569.22242  24508352.095
  24508340.7994         35.700          17.4004
 115468429.453 7  89975415.45745  21972893.098
  21972881.8014         45.400          33.6004
 109683547.697 7  85467665.74446  20872065.092
  20872051.4514         46.700          38.5004
 121163384.415 6  94412977.86843  23056621.341
  23056607.3484         39.500          22.2004
 121305361.342 6  94523618.13643  23083637.873
  23083627.5724         40.000          23.5004
 113322877.107 7  88303489.91945  21564616.751
  21564603.3444         46.400          34.2004
 110430351.689 8  86049602.69946  21014189.860
  21014177.0984         48.500          40.5004
 119439403.152 7  93069604.19745  22728553.997
  22728541.4694         43.700          31.3004
 114650345.343 7  89337889.57745  21817231.312
  21817216.5584         44.300          34.8004
 16  2 13  4  2  0.0000000  0 10G07G24G30G28G11G01G13G17G15G19
 128061812.605 6  99788444.42842  24369324.934
  24369312.7594         36.500          17.8004
 128688214.794 5 100276499.05643  24488552.500
  24488542.6684         35.400          20.1004
 115551895.101 7  90040453.61145  21988775.573
  21988764.7464         45.300          33.4004
 109710718.775 7  85488838.01346  20877235.178
  20877221.6544         47.000          39.1004
 121209175.166 6  94448658.94743  23065334.896
  23065321.4904         40.800          21.3004
 121290102.974 6  94511728.50644  23080733.906
  23080723.5474         40.200          24.5004
 113375773.187 7  88344707.63545  21574682.419
  21574669.4234         47.400          34.6004
 110385309.410 8  86014504.83646  21005618.636
  21005606.0504         49.200          41.0004
 119433732.436 7  93065185.47445  22727474.551
  22727461.8484         43.200          31.1004
 114555283.196 7  89263815.20645  21799140.921
  21799126.6354         44.600          34.3004
 16  2 13  4  2 30.0000000  0 10G07G24G30G28G11G01G13G17G15G19
 128169419.635 5  99872294.03442  24389800.276
  24389789.5064         35.600          17.8004
 128584253.950 5 100195490.67442  24468769.448
  24468759.5584         34.600          17.8004
 115635675.196 7  90105736.79145  22004718.513
  22004707.4504         44.900          33.3004
 109738124.398 7  85510193.05146  20882450.567
  20882436.8084         46.400          38.9004
 121255542.821 6  94484789.59943  23074159.102
  23074145.6964         40.500          22.2004
 121275438.195 6  94500301.41744  23077942.978
  23077933.3234         40.600          24.4004
 113429228.675 7  88386361.24845  21584854.566
  21584841.9214         46.600          34.4004
 110340755.005 8  85979787.12846  20997140.704
  20997127.2974         48.600          40.7004
 119428643.664 7  93061220.20545  22726506.323
  22726493.7954         42.500          30.4004
 114460620.669 7  89190052.23545  21781126.892
  21781112.6064         44.000          35.0004
 16  2 13  4  3  0.0000000  0 10G07G24G30G28G11G01G13G17G15G19
 128277162.202 5  99956249.25242  24410303.980
  24410292.7424         35.000          16.9004
 128480374.096 5 100114545.35442  24448999.565
  24448993.0744         34.100          17.4004
 115719768.446 7  90171263.98145  22020721.000
  22020710.3484         45.000          33.4004
 109765763.746 7  85531730.20446  20887710.298
  20887696.5404         45.900          39.1004
 121302485.992 6  94521368.67343  23083092.519
  23083078.3514         40.500          22.6004
 121261367.985 6  94489337.62744  23075266.386
  23075256.1444         40.600          25.4004
 113483241.772 7  88428449.38145  21595133.244
  21595120.3064         46.500          34.4004
 110296688.874 8  85945449.89046  20988754.617
  20988741.7964         48.800          40.5004
 119424137.071 7  93057708.57045  22725648.430
  22725636.0204         42.900          30.4004
 114366359.971 7  89116602.38045  21763189.662
  21763175.3764         44.200          35.2004
 16  2 13  4  3 30.0000000  0 10G07G24G30G28G11G01G13G17G15G19
 128385038.585 5 100040308.70242  24430833.037
  24430820.9204         34.600          17.4004
 128376570.304 5 100033657.82142  24429249.012
  24429240.9974         33.700          16.9004
 115804173.084 7  90237033.82945  22036782.275
  22036771.6824         45.400          33.6004
 109793635.737 7  85553448.64446  20893014.307
  20893000.3724         46.900          38.9004
 121350001.921 6  94558394.07343  23092134.056
  23092120.4734         40.400          22.5004
 121247892.683 6  94478837.39144  23072701.838
  23072691.3044         40.400          24.4004
 113537809.359 7  88470969.56645  21605517.202
  21605504.0884         47.000          34.7004
 110253111.420 8  85911493.44646  20980462.197
  20980449.2594         49.200          41.2004
 119420211.839 7  93054649.94845  22724901.594
  22724889.0084         42.300          31.4004
 114272502.630 7  89043466.82245  21745329.729
  21745314.9164         45.300          35.2004
 16  2 13  4  4  0.0000000  0 10G07G24G30G28G11G01G13G17G15G19
 128493046.959 6 100124471.03443  24451385.830
  24451374.2994         37.200          18.3004
 128272856.903 5  99952842.26442  24409512.172
  24409504.8614         33.700          16.9004
 115888887.608 7  90303045.13645  22052903.028
  22052891.9654         44.300          33.4004
 109821739.310 7  85575347.53146  20898362.232
  20898348.0054         46.800          38.8004
 121398088.998 6  94595864.51743  23101283.869
  23101271.5184         39.000          22.6004
 121235013.007 6  94468801.30944  23070249.794
  23070240.8414         40.900          24.6004
 113592929.163 7  88513920.06145  21616005.515
  21615992.8124         47.000          34.3004
 110210022.894 8  85877917.98046  20972263.013
  20972249.7824         48.800          40.9004
 119416867.432 7  93052043.92545  22724265.444
  22724252.7414         42.300          30.1004
 114179050.905 7  88970647.32945  21727546.394
  21727531.6984         45.700          35.9004
 16  2 13  4  4 30.0000000  0 10G07G24G30G28G11G01G13G17G15G19
 128601185.557 5 100208734.83043  24471964.982
  24471952.8654         35.600          18.6004
 128169229.319 5  99872093.58442  24389793.822
  24389785.1634         34.300          16.9004
 115973910.691 7  90369296.86345  22069082.527
  22069071.9924         44.700          33.9004
 109850074.027 7  85597426.53146  20903753.755
  20903739.8214         46.900          39.0004
 121446745.862 6  94633778.95843  23110543.737
  23110530.5064         38.700          22.5004
 121222729.737 6  94459229.92744  23067912.172
  23067903.7474         40.400          25.9004
 113648599.086 7  88557299.21445  21626599.980
  21626585.9874         46.800          34.1004
 110167424.184 8  85844724.19546  20964156.071
  20964143.6614         49.000          40.7004
 119414103.673 7  93049890.36045  22723738.906
  22723726.9644         43.100          30.5004
 114086006.996 7  88898145.61945  21709840.425
  21709826.1984         45.500          35.7004
 16  2 13  4  5  0.0000000  0 10G07G24G30G28G11G01G13G17G15G19
 128709453.546 5 100293099.42242  24492566.213
  24492556.0304         35.900          17.4004
 128065690.434 5  99791414.01443  24370089.980
  24370081.8494         33.700          18.6004
 116059241.851 7  90435788.64845  22085320.689
  22085310.1544         44.500          33.9004
 109878639.822 7  85619685.60446  20909189.922
  20909175.9294         46.000          39.0004
 121495971.966 6  94672136.96843  23119911.452
  23119897.7524         39.300          21.8004
 121211044.613 6  94450124.63444  23065689.575
  23065680.0374         40.500          25.1004
 113704817.676 7  88601105.89645  21637297.340
  21637284.0514         45.300          33.9004
 110125316.601 8  85811913.09646  20956143.739
  20956130.6844         48.900          40.5004
 119411921.545 7  93048190.00045  22723324.093
  22723311.6244         43.100          31.0004
 113993374.297 7  88825964.32245  21692213.234
  21692198.8894         45.500          35.7004
 16  2 13  4  5 30.0000000  0 10G07G24G30G28G11G01G13G17G15G19
 128817849.322 5 100377563.64142  24513194.069
  24513182.7134         35.900          17.4004
 127962241.099 5  99710804.20342  24350404.622
  24350395.9044         33.700          17.8004
 116144879.524 7  90502519.28945  22101617.203
  22101606.2584         44.500          33.2004
 109907435.845 8  85642124.06946  20914669.604
  20914655.8454         48.100          39.2004
 121545764.586 6  94710936.39143  23129385.849
  23129372.9114         39.400          22.2004
 121199958.134 6  94441485.83344  23063580.396
  23063570.3304         40.300          25.3004
 113761582.439 7  88645338.17245  21648099.763
  21648086.4154         46.200          33.9004
 110083700.694 8  85779485.12346  20948224.657
  20948211.6024         49.000          41.0004
 119410320.245 7  93046942.23545  22723019.822
  22723006.7094         42.800          30.4004
 113901155.001 7  88754105.16245  21674665.095
  21674649.5794         45.500          35.3004
 16  2 13  4  6  0.0000000  0 10G07G24G30G28G11G01G13G17G15G19
 128926371.099 5 100462125.96742  24533845.866
  24533833.0454         35.400          17.8004
 127858883.890 5  99630266.21443  24330736.611
  24330727.4244         34.700          19.0004
 116230822.307 7  90569487.66545  22117971.091
  22117960.7904         43.000          33.0004
 109936461.611 7  85664741.54646  20920193.508
  20920179.1644         47.500          39.0004
 121596122.233 6  94750176.09743  23138969.190
  23138955.6074         38.400          22.3004
 121189471.028 6  94433314.05844  23061583.938
  23061574.5754         40.500          24.2004
 113818891.247 7  88689994.38145  21659005.522
  21658991.4714         46.300          33.8004
 110042576.959 8  85747440.66946  20940398.734
  20940385.9134         49.000          41.3004
 119409299.257 7  93046146.65645  22722825.316
  22722812.7884         42.800          30.9004
 113809351.170 7  88682569.73746  21657194.621
  21657180.2184         45.300          36.2004
 16  2 13  4  6 30.0000000  0 10G07G24G30G28G11G01G13G17G15G19
 129035019.592 5 100546787.11342  24554520.837
  24554508.7204         35.700          17.4004
 127755622.552 5  99549802.88643  24311086.854
  24311077.1994         35.300          18.6004
 116317071.469 7  90636694.77645  22134384.281
  22134373.5714         44.100          33.1004
 109965718.667 7  85687539.25146  20925760.086
  20925746.2694         46.900          38.8004
 121647045.903 6  94789856.84043  23148657.791
  23148645.7324         38.900          21.3004
 121179586.641 6  94425611.93644  23059703.036
  23059693.6744         39.900          24.9004
 113876744.090 7  88735074.52445  21670013.856
  21670000.3324         45.800          34.0004
 110001948.380 8  85715782.04346  20932667.496
  20932654.5004         48.800          41.3004
 119408860.948 7  93045805.13545  22722742.024
  22722729.1454         43.700          31.6004
 113717967.611 7  88611361.79646  21639805.442
  21639790.5704         45.100          36.2004
 16  2 13  4  7  0.0000000  0 10G07G24G30G28G11G01G13G17G15G19
 129143784.922 5 100631539.23142  24575216.516
  24575206.3924         34.000          17.4004
 127652451.285 5  99469409.75942  24291455.515
  24291444.3354         35.800          17.8004
 116403617.531 7  90704133.24445  22150853.105
  22150842.3364         43.300          32.5004
 109995198.767 7  85710510.76746  20931370.487
  20931356.6124         47.900          39.0004
 121698525.463 6  94829970.78243  23158454.307
  23158441.7204         38.000          21.8004
 121170297.542 6  94418373.69443  23057934.243
  23057925.8774         39.300          23.0004
 113935130.714 7  88780570.59145  21681124.860
  21681110.9844         46.400          33.8004
 109961807.812 8  85684503.69646  20925028.863
  20925016.2774         48.400          41.3004
 119408996.795 7  93045910.97245  22722766.991
  22722755.1664         42.000          31.3004
 113626998.260 7  88540476.61045  21622494.324
  21622479.5114         45.800          35.7004
 16  2 13  4  7 30.0000000  0 10G07G24G30G28G11G01G13G17G15G19
 129252675.470 5 100716388.90442  24595938.100
  24595927.9174         35.000          15.6004
 127549381.478 6  99389095.67942  24271841.035
  24271831.0274         36.300          17.4004
 116490468.768 7  90771809.51345  22167380.680
  22167369.8524         43.400          32.8004
 110024910.481 7  85733662.75346  20937024.156
  20937010.3394         47.900          38.9004
 121750568.866 6  94870524.08443  23168358.789
  23168345.5584         38.700          21.5004
 121161614.036 6  94411607.32344  23056282.981
  23056273.7364         39.500          25.3004
 113994058.364 7  88826488.22945  21692338.363
  21692325.1914         46.100          33.5004
 109922165.148 8  85653613.31046  20917485.047
  20917472.2274         49.000          41.1004
 119409716.376 7  93046471.68245  22722904.414
  22722892.4144         43.300          31.5004
 113536455.182 7  88469923.58446  21605264.416
  21605249.4864         45.800          36.4004
 16  2 13  4  8  0.0000000  0 10G07G24G30G28G11G01G13G17G15G19
 129361685.570 5 100801331.79742  24616681.273
  24616671.6174         33.200          16.3004
 127446410.240 6  99308858.44843  24252246.886
  24252235.9414         37.700          18.6004
 116577619.377 7  90839719.04545  22183964.646
  22183953.9354         42.600          33.1004
 110054848.748 7  85756991.27246  20942720.434
  20942707.3214         47.100          38.8004
 121803170.066 6  94911512.05743  23178369.105
  23178355.2294         38.800          20.6004
 121153532.356 6  94405309.92343  23054745.368
  23054735.4784         40.500          22.9004
 114053520.069 7  88872822.01945  21703653.497
  21703640.8534         45.900          33.0004
 109883016.586 8  85623107.95246  20910035.478
  20910022.3644         49.100          41.1004
 119411014.937 7  93047483.55545  22723151.629
  22723138.9844         42.200          31.0004
 113446336.191 7  88399701.00346  21588115.389
  21588100.2824         46.000          36.9004
 16  2 13  4  8 30.0000000  0 10G07G24G30G28G11G01G13G17G15G19
 129470814.362 5 100886367.17642  24637448.901
  24637438.4844         33.400          16.3004
 127343540.936 6  99228700.59543  24232670.788
  24232660.0184         37.500          18.3004
 116665069.103 7  90907861.67945  22200605.696
  22200595.1034         43.000          32.1004
 110085014.374 7  85780496.95346  20948461.536
  20948448.0714         47.300          39.2004
 121856328.058 6  94952933.86343  23188485.132
  23188471.4324         40.400          21.3004
 121146054.307 6  94399482.87144  23053322.970
  23053312.1424         40.200          25.8004
 114113514.987 7  88919571.29845  21715069.993
  21715056.6454         46.300          34.1004
 109844363.675 8  85592988.80546  20902679.555
  20902667.1444         48.700          41.2004
 119412892.876 7  93048946.88245  22723508.934
  22723496.1144         42.500          30.6004
 113356644.663 7  88329811.52146  21571047.537
  21571033.2514         46.500          36.1004
 16  2 13  4  9  0.0000000  0 10G07G24G30G28G11G01G13G17G15G19
 129580059.250 5 100971492.87542  24658236.834
  24658228.7024         31.600          14.8004
 127240774.310 6  99148622.74842  24213114.616
  24213103.9064         37.300          17.4004
 116752815.740 7  90976235.66445  22217303.303
  22217292.9444         43.600          32.0004
 110115405.779 7  85804178.57846  20954244.592
  20954231.2444         47.600          38.5004
 121910040.202 6  94994787.50343  23198705.685
  23198691.8684         39.900          21.8004
 121139179.570 6  94394125.94144  23052014.544
  23052004.4194         40.500          25.6004
 114174039.550 7  88966733.29845  21726587.529
  21726574.5914         46.200          33.4004
 109806206.198 8  85563255.70846  20895418.527
  20895405.8824         48.600          40.6004
 119415348.929 7  93050860.68845  22723977.019
  22723963.4954         42.400          30.9004
 113267381.891 7  88260256.13946  21554061.233
  21554046.7714         46.400          36.4004
 16  2 13  4  9 30.0000000  0 10G07G24G30G28G11G01G13G17G15G19
 129689419.075 5 101056708.33642  24679046.357
  24679039.2224         31.300          16.3004
 127138112.966 6  99068626.93743  24193578.443
  24193568.4364         36.300          18.3004
 116840858.295 7  91044840.22045  22234057.217
  22234046.5074         43.200          32.4004
 110146022.563 7  85828035.82046  20960070.996
  20960056.9454         47.000          38.5004
 121964305.227 6  95037071.92343  23209032.465
  23209018.0034         40.100          21.3004
 121132909.160 6  94389239.91744  23050820.899
  23050811.0094         40.100          25.8004
 114235091.913 7  89014306.56245  21738205.300
  21738192.0104         46.800          33.4004
 109768545.193 8  85533909.49246  20888251.571
  20888239.3954         48.500          41.2004
 119418383.155 7  93053225.03145  22724554.112
  22724541.1744         42.700          31.8004
 113178550.558 7  88191036.93346  21537157.342
  21537142.6464         46.400          36.5004
 16  2 13  4 10  0.0000000  0 10G07G24G30G28G11G01G13G17G15G19
 129798892.584 5 101142012.33942  24699880.126
  24699871.2334         33.500          14.8004
 127035558.969 5  98988714.77842  24174063.449
  24174052.8564         35.800          16.9004
 116929195.986 7  91113674.75445  22250867.553
  22250856.6674         43.200          32.6004
 110176864.592 7  85852068.56846  20965939.866
  20965926.3424         46.700          38.8004
 122019121.778 6  95079786.10643  23219463.955
  23219449.4944         39.700          21.1004
 121127244.302 6  94384825.76244  23049742.938
  23049732.5794         40.200          26.9004
 114296670.543 7  89062289.91445  21749923.809
  21749910.5204         47.000          33.3004
 109731381.529 8  85504950.80946  20881179.955
  20881167.2514         48.800          41.1004
 119421995.473 7  93056039.82145  22725241.046
  22725228.5774         43.200          30.6004
 113090153.349 7  88122156.01346  21520335.622
  21520320.9844         46.100          36.2004
 16  2 13  4 10 30.0000000  0 10G07G24G30G28G11G01G13G17G15G19
 129908477.043 5 101227402.77642  24720734.170
  24720724.6914         34.200          16.3004
 126933113.332 6  98908887.08443  24154569.322
  24154558.1434         36.900          18.6004
 117017826.321 7  91182737.34645  22267733.789
  22267722.6104         44.600          32.8004
 110207930.661 7  85876275.89546  20971851.532
  20971837.8914         46.800          38.8004
 122074486.627 6  95122927.56343  23229999.123
  23229984.3694         39.300          21.1004
 121122184.400 6  94380882.98044  23048780.044
  23048770.2134         41.300          24.8004
 114358771.379 7  89110680.15945  21761740.685
  21761727.5724         46.000          32.8004
 109694714.447 8  85476379.06746  20874202.594
  20874189.1874         49.100          40.9004
 119426184.481 7  93059303.96645  22726038.656
  22726025.7184         43.000          31.4004
 113002191.433 7  88053614.26445  21503596.587
  21503582.2434         46.000          35.6004
 16  2 13  4 11  0.0000000  0 10G07G24G30G28G11G01G13G17G15G19
 130018172.093 5 101312879.48942  24741607.044
  24741598.7364         33.300          14.8004
 126830779.192 6  98829146.27543  24135094.649
  24135084.9944         37.400          20.4004
 117106748.863 7  91252027.61745  22284654.769
  22284643.5314         43.800          32.1004
 110239220.503 7  85900657.59546  20977805.281
  20977792.3444         46.600          38.7004
 122130399.138 6  95166495.72943  23240638.330
  23240624.1034         38.100          20.1004
 121117730.922 6  94377412.73444  23047932.977
  23047922.2084         40.400          26.3004
 114421393.160 7  89159476.34745  21773657.877
  21773644.0024         46.600          33.0004
 109658545.368 8  85448195.37346  20867319.983
  20867307.0454         49.200          41.2004
 119430950.722 7  93063017.92845  22726946.187
  22726932.7214         43.300          31.6004
 112914667.820 7  87985414.06046  21486942.051
  21486927.2384         46.800          36.4004
 16  2 13  4 11 30.0000000  0 10G07G24G30G28G11G01G13G17G15G19
 130127976.859 5                  24762501.470
                        33.700
 126728558.815 6  98749494.06443  24115642.918
  24115632.7944         37.800          19.6004
 117195963.015 7  91321545.11345  22301631.902
  22301620.9574         44.500          32.3004
 110270734.566 7  85925214.01046  20983802.725
  20983789.7284         46.600          38.6004
 122186858.214 6  95210489.82243  23251382.126
  23251368.7784         38.400          21.7004
 121113885.179 6  94374416.06544  23047200.827
  23047190.5854         40.500          26.0004
 114484534.468 7  89208677.33545  21785673.170
  21785659.5884         46.800          33.0004
 109622875.672 8  85420400.81146  20860532.372
  20860519.0244         49.500          41.2004
 119436294.288 7  93067181.73645  22727962.074
  22727949.4884         42.500          30.7004
 112827585.474 7  87917557.71546  21470370.791
  21470356.1544         46.400          36.6004
 16  2 13  4 12  0.0000000  0 10G07G24G30G28G11G01G13G17G15G19
 130237889.506 5                  24783418.450
                        34.500
 126626454.210 6  98669932.10143  24096212.471
  24096203.0504         37.200          19.6004
 117285467.438 7  91391288.79845  22318664.211
  22318653.0314         43.800          31.3004
 110302472.337 7  85949944.75446  20989842.189
  20989828.6064         45.300          39.2004
 122243861.575 6  95254908.02843  23262229.239
  23262216.0084         38.800          20.9004
 121110647.627 6  94371893.31144  23046584.670
  23046574.2524         39.700          24.8004
 114548192.343 7  89258280.86645  21797787.447
  21797773.3964         45.300          33.0004
 109587705.862 8  85392995.77746  20853839.694
  20853826.7564         49.000          41.7004
 119442214.564 7  93071794.93945  22729088.872
  22729076.0514         43.300          30.7004
 112740946.956 7  87850047.19446  21453883.976
  21453869.3394         45.700          36.2004
 16  2 13  4 12 30.0000000  0 10G07G24G30G28G11G01G13G17G15G19
 130347907.472 5                  24804354.301
                        34.300
 126524466.698 6  98590461.36943  24076804.416
  24076795.6404         36.200          19.9004
 117375259.473 7  91461256.59245  22335750.910
  22335740.2584         43.300          31.3004
 110334432.016 7  85974848.40146  20995923.565
  20995910.2174         46.700          38.4004
 122301406.217 6  95299747.99243  23273180.080
  23273166.8494         38.500          21.8004
 121108017.575 6  94369843.89844  23046084.493
  23046073.3144         41.100          25.3004
 114612363.414 7  89308284.29545  21809997.970
  21809984.4464         46.400          32.7004
 109553035.180 8  85365979.65946  20847241.654
  20847228.8344         49.300          41.0004
 119448709.744 7  93076856.12245  22730325.371
  22730312.1404         42.800          30.9004
 112654752.858 7  87782882.99746  21437481.662
  21437467.0244         46.700          36.9004
 16  2 13  4 13  0.0000000  0 10G07G24G30G28G11G01G13G17G15G19
 130458029.285 5                  24825309.726
                        34.600
 126422597.993 6  98511083.20443  24057419.900
  24057409.8924         37.500          19.0004
 117465338.248 7  91531447.83245  22352891.441
  22352881.1994         42.600          30.8004
 110366613.506 7  85999924.87246  21002047.792
  21002034.7964         46.200          38.8004
 122359490.980 6  95345008.83143  23284232.184
  23284220.5364         37.600          21.8004
 121105995.880 6  94368268.57144  23045699.189
  23045689.6514         38.600          25.7004
 114677045.728 7  89358686.07845  21822307.058
  21822293.7104         46.900          32.7004
 109518864.423 8  85339353.11246  20840739.226
  20840726.4644         48.000          41.3004
 119455779.745 7  93082365.21744  22731669.927
  22731657.5164         43.400          29.8004
 112569005.878 7  87716067.19846  21421164.887
  21421150.1914         46.500          37.8004
 16  2 13  4 13 30.0000000  0 10G07G24G30G28G11G01G13G17G15G19
 130568261.007 5                  24846286.312
                        34.300
 126320857.616 6  98431805.06843  24038059.775
  24038048.7124         37.500          19.0004
 117555709.549 7  91601867.01144  22370088.739
  22370078.3224         42.000          29.9004
 110399023.390 7  86025179.32246  21008215.518
  21008201.9944         46.300          38.3004
 122418120.778 6  95390694.39243  23295389.380
  23295376.9114         36.900          22.3004
 121104590.127 6  94367173.17044  23045432.533
  23045422.1164         40.400          24.6004
 114742243.814 7  89409489.78445  21834713.533
  21834700.0094         46.600          32.1004
 109485201.333 8  85313122.14346  20834333.836
  20834320.3714         48.500          41.5004
 119463431.126 7  93088327.33345  22733126.135
  22733113.6084         43.600          31.1004
 112483715.263 7  87649606.99446  21404934.426
  21404919.5544         45.600          36.8004
 16  2 13  4 14  0.0000000  0  9G24G30G28G11G01G13G17G15G19
 126219233.682 6  98352617.60943  24018722.516
  24018710.6924         38.300          19.0004
 117646357.950 7  91672502.12345  22387338.417
  22387328.1764         42.500          30.0004
 110431647.128 7  86050600.41246  21014423.143
  21014409.6204         46.100          38.6004
 122477279.741 6  95436792.27643  23306646.793
  23306634.4414         37.900          21.5004
 121103786.812 6  94366547.21844  23045279.610
  23045269.5444         39.900          26.5004
 114807941.350 7  89460682.65445  21847214.897
  21847202.0774         46.100          32.0004
 109452031.962 8  85287275.89346  20828021.573
  20828008.6944         49.500          41.5004
 119471649.742 7  93094731.44845  22734692.068
  22734677.9584         43.900          31.4004
 112398869.286 7  87583493.26946  21388788.391
  21388773.5784         46.200          36.2004
 16  2 13  4 14 30.0000000  0  9G24G30G28G11G01G13G17G15G19
 126117734.538 6  98273527.42643  23999407.084
  23999396.1394         37.500          18.3004
 117737288.909 7  91743357.40245  22404642.957
  22404631.8364         44.000          31.0004
 110464491.136 7  86076193.14946  21020673.559
  21020659.7424         46.700          38.5004
 122536972.860 6  95483306.37243  23318006.999
  23317993.7694         37.700          21.5004
 121103593.032 6  94366396.23144  23045242.416
  23045232.7604         38.900          27.0004
 114874142.350 7  89512267.84145  21859812.544
  21859800.2514         46.100          32.9004
 109419363.572 8  85261820.00347  20821804.934
  20821791.9374         49.000          42.0004
 119480441.490 7  93101582.17045  22736362.394
  22736350.6284         43.300          31.0004
 112314476.946 7  87517733.03546  21372729.138
  21372714.1494         45.800          37.1004
 16  2 13  4 15  0.0000000  0  9G24G30G28G11G01G13G17G15G19
 126016362.206 6  98194536.02243  23980117.257
  23980105.2574         37.500          19.6004
 117828500.559 7  91814431.38245  22422000.184
  22421989.0044         43.700          31.5004
 110497554.085 7  86101956.48346  21026964.758
  21026951.3524         46.500          38.2004
 122597197.264 6  95530234.49243  23329466.923
  23329453.6334         38.900          21.3004
 121104008.731 6  94366720.15644  23045321.865
  23045311.5064         40.200          25.8004
 114940844.144 7  89564243.25645  21872506.159
  21872492.8114         47.300          32.1004
 109387196.214 8  85236754.53846  20815683.609
  20815670.7304         48.900          41.9004
 119489805.129 7  93108878.50545  22738144.149
  22738132.3254         43.000          31.6004
 112230539.873 7  87452327.55546  21356756.294
  21356741.5984         45.800          37.3004
 16  2 13  4 15 30.0000000  0  9G24G30G28G11G01G13G17G15G19
 125915118.904 6  98115645.14843  23960850.070
  23960840.0634         38.300          20.1004
 117919991.895 7  91885723.30945  22439409.723
  22439399.1894         43.500          31.5004
 110530836.066 7  86127890.49346  21033298.639
  21033284.8224         46.700          38.5004
 122657951.624 6  95577575.54543  23341029.591
  23341014.4844         38.900          20.9004
 121105034.640 6  94367519.55844  23045516.340
  23045507.2124         39.400          24.6004
 115008044.373 7  89616607.06845  21885293.288
  21885280.5854         46.400          32.7004
 109355530.674 8  85212080.09446  20809657.760
  20809645.1154         49.000          41.9004
 119499739.960 7  93116619.93545  22740035.540
  22740023.3054         43.400          30.9004
 112147060.530 7  87387278.73846  21340870.049
  21340855.9974         46.400          36.9004
 16  2 13  4 16  0.0000000  0  9G24G30G28G11G01G13G17G15G19
 125814007.817 6  98036857.32543  23941609.091
  23941599.3184         37.400          20.9004
 118011762.688 7  91957233.00145  22456873.385
  22456862.7334         42.900          31.4004
 110564337.793 7  86153995.74046  21039673.964
  21039659.6784         47.400          38.9004
 122719234.969 6  95625328.79443  23352690.705
  23352676.5374         38.200          21.1004
 121106672.212 6  94368795.60444  23045827.637
  23045818.1574         39.400          25.3004
 115075741.934 7  89669358.40045  21898175.412
  21898162.9434         45.900          31.1004
 109324368.426 8  85187797.83647  20803727.628
  20803714.8084         49.300          42.3004
 119510246.848 7  93124807.13345  22742034.770
  22742022.3594         43.100          30.5004
 112064042.066 7  87322589.04146  21325072.701
  21325058.2984         47.100          37.8004
 16  2 13  4 16 30.0000000  0  9G24G30G28G11G01G13G17G15G19
 125713033.939 6  97958176.47943  23922395.175
  23922384.4644         38.200          20.4004
 118103813.981 7  92028961.25645  22474389.875
  22474379.5744         42.300          30.8004
 110598061.157 7  86180273.68746  21046091.354
  21046077.5374         47.100          39.2004
 122781047.695 6  95673494.54543  23364453.133
  23364438.8474         36.100          21.3004
 121108924.196 6  94370550.39044  23046256.040
  23046246.5014         38.800          26.7004
 115143936.518 7  89722497.03145  21911152.891
  21911139.8944         46.000          32.2004
 109293712.154 8  85163909.83946  20797894.152
  20797881.4484         48.800          41.8004
 119521327.720 7  93133441.58545  22744143.485
  22744131.3684         44.100          30.9004
 111981489.399 7  87258262.31646  21309363.279
  21309349.4034         47.200          37.7004
 16  2 13  4 17  0.0000000  0  9G24G30G28G11G01G13G17G15G19
 125612189.193 6  97879596.18443  23903203.752
  23903193.9804         37.600          19.9004
 118196134.883 7  92100899.58945  22491958.360
  22491947.7084         42.200          30.6004
 110631996.309 7  86206716.67046  21052548.945
  21052534.7774         47.700          38.6004
 122843378.322 6  95722063.85843  23376314.555
  23376300.6804         37.900          21.3004
 121111781.377 6  94372776.76944  23046800.188
  23046790.1814         40.200          25.7004
 115212615.971 7  89776013.48245  21924222.057
  21924209.0614         46.400          31.9004
 109263552.712 8  85140408.99047  20792155.232
  20792142.1194         48.700          42.0004
 119532972.270 7  93142515.26645  22746359.893
  22746347.0144         42.700          30.9004
 111899394.807 7  87194292.53246  21293741.038
  21293726.6944         47.500          37.2004
 16  2 13  4 17 30.0000000  0  9G24G30G28G11G01G13G17G15G19
 125511484.519 6  97801125.02143  23884040.078
  23884030.4224         37.100          19.3004
 118288732.533 6  92173053.58045  22509579.179
  22509568.1754         41.700          30.9004
 110666150.795 7  86233330.55646  21059048.318
  21059034.3254         47.300          39.1004
 122906233.316 6  95771041.75443  23388274.651
  23388261.0694         36.400          21.3004
 121115252.512 6  94375481.55244  23047460.231
  23047451.2214         39.500          24.4004
 115281786.214 7  89829912.35245  21937385.165
  21937371.3484         46.300          31.9004
 109233898.857 8  85117302.10046  20786512.169
  20786499.1144         48.700          41.6004
 119545188.101 7  93152034.09245  22748683.654
  22748671.6544         44.300          30.2004
 111817768.971 7  87130688.00346  21278209.143
  21278194.2714         47.700          38.3004
 16  2 13  4 18  0.0000000  0  9G24G30G28G11G01G13G17G15G19
 125410919.613 6  97722762.81743  23864902.577
  23864893.6254         36.500          20.4004
 118381603.406 7  92245420.46044  22527251.233
  22527240.8154         42.800          29.9004
 110700522.493 7  86260113.70346  21065589.540
  21065575.3134         47.800          38.6004
 122969608.721 6  95820425.18343  23400334.835
  23400321.5454         37.700          20.4004
 121119335.732 6  94378663.28144  23048237.949
  23048227.7074         38.500          24.2004
 115351442.804 7  89884190.20845  21950639.968
  21950626.9724         46.200          32.5004
 109204749.068 8  85094587.98446  20780965.229
  20780952.2334         49.000          41.9004
 119557972.596 7  93161996.04145  22751117.159
  22751104.6324         43.600          30.9004
 111736612.017 7  87067448.84346  21262764.408
  21262750.5914         47.000          36.8004
 16  2 13  4 18 30.0000000  0  9G24G30G28G11G01G13G17G15G19
 125310495.228 6  97644510.08643  23845793.423
  23845783.4164         37.900          20.1004
 118474744.558 6  92317997.95244  22544976.638
  22544964.9314         40.700          29.8004
 110735109.096 7  86287064.29946  21072170.835
  21072156.7254         46.500          38.8004
 123033500.794 6  95870211.20043  23412493.082
  23412480.1444         37.700          19.9004
 121124029.711 6  94382320.91444  23049130.214
  23049121.1454         39.200          24.9004
 115421581.755 7  89938843.91045  21963986.977
  21963973.6294         46.500          32.2004
 109176101.417 7  85072265.14847  20775513.526
  20775500.7064         47.700          42.1004
 119571323.408 7  93172399.27345  22753656.760
  22753645.0534         43.300          30.2004
 111655924.393 7  87004575.38946  21247410.691
  21247395.7604         47.600          37.6004
 16  2 13  4 19  0.0000000  0  9G24G30G28G11G01G13G17G15G19
 125210214.691 6  97566369.44543  23826711.195
  23826700.6604         37.600          19.9004
 118568155.514 6  92390785.69545  22562751.762
  22562740.7004         41.800          30.0004
 110769911.159 7  86314182.78946  21078793.063
  21078779.4804         47.200          38.3004
 123097908.009 6  95920398.64243  23424748.275
  23424735.7474         37.800          20.4004
 121129335.565 6  94386455.35844  23050140.885
  23050131.0534         40.100          26.9004
 115492200.766 7  89993871.70145  21977425.185
  21977412.4234         46.000          32.4004
 109147957.806 8  85050335.06946  20770158.267
  20770145.0954         49.300          41.5004
 119585240.635 7  93183243.87245  22756305.683
  22756293.3314         43.900          30.6004
 111575709.090 7  86942069.97346  21232146.391
  21232131.4024         47.400          37.7004
 16  2 13  4 19 30.0000000  0  9G24G30G28G11G01G13G17G15G19
 125110078.864 6  97488341.57243  23807656.883
  23807645.4104         38.100          20.6004
 118661834.269 7  92463782.09945  22580577.707
  22580567.2904         42.200          30.0004
 110804927.662 7  86341468.37946  21085456.219
  21085442.6374         47.200          38.5004
 123162828.036 6  95970985.64343  23437104.092
  23437090.1584         37.900          20.1004
 121135252.820 6  94391066.20244  23051266.067
  23051256.9984         39.000          24.9004
 115563296.857 7  90049271.24345  21990955.230
  21990941.6474         46.200          31.5004
 109120317.608 8  85028797.25647  20764898.720
  20764885.3724         48.300          42.4004
 119599722.567 7  93194528.49845  22759061.585
  22759049.0584         44.700          31.1004
 111495967.443 7  86879933.64346  21216972.085
  21216956.5684         47.400          37.6004
 16  2 13  4 20  0.0000000  0  9G24G30G28G11G01G13G17G15G19
 125010091.631 6  97410429.47343  23788628.204
  23788618.0214         38.100          21.1004
 118755780.838 7  92536987.19144  22598455.288
  22598444.7544         42.400          29.4004
 110840159.940 7  86368922.10346  21092160.952
  21092147.1934         46.400          38.9004
 123228260.088 6  96021971.65343  23449554.856
  23449541.0974         38.100          19.3004
 121141783.101 6  94396154.73644  23052509.082
  23052499.4854         39.600          25.4004
 115634869.062 7  90105041.78245  22004574.607
  22004560.9084         45.800          31.8004
 109093182.538 8  85007653.05747  20759734.897
  20759721.6674         48.700          42.3004
 119614769.991 7  93206253.76545  22761925.200
  22761912.7904         43.700          31.0004
 111416702.966 7  86818169.13946  21201888.475
  21201873.4274         47.500          37.6004
 16  2 13  4 20 30.0000000  0  9G24G30G28G11G01G13G17G15G19
 124910254.958 6  97332634.67443  23769629.639
  23769619.8084         38.200          19.6004
 118849993.675 7  92610399.75644  22616383.246
  22616372.8874         43.000          29.9004
 110875606.912 7  86396543.13046  21098906.725
  21098892.5574         47.200          38.6004
 123294201.847 6  96073354.84443  23462102.945
  23462089.3044         38.100          19.3004
 121148926.232 6  94401720.80444  23053869.741
  23053859.0304         39.300          25.6004
 115706914.432 7  90161181.02645  22018285.049
  22018271.0564         46.100          31.0004
 109066552.736 8  84986902.56346  20754667.402
  20754654.2304         48.600          41.8004
 119630381.737 7  93218418.76545  22764895.472
  22764883.2964         43.900          31.2004
 111337917.590 7  86756777.94146  21186896.618
  21186881.2194         47.800          37.7004
 16  2 13  4 21  0.0000000  0  9G24G30G28G11G01G13G17G15G19
 124810569.746 6  97254957.94343  23750660.422
  23750650.2984         37.200          21.1004
 118944470.037 7  92684017.67245  22634361.668
  22634351.5444         42.700          30.9004
 110911267.050 7  86424330.24146  21105692.577
  21105679.0534         46.600          38.3004
 123360650.218 6  96125132.76143  23474748.199
  23474734.1484         37.400          19.6004
 121156681.170 6  94407763.63744  23055344.026
  23055334.4874         38.600          24.8004
 115779428.943 7  90217685.84445  22032083.331
  22032069.9254         46.800          31.9004
 109040427.035 8  84966544.87747  20749695.480
  20749682.7184         48.500          42.2004
 119646555.916 7  93231022.01845  22767973.086
  22767961.3794         43.200          30.4004
 111259612.096 8  86695760.68046  21171995.292
  21171980.3034         48.000          37.9004
 16  2 13  4 21 30.0000000  0  9G24G30G28G11G01G13G17G15G19
 124711039.031 6  97177401.57243  23731719.837
  23731710.5924         37.200          21.3004
 119039209.376 6  92757840.53145  22652389.219
  22652379.0364         41.500          30.0004
 110947140.618 7  86452283.67646  21112518.592
  21112505.0684         47.200          38.2004
 123427603.479 6  96177304.13643  23487487.792
  23487474.4444         37.100          19.6004
 121165048.686 6  94414283.77044  23056936.766
  23056926.2324         39.900          25.4004
 115852410.693 7  90274554.72845  22045970.972
  22045958.2694         46.000          32.0004
 109014806.327 8  84946580.69647  20744819.947
  20744807.5374         48.800          42.5004
 119663292.243 7  93244063.31345  22771158.236
  22771146.0604         43.800          30.5004
 111181789.192 7  86635119.47146  21157185.948
  21157170.7254         47.600          37.8004
 16  2 13  4 22  0.0000000  0  9G24G30G28G11G01G13G17G15G19
 124611664.079 6  97099966.58043  23712810.684
  23712800.0324         38.300          20.1004
 119134209.207 7  92831866.34145  22670468.249
  22670458.0664         42.600          30.4004
 110983226.135 7  86480402.26746  21119385.326
  21119371.8614         47.600          38.5004
 123495058.572 6  96229866.53943  23500325.602
  23500311.8444         36.300          19.6004
 121174027.884 6  94421280.55344  23058645.362
  23058636.0584         39.100          26.0004
 115925856.336 7  90331785.07645  22059947.752
  22059934.5214         46.600          30.6004
 108989689.929 8  84927009.48147  20740040.772
  20740027.7764         49.500          42.3004
 119680588.963 7  93257541.27545  22774448.609
  22774437.4884         43.300          30.4004
 111104449.806 7  86574855.03646  21142468.927
  21142453.7624         47.600          37.8004
 16  2 13  4 22 30.0000000  0  9G24G30G28G11G01G13G17G15G19
 124512448.417 6  97022655.68643  23693929.776
  23693919.5344         37.300          21.3004
 119229469.418 7  92906095.05544  22688595.496
  22688584.2584         42.400          28.9004
 111019524.619 7  86508686.78846  21126292.904
  21126279.0874         47.200          38.5004
 123563014.649 6  96282819.29943  23513256.550
  23513243.2024         37.200          19.0004
 121183620.085 6  94428754.97644  23060470.672
  23060461.1934         38.800          25.3004
 115999764.311 7  90389375.69745  22074010.873
  22073998.2874         45.900          30.9004
 108965079.173 8  84907832.27447  20735357.388
  20735344.2744         50.000          42.7004
 119698446.308 7  93271456.09945  22777848.213
  22777835.5684         44.100          30.6004
 111027597.144 7  86514969.87646  21127843.840
  21127829.5544         47.800          38.7004
 16  2 13  4 23  0.0000000  0  9G24G30G28G11G01G13G17G15G19
 124413396.879 6  96945472.74143  23675081.191
  23675071.0664         37.600          21.7004
 119324990.919 6  92980527.35144  22706773.059
  22706761.8214         41.600          28.5004
 111056037.987 7  86537138.75746  21133240.651
  21133227.7134         47.200          38.5004
 123631471.726 6  96336162.49043  23526283.517
  23526269.4664         37.300          19.3004
 121193827.530 6  94436708.82844  23062413.280
  23062403.6244         39.200          26.5004
 116074134.370 7  90447326.37245  22088163.483
  22088150.9554         46.200          31.2004
 108940976.667 8  84889051.11447  20730771.028
  20730757.7394         49.400          42.8004
 119716865.802 7  93285808.94045  22781353.686
  22781341.1004         44.100          30.9004
 110951235.818 8  86455467.56946  21113313.251
  21113298.3794         48.100          38.4004
 16  2 13  4 23 30.0000000  0  9G24G30G28G11G01G13G17G15G19
 124314499.782 6  96868410.11643  23656262.499
  23656251.6724         37.900          22.0004
 119420761.268 7  93055153.58144  22724997.244
  22724986.7684         42.100          28.7004
 111092754.979 7  86565749.39646  21140228.317
  21140214.5594         47.900          38.4004
 123700416.811 6  96389885.91643  23539402.435
  23539390.3184         37.400          21.5004
 121204639.245 6  94445133.55344  23064470.723
  23064461.0674         39.800          25.4004
 116148952.902 7  90505626.51845  22102400.805
  22102387.9264         45.800          30.6004
 108917371.441 8  84870657.44147  20726279.271
  20726265.4544         49.200          42.6004
 119735835.383 7  93300590.42145  22784962.961
  22784950.4334         44.700          31.0004
 110875356.693 7  86396341.00046  21098873.598
  21098858.9604         47.900          37.8004
 16  2 13  4 24  0.0000000  0  9G24G30G28G11G01G13G17G15G19
 124215771.577 6  96791479.07243  23637474.821
  23637464.0524         38.600          22.0004
 119516790.737 7  93129981.72944  22743271.043
  22743260.5084         42.100          29.9004
 111129686.555 8  86594527.25246  21147255.839
  21147242.0224         48.000          37.8004
 123769859.166 6  96443996.83943  23552617.977
  23552604.8054         37.900          19.6004
 121216066.915 6  94454038.21644  23066643.890
  23066635.6994         39.900          25.6004
 116224228.003 7  90564282.43245  22116725.595
  22116712.7164         45.200          30.4004
 108894275.459 8  84852660.57447  20721883.728
  20721870.7914         49.800          42.4004
 119755365.742 7  93315808.90245  22788679.492
  22788666.9644         44.100          30.9004
 110799973.387 7  86337600.79246  21084527.722
  21084513.4954         47.500          38.3004
 16  2 13  4 24 30.0000000  0  9G24G30G28G11G01G13G17G15G19
 124117210.745 6  96714678.42543  23618718.937
  23618708.6374         38.700          22.0004
 119613074.000 6  93205007.61644  22761592.742
  22761581.9734         41.600          29.1004
 111166828.543 8  86623469.07146  21154323.588
  21154309.6544         48.400          38.3004
 123839792.979 6  96498490.70943  23565925.944
  23565912.1864         38.100          20.1004
 121228106.546 6  94463419.74444  23068935.817
  23068926.5724         39.400          26.4004
 116299953.940 7  90623289.64745  22131135.998
  22131123.1194         45.600          30.2004
 108871684.923 8  84835057.56747  20717584.884
  20717572.0644         49.300          42.4004
 119775451.726 7  93331460.31145  22792502.442
  22792488.8014         44.900          30.9004
 110725083.851 7  86279245.33646  21070276.627
  21070262.6934         47.000          38.2004
 16  2 13  4 25  0.0000000  0  9G24G30G28G11G01G13G17G15G19
 124018819.115 6  96638009.66443  23599995.665
  23599985.1894         38.600          21.5004
 119709609.818 6  93280230.30744  22779962.322
  22779952.4324         41.100          27.7004
 111204180.996 8  86652574.87846  21161432.073
  21161418.2564         48.600          38.3004
 123910216.170 6  96553365.94343  23579327.356
  23579312.3674         38.500          20.1004
 121240758.206 6  94473278.20244  23071343.076
  23071333.9484         39.000          25.6004
 116376128.076 7  90682646.09544  22145630.824
  22145618.5314         45.600          29.9004
 108849600.182 8  84817848.68747  20713382.957
  20713369.3754         50.000          42.8004
 119796092.693 7  93347544.20545  22796429.552
  22796417.1424         45.100          30.6004
 110650690.399 7  86221276.43646  21056119.991
  21056105.9984         47.600          37.9004
 16  2 13  4 25 30.0000000  0  9G24G30G28G11G01G13G17G15G19
 123920598.888 6  96561474.44943  23581305.157
  23581294.3884         38.600          22.0004
 119806396.656 6  93355648.57144  22798380.906
  22798370.4884         41.400          27.1004
 111241743.091 8  86681844.04846  21168580.046
  21168566.2884         48.100          38.8004
 123981126.263 6  96608620.53343  23592820.744
  23592806.6344         38.300          19.9004
 121254021.721 6  94483613.40244  23073866.984
  23073857.8554         39.400          24.7004
 116452747.332 7  90742349.39745  22160211.674
  22160198.5604         45.500          30.8004
 108828021.266 8  84801033.95147  20709276.588
  20709263.2404         50.100          42.7004
 119817287.426 7  93364059.57545  22800463.656
  22800450.3674         44.700          31.4004
 110576794.514 7  86163695.24146  21042058.709
  21042043.8374         47.800          38.4004
 16  2 13  4 26  0.0000000  0  9G24G30G28G11G01G13G17G15G19
 123822551.755 6  96485074.12743  23562646.432
  23562635.8974         39.000          21.7004
 119903431.971 6  93431260.47444  22816846.424
  22816835.4204         41.100          28.1004
 111279513.440 7  86711275.48046  21175766.766
  21175753.4764         47.900          37.9004
 124052519.909 5  96664251.94243  23606406.682
  23606392.5724         35.700          19.3004
 121267895.793 6  94494424.37044  23076507.974
  23076497.7904         39.900          24.9004
 116529807.877 7  90802396.55944  22174875.371
  22174862.6094         46.200          29.9004
 108806946.856 8  84784612.34047  20705266.646
  20705252.9464         49.800          42.6004
 119839034.012 7  93381004.98045  22804601.664
  22804588.1404         44.700          31.2004
 110503397.100 7  86106502.46546  21028091.337
  21028077.0514         47.500          39.2004
 16  2 13  4 26 30.0000000  0  9G24G30G28G11G01G13G17G15G19
 123724679.789 6  96408810.29243  23544022.843
  23544011.8984         38.400          22.0004
 120000714.288 6  93507064.82944  22835358.868
  22835348.4504         41.200          27.8004
 111317491.857 7  86740869.05346  21182994.002
  21182980.4784         47.600          38.0004
 124124394.838 6  96720258.38643  23620083.545
  23620069.7284         37.000          19.0004
 121282380.319 6  94505711.02543  23079263.734
  23079254.0794         40.100          23.8004
 116607307.185 7  90862785.62644  22189622.949
  22189610.1874         45.800          29.8004
 108786377.193 8  84768584.04347  20701351.781
  20701338.6094         49.800          42.9004
 119861331.006 7  93398379.24245  22808844.870
  22808831.5814         44.500          30.7004
 110430500.309 8  86049699.78146  21014220.364
  21014205.6094         48.500          38.6004
 16  2 13  4 27  0.0000000  0  9G24G30G28G11G01G13G17G15G19
 123626985.773 6  96332685.08743  23525431.744
  23525421.3264         39.000          22.3004
 120098242.906 6  93583061.12244  22853917.185
  22853907.7054         41.800          27.6004
 111355678.721 7  86770625.04446  21190261.014
  21190246.6114         47.700          37.6004
 124196749.412 6  96776638.55643  23633852.270
  23633838.2774         37.000          19.3004
 121297475.793 6  94517473.71844  23082136.257
  23082126.5424         39.600          24.2004
 116685243.000 7  90923514.81445  22204454.138
  22204440.6724         44.900          30.2004
 108766312.995 8  84752949.60647  20697533.474
  20697520.4774         49.300          43.3004
 119884178.132 7  93416182.20045  22813192.739
  22813179.0394         45.300          31.2004
 110358106.517 7  85993289.05546  21000443.841
  21000429.1454         47.200          38.5004
 16  2 13  4 27 30.0000000  0  9G24G30G28G11G01G13G17G15G19
 123529472.243 6  96256700.54543  23506876.280
  23506864.9834         38.700          21.8004
 120196016.623 6  93659248.37144  22872523.753
  22872512.9844         41.900          28.2004
 111394073.891 7  86800543.37146  21197566.713
  21197553.4244         47.900          38.8004
 124269581.770 5  96833391.04043  23647711.784
  23647698.4944         35.500          19.6004
 121313182.263 6  94529712.52543  23085124.880
  23085115.2834         39.500          23.5004
 116763612.765 7  90984582.14545  22219367.466
  22219353.9424         45.000          30.2004
 108746754.535 8  84737709.25247  20693811.446
  20693798.6844         49.100          43.0004
 119907574.762 7  93434413.33145  22817644.459
  22817631.3454         44.500          31.1004
 110286217.897 7  85937271.96246  20986763.986
  20986749.0554         47.800          38.7004
 16  2 13  4 28  0.0000000  0 10G06G24G30G28G11G01G13G17G15G19
                                  25164425.165
                        32.200
 123432140.579 6  96180857.71543  23488352.829
  23488343.2324         38.300          22.5004
 120294032.723 6  93735624.53144  22891175.712
  22891165.5874         41.700          27.9004
 111432675.493 7  86830622.54146  21204913.995
  21204900.8234         47.300          38.5004
 124342888.557 6  96890513.18943  23661660.302
  23661648.1854         36.700          18.6004
 121329498.110 6  94542426.16544  23088231.324
  23088220.7304         39.400          24.2004
 116842412.568 7  91045984.57845  22234362.802
  22234349.0444         45.700          31.0004
 108727700.378 8  84722861.86847  20690185.829
  20690173.1264         49.400          42.7004
 119931518.078 7  93453070.47445  22822199.775
  22822187.4234         44.500          30.9004
 110214834.971 7  85881648.92546  20973180.190
  20973165.2014         47.800          38.8004
 16  2 13  4 28 30.0000000  0 10G06G24G30G28G11G01G13G17G15G19
 132131925.849 5                  25143867.816
                        33.000
 123334994.172 6  96105159.27643  23469867.535
  23469857.2354         38.800          22.5004
 120392291.023 6  93812189.40244  22909874.003
  22909862.5314         41.800          27.5004
 111471484.673 7  86860863.46746  21212298.544
  21212284.3754         47.300          38.9004
 124416668.434 6  96948004.00943  23675701.924
  23675687.8144         36.600          19.0004
 121346424.476 6  94555615.55044  23091451.854
  23091441.3784         39.500          25.1004
 116921640.739 7  91107720.80045  22249439.257
  22249425.9674         45.000          30.2004
 108709151.945 8  84708408.55047  20686655.844
  20686642.7894         48.700          42.8004
 119956008.226 7  93472153.69545  22826860.599
  22826847.4864         44.400          30.8004
 110143960.998 7  85826422.46546  20959693.169
  20959678.5904         47.200          38.9004
 16  2 13  4 29  0.0000000  0 10G06G24G30G28G11G01G13G17G15G19
 132023814.981 5                  25123294.882
                        31.300
 123238033.763 6  96029605.73043  23451416.896
  23451406.4204         38.700          22.9004
 120490788.763 6  93888940.84144  22928615.978
  22928606.7914         41.000          27.3004
 111510499.834 7  86891264.89446  21219721.945
  21219707.6004         47.200          38.2004
 124490917.887 6  97005860.69343  23689829.863
  23689816.6904         36.900          19.3004
 121363959.773 6  94569279.41944  23094788.287
  23094778.3974         40.000          25.8004
 117001293.239 7  91169787.66644  22264595.550
  22264583.2574         45.000          29.4004
 108691108.242 8  84694348.52847  20683222.288
  20683209.4094         49.200          43.0004
 119981043.034 7  93491661.34145  22831624.712
  22831612.3024         44.300          31.0004
 110073596.167 8  85771592.74846  20946303.677
  20946288.6884         48.200          39.2004
 16  2 13  4 29 30.0000000  0 10G06G24G30G28G11G01G13G17G15G19
 131915640.647 5                  25102710.195
                        30.300
 123141258.117 6  95954196.15743  23433000.098
  23432990.2674         37.100          22.2004
 120589520.743 6  93965874.83644  22947406.491
  22947394.7254         41.400          26.4004
 111549716.982 7  86921823.70146  21227185.075
  21227171.4344         47.800          38.0004
 124565631.079 6  97064078.77243  23704048.196
  23704034.7314         37.000          19.9004
 121382099.957 6  94583414.63244  23098240.578
  23098230.2194         40.800          25.7004
 117081363.620 7  91232180.15944  22279833.127
  22279820.3074         44.900          29.5004
 108673565.205 8  84680678.64047  20679883.993
  20679871.0564         49.300          43.4004
 120006617.418 7  93511589.40645  22836491.527
  22836478.8234         44.800          31.1004
 110003738.700 7  85717158.37146  20933009.747
  20932995.1684         47.800          38.5004
 16  2 13  4 30  0.0000000  0 10G06G24G30G28G11G01G13G17G15G19
 131807405.876 4                  25082113.499
                        29.400
 123044678.326 6  95878939.19843  23414622.357
  23414611.5294         37.500          22.9004
 120688493.933 6  94042996.77244  22966238.962
  22966228.3694         41.300          26.5004
 111589144.098 8  86952546.12546  21234688.169
  21234674.2354         48.200          37.8004
 124640813.855 6  97122662.72943  23718355.869
  23718341.5244         38.100          19.6004
 121400853.079 6  94598027.44944  23101808.582
  23101798.9854         40.500          24.5004
 117161857.502 7  91294902.62844  22295150.427
  22295137.5474         45.300          29.7004
 108656531.298 8  84667405.47047  20676642.302
  20676629.6574         49.500          42.5004
 120032738.596 7  93531943.57145  22841461.458
  22841449.2244         43.700          30.5004
 109934398.997 7  85663127.45046  20919814.574
  20919799.8784         47.500          38.4004
 16  2 13  4 30 30.0000000  0 10G06G24G30G28G11G01G13G17G15G19
 131699108.201 5                  25061506.168
                        32.200
 122948290.860 6  95803832.11743  23396280.388
  23396270.0884         38.600          22.9004
 120787701.647 6  94120301.43144  22985116.447
  22985106.6744         41.600          27.1004
 111628775.640 8  86983427.85846  21242228.877
  21242215.8814         48.000          38.0004
 124716458.802 6  97181606.83343  23732750.267
  23732736.2164         37.200          20.1004
 121420213.564 6  94613113.54644  23105492.627
  23105483.2644         39.900          26.3004
 117242766.826 7  91357948.84944  22310547.371
  22310534.4924         45.000          29.8004
 108640001.012 8  84654524.73647  20673496.960
  20673483.9054         49.800          43.0004
 120059400.078 7  93552718.74345  22846535.198
  22846522.9054         43.900          30.9004
 109865573.323 7  85609497.05946  20906718.116
  20906703.1274         47.200          39.1004
 16  2 13  4 31  0.0000000  0 10G06G24G30G28G11G01G13G17G15G19
 131590750.917 5 102538217.70642  25040886.932
  25040880.0314         32.500          16.9004
 122852098.741 6  95728877.23243  23377975.147
  23377964.6124         38.400          21.7004
 120887142.803 6  94197788.00744  23004040.503
  23004029.9684         41.400          26.8004
 111668611.770 8  87014468.99546  21249810.016
  21249796.1994         48.100          38.1004
 124792563.967 6  97240909.52943  23747233.220
  23747218.5244         38.300          20.1004
 121440181.539 6  94628673.00344  23109292.487
  23109282.3044         39.900          25.6004
 117324089.080 7  91421316.82844  22326022.476
  22326009.4804         45.400          29.3004
 108623974.905 8  84642036.87247  20670447.765
  20670434.2414         50.700          42.8004
 120086601.044 7  93573914.30244  22851711.210
  22851698.8004         44.100          29.8004
 109797264.083 7  85556269.09446  20893719.305
  20893704.2574         47.600          39.1004
 16  2 13  4 31 30.0000000  0 10G06G24G30G28G11G01G13G17G15G19
 131482337.358 5 102453739.66342  25020255.830
  25020249.5734         30.800          16.9004
 122756105.079 6  95654077.01943  23359708.983
  23359698.0384         38.100          22.6004
 120986816.743 6  94275455.96744  23023008.560
  23022997.0874         41.700          26.6004
 111708652.729 8  87045669.74046  21257429.486
  21257416.1384         48.300          37.7004
 124869127.490 6  97300569.43643  23761801.473
  23761787.3634         37.900          19.3004
 121460757.180 6  94644705.97243  23113208.228
  23113198.3974         39.800          23.9004
 117405822.213 7  91485004.98744  22341575.711
  22341562.5394         45.300          28.6004
 108608453.652 8  84629942.40247  20667493.672
  20667480.5584         49.800          43.3004
 120114340.862 7  93595529.73944  22856990.081
  22856977.8474         43.800          29.9004
 109729473.432 7  85503445.22246  20880818.877
  20880803.9464         47.800          38.9004
 16  2 13  4 32  0.0000000  0 10G06G24G30G28G11G01G13G17G15G19
                                  24999615.589
  24999610.9154         30.500          15.6004
 122660316.472 6  95579436.54543  23341479.895
  23341469.8884         37.900          22.2004
 121086726.384 6  94353307.57744  23042020.022
  23042009.3704         41.900          26.8004
 111748903.002 8  87077033.58746  21265089.207
  21265075.2734         48.200          38.3004
 124946151.939 6  97360588.43642  23776459.380
  23776445.0364         37.400          17.8004
 121481944.685 6  94661215.70943  23117239.541
  23117230.0024         39.500          23.9004
 117487967.744 7  91549014.47144  22357207.048
  22357194.1694         44.900          28.4004
 108593441.630 8  84618244.72147  20664636.895
  20664623.7234         50.100          42.9004
 120142622.543 7  93617567.39845  22862372.280
  22862359.5184         44.300          30.4004
 109662208.008 7  85451030.61046  20868018.958
  20868004.1454         47.800          39.1004
 16  2 13  4 32 30.0000000  0 10G06G24G30G28G11G01G13G17G15G19
 131265342.908 5 102284665.28942  24978965.389
  24978959.4844         33.000          15.6004
 122564720.436 6  95504946.15143  23323288.593
  23323278.8794         37.900          22.5004
 121186855.032 6  94431329.87944  23061073.942
  23061063.8764         41.400          25.2004
 111789346.638 8  87108548.11546  21272785.146
  21272771.3874         48.300          37.8004
 125023619.132 6  97420952.54342  23791201.249
  23791186.1434         37.400          16.9004
 121503728.165 6  94678189.83844  23121385.284
  23121374.8084         39.500          25.5004
 117570507.454 7  91613331.10044  22372914.162
  22372901.3424         44.500          28.4004
 108578923.239 8  84606931.69347  20661874.209
  20661861.2714         50.400          43.3004
 120171429.722 7  93640014.53445  22867853.559
  22867841.5004         44.600          30.5004
 109595453.852 7  85399014.39846  20855316.054
  20855300.8894         47.400          39.3004
 16  2 13  4 33  0.0000000  0 10G06G24G30G28G11G01G13G17G15G19
 131156774.255 5 102200066.39742  24958304.002
  24958299.3294         33.100          16.9004
 122469332.757 6  95430618.12543  23305137.660
  23305126.7154         38.200          22.5004
 121287214.908 6  94509532.34344  23080172.285
  23080160.9884         41.600          26.1004
 111829997.291 8  87140223.94646  21280521.299
  21280507.3654         48.700          37.9004
 125101540.980 6  97481670.85743  23806028.854
  23806014.7444         36.900          18.6004
 121526121.098 6  94695638.88144  23125646.069
  23125636.4724         41.100          24.5004
 117653452.610 7  91677963.67644  22388698.056
  22388685.7634         43.400          28.5004
 108564912.443 8  84596014.19347  20659208.335
  20659195.4564         50.500          43.0004
 120200775.073 7  93662881.03745  22873437.664
  22873425.7814         44.100          31.1004
 109529226.505 7  85347408.68646  20842713.983
  20842698.4074         47.900          39.0004
 16  2 13  4 33 30.0000000  0 10G06G24G30G28G11G01G13G17G15G19
 131048158.895 5 102115431.09742  24937637.106
  24937629.6784         34.100          14.8004
 122374151.546 6  95356450.98543  23287025.795
  23287014.7334         39.500          23.0004
 121387799.838 6  94587910.19244  23099312.562
  23099302.7314         41.800          27.1004
 111870849.971 8  87172057.20146  21288295.105
  21288280.8784         48.900          38.5004
 125179910.305 6  97542737.81742  23820941.550
  23820927.7924         36.600          16.9004
 121549118.189 6  94713558.66644  23130021.491
  23130012.5394         40.300          24.7004
 117736795.292 7  91742906.00644  22404557.770
  22404545.0084         44.600          29.1004
 108551404.094 8  84585488.21747  20656637.737
  20656624.3894         50.200          43.3004
 120230652.083 7  93686161.81145  22879123.954
  22879111.0164         44.000          30.4004
 109463523.133 8  85296211.24946  20830210.728
  20830195.1534         48.200          39.1004
 16  2 13  4 34  0.0000000  0 10G06G24G30G28G11G01G13G17G15G19
 130939500.453 5 102030762.17242  24916959.775
  24916952.3474         34.000          15.6004
 122279179.396 6  95282446.70943  23268952.690
  23268941.9804         40.200          22.8004
 121488609.158 6  94666462.86744  23118496.904
  23118485.5484         41.600          25.7004
 111911905.427 8  87204048.47346  21296107.501
  21296093.6844         48.500          38.6004
 125258725.335 6  97604152.09543  23835939.775
  23835926.1344         36.600          18.3004
 121572719.741 6  94731949.49144  23134514.542
  23134503.9494         40.300          25.8004
 117820533.722 7  91808156.70644  22420493.171
  22420479.5884         43.700          29.0004
 108538398.817 8  84575354.22747  20654162.773
  20654149.8354         50.700          43.2004
 120261060.461 7  93709856.64545  22884910.175
  22884897.5894         44.300          30.5004
 109398346.277 7  85245424.10246  20817807.567
  20817792.5194         47.800          39.1004
 16  2 13  4 34 30.0000000  0 10G06G24G30G28G11G01G13G17G15G19
 130830804.464 5 101946044.05143  24896274.944
  24896265.6994         33.700          19.3004
 122184421.746 6  95208609.59744  23250921.378
  23250910.3744         40.000          24.0004
 121589644.250 6  94745191.47044  23137722.430
  23137712.1294         39.900          25.8004
 111953166.071 8  87236199.62346  21303959.236
  21303945.5364         48.000          38.1004
 125337986.630 6  97665914.14543  23851023.251
  23851008.9654         37.100          19.0004
 121596928.141 6  94750813.18344  23139119.629
  23139110.5014         40.300          25.0004
 117904667.765 7  91873715.67744  22436502.828
  22436490.2424         44.500          29.3004
 108525899.671 8  84565614.64147  20651784.661
  20651771.0784         50.300          43.3004
 120292001.681 7  93733966.68344  22890797.761
  22890785.1754         42.600          29.9004
 109333700.260 7  85195050.58946  20805505.481
  20805490.6684         47.800          39.3004
 16  2 13  4 35  0.0000000  0 10G06G24G30G28G11G01G13G17G15G19
 130722064.232 5 101861311.43642  24875583.123
  24875574.4064         35.600          16.9004
 122089871.573 6  95134934.16343  23232928.341
  23232917.6894         39.900          22.8004
 121690893.711 6  94824087.11144  23156989.202
  23156978.8434         40.100          25.9004
 111994621.723 8  87268502.72946  21311847.596
  21311833.9554         48.300          37.2004
 125417681.499 6  97728014.03143  23866187.553
  23866175.0254         36.800          18.6004
 121621732.713 6  94770141.42743  23143840.060
  23143830.7564         40.000          23.9004
 117989184.404 7  91939572.78344  22452585.801
  22452573.0394         44.200          28.4004
 108513896.286 8  84556261.35747  20649500.155
  20649486.9834         50.400          43.3004
 120323464.233 7  93758482.95744  22896784.819
  22896772.3504         43.600          29.5004
 109269576.660 8  85145084.15646  20793303.957
  20793288.3234         48.300          39.9004
 16  2 13  4 35 30.0000000  0 10G06G24G30G28G11G01G13G17G15G19
 130613292.075 5 101776553.97043  24854883.419
  24854876.5184         33.600          18.3004
 121995540.207 6  95061429.19244  23214977.376
  23214967.7214         39.400          24.9004
 121792365.825 6  94903156.23544  23176298.648
  23176289.2854         39.600          25.6004
 112036281.946 7  87300965.24746  21319775.387
  21319761.7464         47.800          37.6004
 125497817.735 6  97790457.82243  23881438.449
  23881423.9874         37.500          18.6004
 121647142.848 6  94789941.53744  23148676.157
  23148666.6194         40.300          24.6004
 118074090.787 7  92005733.58544  22468743.380
  22468729.9744         44.300          28.1004
 108502398.343 8  84547301.93047  20647312.167
  20647299.1704         49.800          43.5004
 120355456.682 7  93783412.14344  22902872.805
  22902860.1604         43.200          29.7004
 109205987.243 8  85095533.97046  20781203.625
  20781187.7564         48.200          39.3004
 16  2 13  4 36  0.0000000  0 10G06G24G30G28G11G01G13G17G15G19
 130504486.481 5 101691770.43143  24834180.205
  24834171.3114         34.600          18.3004
 121901425.744 6  94988093.26844  23197068.240
  23197057.9984         39.400          25.6004
 121894054.472 6  94982394.08943  23195649.908
  23195639.3734         39.300          22.0004
 112078141.915 8  87333583.40646  21327740.972
  21327727.7424         48.300          37.5004
 125578388.398 6  97853240.17942  23896769.393
  23896756.6314         36.200          17.4004
 121673153.262 6  94810209.40144  23153626.145
  23153616.5484         40.500          25.3004
 118159379.280 7  92072192.15344  22484973.484
  22484960.0194         43.900          27.6004
 108491401.076 8  84538732.63147  20645219.657
  20645206.4844         50.700          43.0004
 120387972.692 7  93808749.29344  22909060.263
  22909048.1464         42.800          28.9004
 109142928.617 7  85046397.38946  20769203.135
  20769188.0874         47.400          39.4004
 16  2 13  4 36 30.0000000  0 10G06G24G30G28G11G01G13G17G15G19
 130395651.073 5 101606963.61742  24813468.224
  24813460.6204         33.300          17.4004
 121807532.022 6  94914929.35144  23179200.861
  23179190.9714         39.600          24.8004
 121995959.157 6  95061800.28944  23215041.592
  23215031.7614         39.200          25.2004
 112120202.307 8  87366357.72146  21335744.895
  21335731.1954         48.400          36.9004
 125659392.258 6  97916360.05842  23912184.840
  23912170.9654         37.400          17.8004
 121699764.301 6  94830945.27744  23158690.194
  23158679.9524         40.900          26.6004
 118245047.978 7  92138946.95044  22501275.401
  22501262.9914         43.600          28.4004
 108480904.947 8  84530553.83547  20643221.644
  20643208.9404         50.500          43.7004
 120421011.816 7  93834494.05744  22915347.922
  22915336.0404         43.200          28.9004
 109080403.640 8  84997676.64146  20757305.063
  20757290.0154         48.000          39.8004
 16  2 13  4 37  0.0000000  0 10G06G24G30G28G11G01G13G17G15G19
 130286789.540 5 101522136.47542  24792751.714
  24792744.6964         31.900          16.9004
 121713861.377 6  94841939.25744  23161376.072
  23161365.6544         39.200          25.8004
 122098078.992 6  95141374.14343  23234473.298
  23234463.9944         39.200          22.8004
 112162463.435 8  87399288.47146  21343787.056
  21343773.1814         48.100          36.7004
 125740827.119 6  97979815.77842  23927679.617
  23927667.2064         36.900          16.3004
 121726975.930 6  94852149.12444  23163868.180
  23163858.5834         40.900          24.9004
 118331094.705 7  92205996.33944  22517649.265
  22517636.6214         43.800          27.3004
 108470910.378 8  84522765.86847  20641320.390
  20641306.9254         50.000          43.2004
 120454573.530 7  93860646.03144  22921733.968
  22921721.9094         43.200          28.5004
 109018414.464 7  84949373.40346  20745508.465
  20745493.9444         47.300          39.4004
 16  2 13  4 37 30.0000000  0 10G06G24G30G28G11G01G13G17G15G19
 130177896.038 5 101437300.61242  24772032.005
  24772024.8704         31.600          16.3004
 121620415.836 6  94769124.55843  23143593.825
  23143583.5254         39.000          22.3004
 122200411.975 6  95221114.08143  23253947.260
  23253937.6634         40.000          22.6004
 112204924.802 8  87432375.23846  21351866.751
  21351853.0514         48.100          37.4004
 125822689.959 5  98043605.00642  23943257.560
  23943245.3254         35.700          17.8004
 121754786.978 6  94873820.05644  23169160.573
  23169150.8594         40.500          26.0004
 118417516.157 7  92273337.71344  22534094.915
  22534082.1534         43.800          27.9004
 108461416.764 8  84515368.25247  20639513.678
  20639500.5054         50.300          43.3004
 120488655.687 7  93887203.55144  22928220.467
  22928207.7054         43.400          29.0004
 108956962.235 7  84901488.56046  20733814.468
  20733800.1244         47.600          39.2004
 16  2 13  4 38  0.0000000  0 10G06G24G30G28G11G01G13G17G15G19
 130068991.957 5 101352440.41242  24751308.902
  24751300.5954         33.700          14.8004
 121527201.035 6  94696489.66544  23125855.380
  23125845.2554         39.000          25.7004
 122302958.901 6  95301020.71343  23273460.809
  23273451.7984         40.100          22.9004
 112247588.209 8  87465619.45646  21359985.597
  21359972.0734         48.400          37.1004
 125904980.776 6  98107727.64942  23958917.027
  23958904.9694         36.000          16.9004
 121783199.035 6  94895959.33644  23174566.644
  23174557.3404         39.700          25.0004
 118504311.216 7  92340970.20844  22550610.825
  22550598.6504         43.500          27.8004
 108452426.416 8  84508362.78947  20637802.702
  20637789.6474         50.300          43.3004
 120523258.978 7  93914167.15444  22934805.278
  22934791.9304         44.100          29.4004
 108896050.472 8  84854024.85746  20722223.685
  20722208.5794         48.300          40.4004
 16  2 13  4 38 30.0000000  0 10G06G24G30G28G11G01G13G17G15G19
 129960061.410 5 101267559.51942  24730578.902
  24730571.4154         32.800          16.9004
 121434207.959 6  94624027.54044  23108159.916
  23108149.0884         39.500          25.2004
 122405707.564 6  95381084.60144  23293013.966
  23293004.0764         39.400          24.9004
 112290442.583 8  87499012.46546  21368140.560
  21368126.8614         48.400          37.3004
 125987686.384 6  98172173.56742  23974656.418
  23974643.3634         36.300          17.4004
 121812200.706 6  94918558.03044  23180085.609
  23180076.2474         39.400          24.7004
 118591466.983 7  92408883.78444  22567196.914
  22567183.6834         43.800          28.3004
 108443927.569 8  84501740.31647  20636185.233
  20636172.3544         50.000          43.3004
 120558371.329 7  93941527.42544  22941486.425
  22941473.5464         43.500          29.3004
 108835670.288 8  84806975.37046  20710733.923
  20710718.9924         48.000          40.1004
 16  2 13  4 39  0.0000000  0 10G06G24G30G28G11G01G13G17G15G19
 129851118.205 5 101182668.69142  24709847.190
  24709840.1724         31.900          16.3004
 121341449.771 6  94551748.42644  23090507.757
  23090498.2774         39.100          24.2004
 122508667.249 6  95461312.87344  23312607.711
  23312597.2354         40.700          25.4004
 112333498.861 8  87532562.81046  21376334.429
  21376320.3784         48.800          37.0004
 126070815.030 6  98236949.12242  23990476.479
  23990462.1934         37.300          17.4004
 121841801.973 6  94941623.97344  23185718.817
  23185709.8064         39.800          25.5004
 118678990.353 7  92477083.78544  22583852.137
  22583838.7304         43.600          28.2004
 108435931.458 8  84495509.59047  20634663.935
  20634650.9394         50.700          42.9004
 120594001.781 7  93969291.41445  22948266.955
  22948253.9004         43.800          30.2004
 108775833.781 8  84760349.53846  20699347.479
  20699332.4314         48.200          40.7004
 16  2 13  4 39 30.0000000  0 10G06G24G30G28G11G01G13G17G15G19
 129742162.298 5 101097768.00142  24689114.060
  24689107.5704         32.500          15.6004
 121248926.438 6  94479652.34944  23072901.311
  23072891.6554         38.800          27.0004
 122611833.607 6  95541702.21844  23332238.418
  23332228.6454         40.200          24.9004
 112376754.017 8  87566268.12046  21384564.806
  21384551.2824         48.800          37.4004
 126154361.632 6  98302050.36843  24006373.340
  24006360.5204         37.000          18.3004
 121871999.318 6  94965154.36044  23191464.841
  23191455.6544         40.600          24.7004
 118766876.050 7  92545566.13444  22600575.868
  22600562.7544         43.900          26.8004
 108428434.928 8  84489668.14247  20633237.563
  20633224.3904         50.400          43.0004
 120630145.909 7  93997455.66944  22955144.572
  22955131.7524         43.000          29.8004
 108716539.785 7  84714146.43446  20688063.948
  20688048.9004         47.600          40.4004
 16  2 13  4 40  0.0000000  0 10G06G24G30G28G11G01G13G17G15G19
 129633195.421 5 101012858.71342  24668377.941
  24668371.9194         33.300          16.9004
 121156638.939 6  94407740.04344  23055339.641
  23055329.5174         39.500          25.1004
 122715203.839 6  95622250.37844  23351909.997
  23351900.0484         40.300          24.3004
 112420206.425 8  87600127.14046  21392834.070
  21392820.0784         48.200          37.3004
 126238322.099 6  98367474.09042  24022351.698
  24022337.2954         37.500          16.3004
 121902790.616 6  94989147.57244  23197324.469
  23197314.6374         40.000          24.1004
 118855119.835 7  92614327.51244  22617368.638
  22617355.0564         43.400          27.5004
 108421436.101 8  84484214.51247  20631905.631
  20631892.2254         50.200          42.7004
 120666801.046 7  94026018.08944  22962119.266
  22962107.2084         43.400          28.8004
 108657788.286 8  84668366.04546  20676883.761
  20676868.5964         48.400          40.2004
 16  2 13  4 40 30.0000000  0 10G06G24G30G28G11G01G13G17G15G19
 129524220.296 5 100927943.05442  24647641.385
  24647634.3674         34.500          16.9004
 121064589.500 6  94336013.21444  23037823.317
  23037813.0754         38.800          25.8004
 122818776.259 6  95702956.12444  23371617.975
  23371608.4364         40.400          24.7004
 112463855.615 8  87634139.49946  21401140.342
  21401126.4674         48.900          37.3004
 126322694.163 6  98433218.57942  24038406.148
  24038392.9764         37.100          17.8004
 121934174.883 6  95013602.84143  23203296.243
  23203286.5294         39.400          23.8004
 118943718.535 7  92683365.44344  22634227.330
  22634215.1544         42.600          25.9004
 108414934.228 8  84479148.12447  20630668.167
  20630655.1714         50.100          43.5004
 120703965.139 7  94054977.10145  22969192.201
  22969178.7354         43.900          30.0004
 108599580.587 7  84623009.39746  20665806.995
  20665792.2404         47.700          39.6004
 16  2 13  4 41  0.0000000  0 10G06G24G30G28G11G01G13G17G15G19
 129415240.548 5 100843023.82542  24626903.110
  24626896.5614         33.500          17.4004
 120972780.933 6  94264474.08844  23020352.975
  23020342.4994         39.300          25.8004
 122922549.908 6  95783818.67543  23391365.741
  23391356.6134         39.700          23.0004
 112507702.111 8  87668305.60046  21409483.559
  21409469.7424         48.100          36.8004
 126407475.899 6  98499282.29142  24054539.960
  24054526.6124         37.500          17.8004
 121966151.880 6  95038519.98343  23209381.169
  23209371.5724         38.800          22.8004
 119032670.020 7  92752678.25744  22651154.903
  22651141.7894         42.200          26.4004
 108408930.073 8  84474469.55847  20629525.446
  20629512.4494         49.300          43.2004
 120741637.420 7  94084332.13744  22976361.073
  22976347.9014         43.600          29.7004
 108541918.810 7  84578078.14646  20654834.995
  20654820.2414         47.600          41.0004
 16  2 13  4 41 30.0000000  0 10G06G24G30G28G11G01G13G17G15G19
 129306258.956 5 100758103.11742  24606164.747
  24606157.3184         35.200          16.9004
 120881216.297 6  94193125.05544  23002927.944
  23002918.9334         39.500          25.9004
 123026523.198 6  95864836.78443  23411151.751
  23411141.6264         39.400          22.8004
 112551745.363 8  87702625.02246  21417864.489
  21417851.1414         48.600          36.8004
 126492664.562 6  98565663.05742  24070750.309
  24070737.4894         37.200          17.4004
 121998720.666 6  95063898.25843  23215578.955
  23215569.3584         39.700          23.0004
 119121970.877 7  92822263.31744  22668147.122
  22668135.1224         43.100          26.5004
 108403422.848 8  84470178.21847  20628477.901
  20628464.5534         50.500          42.9004
 120779816.432 7  94114082.00344  22983625.281
  22983612.6954         44.100          28.9004
 108484804.323 8  84533573.36846  20643966.269
  20643951.6904         48.300          40.7004
 16  2 13  4 42  0.0000000  0 10G06G24G30G28G11G01G13G17G15G19
 129197277.424 5 100673182.45942  24585425.197
  24585418.2964         33.500          15.6004
 120789896.601 6  94121966.85444  22985551.582
  22985540.6374         40.300          25.9004
 123130693.600 6  95946008.50243  23430974.615
  23430964.1984         39.400          22.5004
 112595984.520 7  87737097.08846  21426283.181
  21426270.0084         47.700          36.8004
 126578256.688 6  98632358.19243  24087038.233
  24087025.2374         36.600          18.3004
 122031879.261 6  95089736.11243  23221887.954
  23221878.5334         39.500          23.2004
 119211617.619 7  92892117.90244  22685207.968
  22685194.5024         43.700          28.1004
 108398411.245 8  84466273.08047  20627523.715
  20627510.7784         49.600          42.8004
 120818498.933 7  94144224.20744  22990987.541
  22990974.1934         44.600          29.2004
 108428237.305 8  84489495.18546  20633201.525
  20633186.9464         48.000          40.8004
 16  2 13  4 42 30.0000000  0 10G06G24G30G28G11G01G13G17G15G19
 129088299.798 5 100588264.84642  24564688.961
  24564680.9474         34.800          17.4004
 120698825.399 6  94051002.28644  22968220.706
  22968210.3484         39.800          25.7004
 123235060.336 6  96027333.19743  23450835.221
  23450825.0384         39.600          22.6004
 112640420.073 8  87771722.20146  21434738.701
  21434725.1184         49.100          37.1004
 126664250.462 6  98699366.24943  24103402.060
  24103389.8844         37.600          18.3004
 122065627.770 6  95116033.64944  23228310.964
  23228301.4254         40.400          25.6004
 119301607.522 7  92962239.88644  22702332.315
  22702318.9674         43.700          26.5004
 108393895.631 8  84462754.42647  20626664.658
  20626651.5454         50.200          43.5004
 120857684.236 7  94174758.21644  22998443.068
  22998431.0684         43.800          28.6004
 108372220.166 8  84445845.47446  20622542.270
  20622527.4574         49.000          40.6004
 16  2 13  4 43  0.0000000  0 10G06G24G30G28G11G01G13G17G15G19
 128979327.450 5 100503351.36443  24543951.291
  24543943.3944         34.000          18.3004
 120608003.500 6  93980231.98544  22950938.383
  22950927.6724         39.400          26.1004
 123339620.427 6  96108808.53143  23470732.418
  23470722.0594         39.400          22.9004
 112685050.274 8  87806498.99246  21443232.073
  21443218.3154         48.000          36.9004
 126750642.161 6  98766684.47242  24119841.645
  24119829.1764         36.900          17.4004
 122099963.590 6  95142788.82844  23234845.244
  23234835.1784         40.200          25.5004
 119391936.306 7  93032625.95144  22719521.657
  22719507.7814         43.200          25.6004
 108389874.211 8  84459620.85447  20625899.476
  20625886.4794         50.000          43.0004
 120897369.228 7  94205681.59344  23005996.138
  23005982.8484         43.800          28.0004
 108316752.670 8  84402624.06846  20611987.728
  20611972.1524         48.300          41.2004
 16  2 13  4 43 30.0000000  0 10G06G24G30G28G11G01G13G17G15G19
 128870364.840 5 100418445.44843  24523216.407
  24523209.2134         35.800          18.3004
 120517434.946 6  93909659.09344  22933703.181
  22933693.2334         39.400          25.8004
 123444373.624 6  96190434.33643  23490665.345
  23490656.1594         40.600          23.0004
 112729876.295 7  87841428.35646  21451761.641
  21451748.4694         47.800          37.2004
 126837430.587 6  98834311.73242  24136357.502
  24136344.5644         37.200          17.8004
 122134887.076 6  95170001.92544  23241490.900
  23241480.8934         40.000          24.8004
 119482602.516 7  93103274.93444  22736774.275
  22736761.2204         42.800          26.0004
 108386347.942 8  84456873.11647  20625228.392
  20625215.1034         49.700          43.3004
 120937553.376 7  94236993.88944  23013642.541
  23013629.1354         43.600          29.1004
 108261837.395 8  84359832.95346  20601537.182
  20601521.7834         48.300          40.4004
 16  2 13  4 44  0.0000000  0 10G06G24G30G28G11G01G13G17G15G19
 128761414.261 5 100333548.94142  24502484.056
  24502476.1004         35.800          17.4004
 120427121.229 6  93839284.77444  22916516.804
  22916506.7384         39.600          26.3004
 123549317.819 6  96272208.97343  23510636.900
  23510626.6584         39.400          22.5004
 112774897.381 8  87876509.71846  21460329.371
  21460315.5544         48.400          36.8004
 126924612.505 6  98902245.70442  24152948.126
  24152934.6614         36.300          16.9004
 122170396.774 6  95197671.81744  23248247.060
  23248238.9874         39.300          24.9004
 119573602.587 7  93174184.05344  22754090.947
  22754078.4194         42.700          25.8004
 108383315.573 8  84454510.24347  20624651.232
  20624637.8844         49.000          42.9004
 120978234.532 7  94268693.48844  23021384.045
  23021371.2244         43.500          29.2004
 108207475.344 7  84317472.91846  20591191.842
  20591177.2634         47.900          40.7004
 16  2 13  4 44 30.0000000  0 10G06G24G30G28G11G01G13G17G15G19
 128652478.709 5 100248664.12542  24481752.402
  24481745.9704         33.800          17.4004
 120337064.841 6  93769110.97644  22899380.180
  22899369.5874         40.100          25.9004
 123654451.527 6  96354131.29743  23530643.481
  23530632.1264         39.200          22.2004
 112820113.496 8  87911743.05646  21468933.867
  21468920.1094         48.600          36.5004
 127012185.354 6  98970484.22942  24169611.244
  24169599.2444         37.000          16.3004
 122206491.698 6  95225797.71844  23255116.027
  23255107.8954         39.600          25.0004
 119664933.418 7  93245350.92044  22771470.993
  22771458.4074         42.300          25.7004
 108380776.809 8  84452531.98547  20624167.950
  20624155.3054         50.000          43.3004
 121019410.915 7  94300778.97944  23029219.809
  23029206.2854         43.600          29.1004
 108153667.707 7  84275544.89146  20580952.761
  20580938.3584         47.500          40.6004
 16  2 13  4 45  0.0000000  0 10G06G24G30G28G11G01G13G17G15G19
 128543560.873 5 100163793.11342  24461028.186
  24461019.8784         35.000          17.8004
 120247268.386 6  93699139.72044  22882293.434
  22882282.2544         41.100          26.7004
 123759772.787 6  96436199.76743  23550684.874
  23550674.2814         39.600          23.3004
 112865524.074 8  87947127.91946  21477574.940
  21477561.0644         48.800          37.3004
 127100146.279 6  99039025.24542  24186350.366
  24186337.4284         37.400          16.9004
 122243170.463 6  95254378.57044  23262096.046
  23262087.5634         39.200          24.2004
 119756591.535 7  93316772.80144  22788912.099
  22788900.6274         42.100          26.4004
 108378730.609 8  84450937.54147  20623778.915
  20623765.7434         49.800          43.0004
 121061080.279 7  94333248.61644  23037148.936
  23037136.1154         43.500          29.2004
 108100415.543 8  84234049.69546  20570819.575
  20570804.6444         48.000          41.1004
 16  2 13  4 45 30.0000000  0 11G06G24G12G30G28G11G01G13G17G15G19
 128434662.706 5 100078937.40242  24440305.267
  24440296.5494         33.200          17.4004
 120157733.097 6  93629371.97644  22865253.325
  22865243.7284         38.900          26.2004
 131131882.771 5 102180631.50442  24953567.681
  24953554.5674         34.300          17.4004
 123865279.027 6  96518412.37043  23570762.223
  23570751.9814         39.800          23.8004
 112911127.644 8  87982663.17046  21486253.797
  21486239.6874         48.500          37.0004
 127188491.796 5  99107865.87042  24203162.174
  24203149.2954         35.700          16.3004
 122280430.905 6  95283412.68744  23269187.021
  23269177.7174         40.400          25.3004
 119848572.943 7  93388446.60444  22806416.965
  22806403.8524         42.700          25.5004
 108377175.614 8  84449725.85947  20623482.952
  20623470.0144         49.700          42.5004
 121103240.411 7  94366100.67144  23045171.878
  23045159.3504         43.200          29.1004
 108047718.783 7  84192987.29446  20560791.046
  20560776.7024         47.500          40.6004
 16  2 13  4 46  0.0000000  0 11G06G24G12G30G28G11G01G13G17G15G19
 128325787.384 5  99994099.49343  24419587.306
  24419578.4124         35.100          19.3004
 120068461.723 6  93559809.88744  22848266.024
  22848256.0164         39.700          27.9004
 131034736.440 5 102104933.18542  24935080.869
  24935069.5724         33.800          16.9004
 123970969.011 6  96600768.13843  23590875.263
  23590864.1424         39.200          22.0004
 112956924.617 8  88018349.12046  21494967.979
  21494954.0454         49.100          36.7004
 127277219.548 6  99177004.39243  24220047.936
  24220033.5924         37.100          18.3004
 122318272.355 6  95312899.51644  23276386.914
  23276377.3764         40.900          25.8004
 119940874.926 7  93460370.20344  22823981.389
  22823967.8654         42.100          26.0004
 108376111.685 8  84448896.83147  20623280.210
  20623267.0964         49.500          43.0004
 121145889.129 7  94399333.43144  23053287.892
  23053274.6024         43.000          29.7004
 107995579.151 8  84152359.02946  20550869.657
  20550855.0204         48.400          40.9004
 16  2 13  4 46 30.0000000  0 11G06G24G12G30G28G11G01G13G17G15G19
 128216938.446 5  99909282.24743  24398874.656
  24398865.4104         34.900          19.3004
 119979457.072 6  93490455.61744  22831330.060
  22831319.3494         40.900          27.0004
 130937629.364 5 102029265.36042  24916601.781
  24916591.4224         34.700          15.6004
 124076841.613 6  96683266.22743  23611020.573
  23611010.1554         38.600          21.3004
 113002915.278 8  88054185.99046  21503719.730
  21503705.6784         48.600          36.2004
 127366327.436 6  99246439.05642  24237004.516
  24236990.8164         37.600          17.8004
 122356694.100 6  95342838.53844  23283697.150
  23283689.9564         40.800          25.3004
 120033495.086 7  93532541.73444  22841606.357
  22841592.5984         42.900          26.4004
 108375538.744 8  84448450.38347  20623171.573
  20623158.4594         49.700          43.1004
 121189025.093 7  94432945.86144  23061496.321
  23061483.7354         43.900          28.9004
 107943998.148 8  84112166.06146  20541053.843
  20541039.7334         48.800          41.1004
 16  2 13  4 47  0.0000000  0 11G06G24G12G30G28G11G01G13G17G15G19
 128108118.735 5  99824487.68243  24378166.114
  24378157.1044         33.900          19.3004
 119890721.773 6  93421311.24144  22814443.709
  22814433.1164         39.500          27.4004
 130840562.064 5 101953628.53142  24898130.606
  24898120.3644         33.100          16.9004
 124182894.935 6  96765905.13643  23631202.454
  23631191.6854         37.900          21.5004
 113049099.249 8  88090173.49946  21512508.183
  21512494.3074         48.400          36.2004
 127455812.760 6  99316167.87442  24254032.572
  24254019.1074         38.100          17.8004
 122395694.811 6  95373228.69343  23291120.555
  23291110.7244         41.200          23.9004
 120126430.013 7  93604958.54944  22859290.438
  22859278.0864         42.400          25.9004
 108375455.859 8  84448385.80547  20623155.544
  20623142.4894         49.700          42.8004
 121232646.569 7  94466936.63244  23069796.996
  23069784.4684         43.600          28.6004
 107892976.770 8  84072409.16246  20531345.170
  20531329.8294         48.400          41.5004
 16  2 13  4 47 30.0000000  0 11G06G24G12G30G28G11G01G13G17G15G19
 127999333.499 6  99739719.99143  24357465.964
  24357456.1324         36.000          19.6004
 119802260.072 6  93352380.05844  22797610.029
  22797599.6704         41.300          28.0004
 130743537.556 5 101878025.07442  24879667.163
  24879657.7424         34.900          17.4004
 124289129.789 6  96848685.45843  23651419.029
  23651407.5564         38.400          21.1004
 113095478.420 7  88126313.10746  21521333.458
  21521320.1694         46.800          36.2004
 127545675.354 6  99386190.59642  24271132.797
  24271119.9774         37.600          16.9004
 122435275.693 6  95404070.94143  23298653.008
  23298643.4114         39.400          23.5004
 120219678.830 6  93677619.93744  22877035.543
  22877022.4884         41.700          25.5004
 108375864.884 8  84448704.53447  20623233.248
  20623220.3684         49.800          43.1004
 121276753.948 6  94501306.01644  23078190.617
  23078177.5034         41.800          29.1004
 107842518.636 8  84033091.14646  20521743.227
  20521728.4134         48.000          41.2004
 16  2 13  4 48  0.0000000  0 11G06G24G12G30G28G11G01G13G17G15G19
 127890576.229 5  99654974.09243  24336768.789
  24336760.5404         35.100          18.6004
 119714065.695 6  93283657.15944  22780827.350
  22780816.6394         41.100          26.7004
 130646547.188 5 101802448.23842  24861209.773
  24861200.9974         34.600          16.3004
 124395535.059 6  96931598.61943  23671665.678
  23671656.9014         39.000          22.3004
 113142043.405 7  88162597.50746  21530194.410
  21530181.4134         47.900          36.6004
 127635903.094 6  99456497.97342  24288303.629
  24288289.4614         36.800          17.4004
 122475426.008 6  95435356.89043  23306294.346
  23306283.6944         39.400          23.9004
 120313229.308 6  93750516.40244  22894837.729
  22894824.5564         41.600          24.8004
 108376755.835 8  84449398.78047  20623402.673
  20623390.0874         50.000          42.8004
 121321335.816 7  94536045.12844  23086673.293
  23086661.0004         42.500          28.8004
 107792615.441 8  83994205.55446  20512246.865
  20512231.7004         48.700          41.5004
 16  2 13  4 48 30.0000000  0 11G06G24G12G30G28G11G01G13G17G15G19
 127781860.864 5  99570260.87143  24316080.681
  24316072.2564         35.500          18.6004
 119626151.074 6  93215152.28544  22764096.735
  22764087.0214         39.500          27.2004
 130549602.626 6 101726907.05742  24842763.275
  24842751.9204         36.000          15.6004
 124502120.075 6  97014651.84143  23691948.067
  23691938.2944         38.300          22.9004
 113188804.552 8  88199034.75246  21539092.859
  21539079.5704         48.100          36.5004
 127726504.064 6  99527096.10142  24305543.707
  24305530.3594         36.000          16.9004
 122516155.382 6  95467094.06543  23314044.798
  23314034.1464         39.000          23.5004
 120407089.184 6  93823653.91944  22912697.863
  22912685.7464         41.700          25.0004
 108378138.794 8  84450476.41847  20623666.569
  20623653.1044         50.200          42.9004
 121366401.066 7  94571160.88344  23095249.385
  23095237.0334         43.500          28.9004
 107743279.042 8  83955761.61546  20502859.024
  20502843.0974         49.100          41.4004
 16  2 13  4 49  0.0000000  0 11G06G24G12G30G28G11G01G13G17G15G19
 127673185.737 5  99485579.00843  24295400.553
  24295392.3054         35.600          19.0004
 119538515.198 6  93146864.59644  22747421.291
  22747410.6984         41.100          26.9004
 130452699.643 6 101651398.31242  24824323.991
  24824311.4054         37.300          16.3004
 124608878.530 6  97097840.23743  23712265.247
  23712254.1844         40.000          22.3004
 113235757.073 8  88235621.14046  21548028.023
  21548014.0894         48.200          36.3004
 127817471.275 5  99597979.65242  24322853.453
  24322841.0434         35.600          17.8004
 122557458.164 6  95499278.04743  23321904.011
  23321893.8284         39.400          22.5004
 120501250.721 6  93897026.53144  22930615.881
  22930604.1154         41.500          25.8004
 108380008.690 8  84451933.48347  20624021.854
  20624008.7994         49.800          42.7004
 121411943.151 7  94606648.22044  23103915.964
  23103903.5534         43.000          29.1004
 107694506.153 8  83917756.77546  20493577.038
  20493562.3424         48.200          41.2004
 16  2 13  4 49 30.0000000  0 11G06G24G12G30G28G11G01G13G17G15G19
 127564553.840 5  99400930.83543  24274727.993
  24274719.6864         35.700          18.3004
 119451159.828 6  93078795.47144  22730798.115
  22730787.6984         40.800          28.6004
 130355839.210 5 101575922.71742  24805890.649
  24805879.5874         35.800          16.9004
 124715809.030 6  97181162.63843  23732612.502
  23732602.3194         38.500          21.8004
 113282901.491 8  88272357.04546  21556999.072
  21556985.3734         48.200          36.4004
 127908802.125 6  99669146.56442  24340233.045
  24340220.5174         37.400          17.8004
 122599333.068 6  95531907.84143  23329871.287
  23329862.5104         39.400          23.0004
 120595710.810 6  93970631.77443  22948591.703
  22948578.9414         41.300          23.9004
 108382365.086 8  84453769.63047  20624470.183
  20624457.2464         50.100          42.8004
 121457960.307 7  94642505.73744  23112672.802
  23112660.2744         43.100          28.6004
 107646297.504 8  83880191.61146  20484403.559
  20484388.5114         48.600          41.3004
 16  2 13  4 50  0.0000000  0 11G06G24G12G30G28G11G01G13G17G15G19
 127455967.623 5  99316318.21543  24254066.495
  24254056.9574         35.900          19.0004
 119364087.235 6  93010946.70044  22714227.707
  22714218.6964         41.100          28.6004
 130259021.464 5 101500480.39942  24787466.079
  24787455.4854         35.200          14.8004
 124822908.990 6  97264617.10843  23752992.563
  23752982.7904         38.400          21.5004
 113330236.378 8  88309241.37146  21566007.187
  21565993.1944         48.400          36.2004
 128000492.966 6  99740593.92442  24357681.645
  24357669.0594         36.400          15.6004
 122641777.973 6  95564981.78543  23337947.592
  23337939.5194         38.700          22.9004
 120690465.719 7  94044466.74544  22966623.731
  22966609.9724         42.400          24.7004
 108385206.324 8  84455983.58847  20625011.096
  20624997.9834         49.000          42.8004
 121504449.571 7  94678731.11244  23121519.853
  23121507.0324         43.900          28.7004
 107598653.516 8  83843066.43646  20475337.330
  20475322.3414         48.100          41.0004
 16  2 13  4 50 30.0000000  0 11G06G24G12G30G28G11G01G13G17G15G19
 127347430.749 5  99231744.05143  24233412.994
  24233402.6354         35.800          19.3004
 119277300.178 6  92943320.43444  22697714.209
  22697703.5574         41.700          29.2004
 130162247.772 5 101425072.40342  24769050.715
  24769040.3564         35.000          14.8004
 124930177.819 6  97348203.15543  23773407.399
  23773395.4584         39.000          20.9004
 113377762.485 7  88346274.69845  21575050.967
  21575037.0924         47.600          35.9004
 128092542.496 5  99812320.82342  24375198.134
  24375185.0794         35.600          17.4004
 122684792.552 6  95598499.63644  23346133.101
  23346125.0864         37.800          24.4004
 120785513.309 7  94118529.79943  22984710.034
  22984697.2134         42.000          22.6004
 108388532.665 8  84458575.53947  20625644.164
  20625631.1684         49.500          43.1004
 121551409.942 7  94715323.60144  23130456.000
  23130443.5314         42.700          28.3004
 107551576.088 8  83806382.73146  20466378.700
  20466363.9454         48.700          40.8004
 16  2 13  4 51  0.0000000  0 11G06G24G12G30G28G11G01G13G17G15G19
 127238946.026 5  99147210.56943  24212766.733
  24212758.1914         34.600          18.6004
 119190801.295 6  92875918.72444  22681253.113
  22681242.8724         41.200          29.3004
 130065518.653 5                  24750645.169
                        35.100
 125037613.454 6  97431919.16343  23793849.323
  23793840.0194         37.400          19.6004
 113425479.138 7  88383456.50345  21584131.002
  21584116.8924         47.600          35.9004
 128184947.649 6  99884324.83643  24392783.076
  24392769.2004         37.100          18.3004
 122728374.974 6  95632459.96543  23354426.956
  23354418.0044         39.200          22.6004
 120880850.127 6  94192818.22244  23002851.619
  23002838.7984         40.900          24.7004
 108392343.007 8  84461544.64247  20626369.470
  20626356.0054         49.900          43.4004
 121598839.357 7  94752281.57444  23139480.932
  23139468.6394         42.800          28.6004
 107505066.070 8  83770141.17346  20457527.589
  20457513.1284         48.700          41.0004
 16  2 13  4 51 30.0000000  0 11G06G24G12G30G28G11G01G13G17G15G19
 127130515.831 5  99062719.52643  24192134.184
  24192124.6454         35.800          19.0004
 119104592.186 6  92808742.78944  22664849.089
  22664838.3194         41.900          29.2004
 129968834.180 6 101274357.60142  24732247.342
  24732232.8804         36.700          16.3004
 125145213.638 6  97515763.46843  23814326.536
  23814316.0604         37.500          20.6004
 113473385.791 7  88420786.36246  21593247.620
  21593233.8034         47.800          36.2004
 128277705.145 5  99956603.33642  24410432.865
  24410420.8654         35.100          15.6004
 122772523.556 6  95666861.45643  23362829.216
  23362819.8534         39.700          23.4004
 120976472.453 6  94267329.10843  23021048.618
  23021035.5634         41.500          23.8004
 108396636.258 8  84464890.02847  20627186.457
  20627173.0504         49.500          43.3004
 121646735.013 6  94789602.84644  23148595.264
  23148583.0894         41.800          28.6004
 107459123.809 8  83734342.01646  20448785.465
  20448770.5934         48.200          41.0004
 16  2 13  4 52  0.0000000  0 11G06G24G12G30G28G11G01G13G17G15G19
 127022146.659 5  98978276.02943  24171512.994
  24171503.1044         35.700          19.0004
 119018678.642 6  92741797.18844  22648498.692
  22648489.7404         40.900          29.2004
 129872198.758 5 101199057.31942  24713857.440
  24713845.0294         35.400          17.4004
 125252980.248 6  97599737.36343  23834833.368
  23834823.2434         37.900          21.3004
 113521485.815 7  88458266.89445  21602399.750
  21602386.6954         46.500          35.7004
 128370815.683 5 100029157.02542  24428151.473
  24428138.7704         35.200          14.8004
 122817240.163 6  95701705.54644  23371339.154
  23371328.6194         40.800          24.7004
 121072380.720 6  94342062.79744  23039299.218
  23039286.3974         41.500          24.5004
 108401414.989 8  84468613.71947  20628095.694
  20628082.7564         50.000          42.9004
 121695098.176 7  94827288.41644  23157799.399
  23157786.3444         42.100          29.1004
 107413753.379 8  83698988.44946  20440152.235
  20440136.8944         48.200          41.7004
 16  2 13  4 52 30.0000000  0 11G06G24G12G30G28G11G01G13G17G15G19
 126913831.398 5  98893874.54543  24150900.399
  24150891.5644         35.900          18.6004
 118933053.578 6  92675076.37344  22632205.630
  22632195.4474         40.900          27.8004
 129775603.015 5 101123787.92242  24695475.468
  24695463.8784         35.700          16.3004
 125360901.623 6  97683831.89743  23855370.214
  23855359.9724         37.500          20.4004
 113569768.845 7  88495890.03745  21611588.164
  21611574.9334         46.900          35.6004
 128464266.610 5 100101975.89742  24445934.885
  24445921.7724         34.800          16.3004
 122862513.436 6  95736983.41544  23379954.846
  23379943.1984         41.200          24.1004
 121168561.760 6  94417009.04844  23057602.290
  23057589.0004         41.800          25.8004
 108406668.600 8  84472707.45047  20629094.862
  20629082.7454         50.200          42.9004
 121743916.930 7  94865329.00144  23167088.821
  23167076.0594         42.700          29.3004
 107368945.855 8  83664073.49946  20431625.413
  20431610.0144         49.100          41.9004
 16  2 13  4 53  0.0000000  0 11G06G24G12G30G28G11G01G13G17G15G19
 126805583.142 6  98809525.28643  24130302.120
  24130292.2884         37.000          19.6004
 118847729.322 6  92608589.94144  22615968.512
  22615958.6804         41.400          28.6004
 129679057.570 5 101048557.68642  24677102.905
  24677091.9014         34.500          16.3004
 125468985.955 6  97768053.42443  23875937.674
  23875928.4294         36.000          20.4004
 113618244.447 7  88533663.24345  21620813.319
  21620799.2094         46.600          35.8004
 128558065.350 5 100175065.84542  24463783.383
  24463771.4414         35.100          14.8004
 122908351.891 6  95772701.69744  23388677.736
  23388666.6744         40.300          24.7004
 121265022.245 7  94492173.02743  23075957.706
  23075944.7094         42.200          22.3004
 108412405.964 8  84477178.13047  20630186.719
  20630173.9574         49.600          42.3004
 121793198.984 7  94903730.61144  23176467.043
  23176453.9294         42.700          28.1004
 107324712.132 8  83629605.68346  20423207.962
  20423192.5634         49.100          41.3004
 16  2 13  4 53 30.0000000  0 11G06G24G12G30G28G11G01G13G17G15G19
 126697400.716 6  98725227.36343  24109715.687
  24109706.2664         37.900          19.6004
 118762704.040 6  92542336.49444  22599788.411
  22599778.9314         41.600          28.9004
 129582559.163 6 100973364.27942  24658740.217
  24658728.6864         36.600          17.8004
 125577227.642 6  97852397.55343  23896535.756
  23896525.9254         37.100          20.4004
 113666908.672 7  88571583.42245  21630073.568
  21630059.3994         46.800          35.7004
 128652205.255 5 100248421.63242  24481697.573
  24481685.8084         34.000          16.3004
 122954750.050 6  95808856.11943  23397506.172
  23397495.3444         37.400          22.5004
 121361755.297 6  94567549.42443  23094366.097
  23094352.1634         41.800          22.9004
 108418622.532 8  84482022.20447  20631369.984
  20631356.9294         49.100          42.7004
 121842938.231 7  94942488.45444  23185931.915
  23185918.8024         42.200          27.9004
 107281049.135 8  83595582.57546  20414899.255
  20414884.0324         49.000          40.7004
 16  2 13  4 54  0.0000000  0 11G06G24G12G30G28G11G01G13G17G15G19
 126589288.388 6  98640983.97543  24089143.020
  24089132.8964         37.100          19.6004
 118677981.258 7  92476318.74644  22583667.103
  22583656.2754         42.500          29.0004
 129486109.522 6 100898208.69042  24640388.272
  24640375.2174         36.800          16.9004
 125685626.101 5  97936863.83943  23917159.833
  23917153.7534         34.800          19.6004
 113715762.401 7  88609651.27045  21639370.032
  21639356.1574         47.000          35.6004
 128746684.222 5 100322041.50942  24499676.428
  24499664.6044         34.800          15.6004
 123001707.535 6  95845446.34443  23406440.805
  23406430.6804         40.600          23.6004
 121458758.549 7  94643136.36743  23112824.734
  23112811.2694         42.000          22.8004
 108425318.603 8  84487239.93447  20632644.096
  20632631.2754         49.600          42.3004
 121893133.773 7  94981601.86244  23195483.800
  23195470.7454         43.000          28.4004
 107237958.645 8  83562005.58146  20406699.135
  20406683.7364         48.100          41.2004
 16  2 13  4 54 30.0000000  0 11G06G24G12G30G28G11G01G13G17G15G19
 126481248.131 6  98556796.78043  24068583.084
  24068574.6594         37.500          20.6004
 118593562.696 6  92410538.05545  22567603.384
  22567591.9114         41.700          30.0004
 129389708.554 6 100823091.11342  24622045.024
  24622031.0324         38.400          17.4004
 125794178.533 6  98021450.12343  23937820.387
  23937810.2624         36.800          20.9004
 113764804.590 7  88647865.96045  21648702.593
  21648688.6594         47.300          35.8004
 128841499.260 5 100395923.38842  24517719.338
  24517706.1084         35.900          15.6004
 123049221.853 6  95882470.47043  23415483.163
  23415472.9804         37.400          22.5004
 121556027.835 6  94718930.58043  23131332.898
  23131320.4874         41.700          22.9004
 108432492.360 8  84492829.87547  20634009.231
  20633996.5284         49.400          42.4004
 121943782.400 7  95021068.31544  23205121.838
  23205109.0184         42.700          27.1004
 107195440.678 8  83528874.70746  20398607.751
  20398593.0554         48.500          41.7004
 16  2 13  4 55  0.0000000  0 11G06G24G12G30G28G11G01G13G17G15G19
 126373283.107 6  98472668.22543  24048037.873
  24048028.1004         37.500          19.9004
 118509451.028 7  92344996.50044  22551596.957
  22551586.3644         42.600          29.6004
 129293356.896 6 100748011.97742  24603709.557
  24603696.0924         37.100          16.3004
 125902883.575 6  98106155.30643  23958506.331
  23958496.6764         37.000          20.6004
 113814034.793 7  88686227.14345  21658070.823
  21658057.1234         47.200          35.9004
 128936647.443 5 100470064.79142  24535826.527
  24535812.5934         34.700          13.9004
 123097291.652 6  95919927.45643  23424631.118
  23424620.3484         40.400          22.3004
 121653560.910 6  94794930.36443  23149894.300
  23149881.3624         41.300          22.2004
 108440143.154 8  84498791.54747  20635464.820
  20635451.7654         49.500          42.9004
 121994882.103 7  95060886.25644  23214845.847
  23214833.0264         42.300          27.4004
 107153495.882 8  83496190.46146  20390626.037
  20390611.4004         48.500          41.4004
 16  2 13  4 55 30.0000000  0 11G06G24G12G30G28G11G01G13G17G15G19
 126265396.218 6  98388600.53343  24027507.941
  24027498.1684         37.100          20.4004
 118425648.365 6  92279695.74344  22535649.483
  22535638.7134         41.700          28.7004
 129197055.470 5 100672972.04342  24585381.499
  24585369.9104         35.100          16.9004
 126011739.421 6  98190977.96843  23979219.623
  23979210.7884         37.300          21.1004
 113863453.056 7  88724734.88745  21667474.177
  21667461.0054         47.500          35.5004
 129032125.869 5 100544463.60142  24553994.505
  24553981.9774         35.500          14.8004
 123145915.330 6  95957816.02943  23433883.280
  23433873.1564         39.400          22.2004
 121751354.085 6  94871132.82243  23168503.663
  23168491.1944         41.100          22.5004
 108448270.113 8  84505124.23247  20637011.956
  20636998.4914         49.700          42.4004
 122046430.799 6  95101054.04144  23224655.440
  23224642.4444         40.100          27.9004
 107112125.095 8  83463953.48546  20382753.474
  20382738.6024         48.300          41.2004
 16  2 13  4 56  0.0000000  0 11G06G24G12G30G28G11G01G13G17G15G19
 126157590.767 5  98304596.31743  24006991.804
  24006983.3204         35.700          21.1004
 118342157.378 6  92214637.83744  22519760.925
  22519751.3874         40.800          29.7004
 129100805.273 6 100597971.91742  24567065.726
  24567054.4304         36.700          17.4004
 126120744.536 6  98275916.99243  23999963.117
  23999953.2864         38.800          20.9004
 113913059.707 7  88763389.41045  21676914.756
  21676900.7044         47.200          35.3004
 129127932.667 5 100619118.21542  24572225.804
  24572213.6874         35.000          16.3004
 123195091.540 6  95996135.14743  23443240.801
  23443231.4974         39.900          22.6004
 121849404.170 6  94947535.45543  23187161.558
  23187149.6164         41.300          22.0004
 108456872.685 8  84511827.54447  20638649.151
  20638635.8034         49.200          43.1004
 122098426.705 6  95141570.32544  23234549.323
  23234536.5024         39.200          27.6004
 107071329.908 8  83432165.03547  20374990.063
  20374975.5424         48.300          42.3004
 16  2 13  4 56 30.0000000  0 11G06G24G12G30G28G11G01G13G17G15G19
 126049872.865 6  98220660.35643  23986494.282
  23986485.6234         36.400          19.3004
 118258984.161 6  92149827.55745  22503934.515
  22503923.8044         41.900          30.0004
 129004609.749 5 100523014.41842  24548758.419
  24548748.9984         34.300          17.4004
 126229900.427 6  98360973.51443  24020735.655
  24020725.2964         37.600          20.9004
 113962857.671 7  88802193.01045  21686390.558
  21686377.0934         46.700          35.5004
 129224068.094 5 100694028.90842  24590518.620
  24590507.6174         33.700          13.9004
 123244821.817 6  96034886.00343  23452704.543
  23452695.1814         39.700          22.6004
 121947711.581 6  95024138.62143  23205868.880
  23205857.1734         41.100          22.5004
 108465952.991 8  84518903.11847  20640375.122
  20640363.1224         49.700          42.6004
 122150870.307 6  95182435.45744  23244529.083
  23244516.4384         39.600          27.3004
 107031114.034 8  83400827.99947  20367337.908
  20367322.9784         48.800          42.1004
 16  2 13  4 57  0.0000000  0 11G06G24G12G30G28G11G01G13G17G15G19
 125942234.767 5  98136786.47443  23966011.303
  23966002.5274         35.000          20.6004
 118176119.723 7  92085257.87744  22488165.825
  22488155.2314         42.000          29.8004
 128908459.376 5 100448092.08342  24530463.520
  24530451.6964         35.800          17.8004
 126339194.464 6  98446137.63343  24041533.370
  24041523.7734         37.700          20.6004
 114012835.501 7  88841136.76645  21695901.080
  21695887.7914         46.600          34.9004
 129320518.355 5 100769184.92842  24608872.879
  24608861.6994         33.000          14.8004
 123295093.649 6  96074058.85643  23462269.967
  23462260.7804         40.300          23.0004
 122046262.106 7  95100931.21943  23224623.477
  23224610.1294         42.000          22.8004
 108475499.525 8  84526341.96947  20642193.444
  20642180.0964         49.900          42.6004
 122203748.539 6  95223639.26844  23254591.363
  23254579.1874         40.300          27.8004
 106991466.866 8  83369934.11847  20359793.584
  20359778.1854         48.800          42.2004
