     2.11           OBSERVATION DATA    G (GPS)             RINEX VERSION / TYPE
teqc  2016Nov7      root                20180417 15:40:30UTCPGM / RUN BY / DATE
Linux 2.4.21-27.ELsmp|Opteron|gcc|Linux x86_64|=+           COMMENT
     2.11           OBSERVATION DATA    G (GPS)             COMMENT
teqc  2015Nov6      NOAA/NOS/NGS/CORS   20160214 10:28:45UTCCOMMENT
Solaris x86 5.10|AMD64|cc SC5.8 -xarch=amd64|=+|=+          COMMENT
teqc  2015Nov6      NOAA/NOS/NGS/CORS   20160214 10:28:33UTCCOMMENT
teqc  2015Nov6      UNAVCO Archive Ops  20160214 00:42:45UTCCOMMENT
BIT 2 OF LLI FLAGS DATA COLLECTED UNDER A/S CONDITION       COMMENT
input file: shld201602130000a.tgd                           COMMENT
RINEX file created by UNAVCO GPS Archive.                   COMMENT
For more information contact archive@unavco.org             COMMENT
Monument ID: 18021                                          COMMENT
UNAVCO 4-char name:   SHLD                                  COMMENT
4-char name from Log or data file: SHLD                     COMMENT
Monument location: 41.868367 -119.015684 1457.5576          COMMENT
Visit ID: 112365                                            COMMENT
                                                            COMMENT
SHLD_PNGA_NV1999                                            COMMENT
                                                            COMMENT
End of DB comments                                          COMMENT
 SNR is mapped to RINEX snr flag value [0-9]                COMMENT
  L1 & L2: min(max(int(snr_dBHz/6), 0), 9)                  COMMENT
teqc edited: all SBAS satellites excluded                   COMMENT
teqc edited: all Compass satellites excluded                COMMENT
teqc edited: all QZSS satellites excluded                   COMMENT
Forced Modulo Decimation to 30 seconds                      COMMENT
SHLD                                                        MARKER NAME
49771M001                                                   MARKER NUMBER
Miner, Andy         Central Washington University           OBSERVER / AGENCY
4420234001          TRIMBLE NETRS       1.3-0               REC # / TYPE / VERS
0220138195          TRM29659.00     UNAV                    ANT # / TYPE
 -2307792.2310 -4160683.4330  4235700.0980                  APPROX POSITION XYZ
        0.0083        0.0000        0.0000                  ANTENNA: DELTA H/E/N
     1     1                                                WAVELENGTH FACT L1/2
     8    L1    L2    C1    C2    P1    P2    S1    S2      # / TYPES OF OBSERV
    30.0000                                                 INTERVAL
teqc.w windowed: start @ 2016 Feb 13 00:00:00.000           COMMENT
teqc.w windowed:  end  @ 2016 Feb 13 05:00:00.000           COMMENT
teqc.w edited: all GLONASS satellites excluded              COMMENT
  2016     2    13     2     8   30.0000000     GPS         TIME OF FIRST OBS
                                                            END OF HEADER
 16  2 13  2  8 30.0000000  0 11G05G01G07G09G11G27G28G30G08G13G17
  -3574437.207 6  -2097808.45143  24491816.617
  24491805.027          36.300          20.600
   -815960.79715   -535798.28153  25337235.930
  25337229.672          34.000          18.600
 -27296531.158 7 -20578005.60946  20707015.359
  20707003.242          47.600          39.800
 -13390630.599 6  -9659875.44844  23501044.227
  23501036.152          39.000          24.200
 -10429258.823 6  -5576778.28443  23531159.766
  23531147.355          38.900          20.600
 -28560657.101 6 -23634354.09442  25019502.406
  25019492.574          37.700          17.400
 -19892513.384 7 -14455834.21246  21081187.563
  21081175.270          47.700          38.000
 -27006272.575 8 -20183361.74547  20303390.789
  20303381.133          50.800          43.300
 -12776451.842 6  -9291763.39844  22666066.750
  22666058.090          41.100          29.000
 -15549538.991 6 -10084998.43744  22780095.180
  22780083.707          41.100          26.200
  -7210432.180 6  -7437280.52043  24143915.734
  24143905.551          38.400          22.500
 16  2 13  2  9  0.0000000  0 11G05G01G07G09G11G27G28G30G08G13G17
  -3513963.133 5  -2050685.84143  24503322.992
  24503313.453          35.900          20.400
   -898543.303 5   -600148.20443  25321521.430
  25321514.176          35.700          21.100
 -27261887.447 7 -20551010.50246  20713607.633
  20713596.102          47.500          40.500
 -13279935.998 6  -9573619.95643  23522108.352
  23522100.688          38.800          22.900
 -10494234.755 6  -5627408.79743  23518795.742
  23518783.098          38.400          21.100
 -28459835.853 6 -23555792.11142  25038688.078
  25038678.363          36.900          17.400
 -19925721.879 7 -14481710.94246  21074868.055
  21074855.762          47.300          38.300
 -27019192.536 8 -20193429.23647  20300932.234
  20300922.813          50.400          44.100
 -12712258.556 6  -9241742.65444  22678282.445
  22678273.785          41.600          29.400
 -15636469.635 6 -10152736.54044  22763552.813
  22763541.633          40.500          25.800
  -7318464.143 6  -7521461.17843  24123356.508
  24123347.145          39.200          22.600
 16  2 13  2  9 30.0000000  0 11G05G01G07G09G11G27G28G30G08G13G17
  -3453183.185 6  -2003324.86043  24514888.492
  24514879.363          36.300          20.100
   -981085.65415   -664466.89253  25305812.914
  25305807.066          30.800          18.600
 -27226909.311 7 -20523754.79846  20720263.898
  20720252.250          47.900          40.000
 -13169087.847 6  -9487244.79244  23543201.898
  23543193.941          38.500          24.500
 -10558848.626 6  -5677757.21643  23506499.453
  23506487.805          37.400          20.600
 -28358786.934 5 -23477052.69342  25057917.344
  25057907.336          35.800          17.800
 -19958595.373 7 -14507326.62246  21068612.281
  21068600.223          46.900          38.300
 -27031786.198 8 -20203242.46547  20298536.039
  20298525.738          50.700          43.700
 -12647597.990 6  -9191357.79744  22690587.008
  22690578.230          41.800          29.500
 -15723041.043 6 -10220194.74044  22747078.953
  22747067.715          41.300          27.100
  -7426404.934 6  -7605570.83043  24102817.516
  24102806.746          40.200          22.800
 16  2 13  2 10  0.0000000  0 10G05G07G09G11G27G28G30G08G13G17
  -3392100.245 6  -1955727.75543  24526513.008
  24526503.117          36.600          21.300
 -27191596.377 8 -20496238.21646  20726983.273
  20726971.684          48.000          39.800
 -13058088.661 6  -9400751.91044  23564324.742
  23564316.375          38.400          24.600
 -10623097.337 6  -5727821.09343  23494273.172
  23494261.582          37.900          21.100
 -28257513.245 5 -23398138.13642  25077188.531
  25077179.402          34.800          16.300
 -19991134.506 8 -14532681.76546  21062420.391
  21062408.391          48.000          38.400
 -27044052.844 8 -20212800.87147  20296201.531
  20296191.992          50.200          43.200
 -12582472.374 6  -9140610.54645  22702980.328
  22702971.668          41.700          31.000
 -15809250.493 6 -10287370.92244  22730673.516
  22730661.809          41.400          26.700
  -7534252.428 6  -7689607.74943  24082294.234
  24082284.109          39.500          22.500
 16  2 13  2 10 30.0000000  0 10G05G07G09G11G27G28G30G08G13G17
  -3330725.763 6  -1907903.51143  24538192.148
  24538182.609          37.200          20.400
 -27155957.626 7 -20468467.74946  20733764.961
  20733753.313          46.600          40.100
 -12946950.007 6  -9314150.36544  23585474.078
  23585465.887          39.200          24.600
 -10686986.952 6  -5777605.12943  23482114.594
  23482103.531          39.200          21.100
 -28156026.472 5 -23319057.52242  25096499.961
  25096491.594          34.000          17.400
 -20023349.087 7 -14557784.01046  21056289.727
  21056277.727          47.300          38.000
 -27056000.558 8 -20222110.76447  20293927.461
  20293918.566          50.400          43.700
 -12516892.901 7  -9089509.66144  22715460.047
  22715450.742          42.600          29.300
 -15895104.288 6 -10354269.93044  22714336.602
  22714325.070          40.900          26.000
  -7642013.181 6  -7773577.08343  24061789.172
  24061777.816          39.800          22.200
 16  2 13  2 11  0.0000000  0 10G05G07G09G11G27G28G30G08G13G17
  -3269059.412 5  -1859851.83743  24549927.094
  24549917.320          35.900          19.600
 -27119989.028 7 -20440440.25446  20740609.977
  20740598.328          47.300          40.100
 -12835670.659 6  -9227439.19044  23606649.805
  23606641.438          38.100          24.900
 -10750510.959 6  -5827104.29743  23470027.859
  23470015.801          38.100          22.800
 -28054325.653 5 -23239810.11442  25115853.320
  25115844.777          33.400          16.900
 -20055235.295 7 -14582630.38046  21050221.906
  21050209.906          47.200          38.200
 -27067624.931 8 -20231168.70247  20291715.703
  20291706.574          51.000          43.600
 -12450857.953 6  -9038053.85045  22728025.070
  22728016.703          41.100          30.400
 -15980595.797 6 -10420886.63344  22698068.227
  22698056.520          41.600          27.900
  -7749680.239 6  -7857473.39343  24041300.414
  24041289.527          39.800          22.900
 16  2 13  2 11 30.0000000  0 10G05G07G09G11G27G28G30G08G13G17
  -3207102.735 5  -1811573.91943  24561715.805
  24561707.438          33.800          19.900
 -27083689.015 7 -20412154.51546  20747517.852
  20747505.793          47.100          40.100
 -12724251.954 6  -9140619.43244  23627852.523
  23627843.512          38.700          25.800
 -10813665.215 6  -5876315.33843  23458008.320
  23457997.492          38.500          21.800
 -27952412.391 5 -23160397.15742  25135246.453
  25135238.555          32.800          15.600
 -20086792.711 7 -14607220.55346  21044217.164
  21044205.047          47.800          38.400
 -27078923.864 8 -20239973.04947  20289565.625
  20289556.027          50.500          44.000
 -12384368.781 7  -8986244.10045  22740678.086
  22740669.074          42.000          30.000
 -16065721.300 7 -10487218.17044  22681869.531
  22681857.297          42.000          25.500
  -7857250.549 6  -7941294.32643  24020829.508
  24020819.969          38.600          22.000
 16  2 13  2 12  0.0000000  0 10G05G07G09G11G27G28G30G08G13G17
  -3144859.507 6  -1763072.74043  24573562.125
  24573552.527          37.100          20.600
 -27047058.388 7 -20383611.16446  20754488.477
  20754476.594          47.200          40.200
 -12612697.357 6  -9053693.79844  23649080.102
  23649071.969          38.400          25.400
 -10876447.994 6  -5925236.93143  23446061.516
  23446050.336          37.200          21.500
 -27850290.335 5 -23080821.56042  25154679.211
  25154671.957          33.400          16.300
 -20118022.804 7 -14631555.66046  21038274.469
  21038262.117          47.900          38.300
 -27089897.538 8 -20248523.95247  20287477.492
  20287467.836          50.600          43.300
 -12317428.734 6  -8934083.02345  22753416.648
  22753407.578          41.900          30.400
 -16150478.986 6 -10553263.06844  22665738.797
  22665728.848          40.900          26.500
  -7964722.588 6  -8025038.66143  24000377.828
  24000368.641          38.100          22.200
 16  2 13  2 12 30.0000000  0 10G05G07G09G11G27G28G30G08G13G17
  -3082332.133 5  -1714350.09843  24585460.461
  24585450.219          35.100          19.300
 -27010096.662 7 -20354809.80746  20761521.680
  20761509.914          47.500          39.800
 -12501009.172 6  -8966664.09244  23670334.398
  23670325.797          38.900          26.400
 -10938856.315 6  -5973866.68643  23434185.477
  23434174.531          37.600          21.800
 -27747962.036 5 -23001085.19942  25174152.844
  25174144.184          33.200          15.600
 -20148925.926 7 -14655635.99246  21032394.242
  21032381.656          47.500          38.500
 -27100544.856 8 -20256820.54447  20285451.359
  20285441.938          51.000          43.800
 -12250039.725 6  -8881572.11245  22766240.016
  22766231.414          41.300          30.000
 -16234865.750 7 -10619018.94344  22649681.625
  22649670.270          42.200          27.100
  -8072093.317 6  -8108704.08743  23979946.164
  23979935.922          38.400          22.500
 16  2 13  2 13  0.0000000  0 11G05G01G07G09G11G27G28G30G08G13G17
  -3019527.689 6  -1665411.62143  24597411.375
  24597402.012          36.400          20.100
   -309987.155 5   -443060.61843  25196099.406
  25196093.324          32.400          19.600
 -26972808.007 7 -20325753.70846  20768617.531
  20768605.531          46.900          39.900
 -12389194.140 6  -8879535.49644  23691611.578
  23691603.563          39.600          24.100
 -11000891.414 6  -6022205.68743  23422381.305
  23422369.539          38.400          21.500
 -27645434.292 5 -22921193.44442  25193662.523
  25193654.332          32.900          15.600
 -20179506.799 7 -14679465.21946  21026574.172
  21026561.938          47.600          38.300
 -27110869.234 8 -20264865.49147  20283486.461
  20283477.215          51.000          43.700
 -12182208.179 6  -8828716.35944  22779147.445
  22779138.961          41.100          29.200
 -16318883.190 7 -10684487.03944  22633693.680
  22633682.383          42.200          26.400
  -8179364.374 6  -8192291.81843  23959533.406
  23959522.930          39.800          22.800
 16  2 13  2 13 30.0000000  0 11G05G01G07G09G11G27G28G30G08G13G17
  -2956439.847 6  -1616252.33143  24609416.977
  24609406.910          36.500          20.400
   -392136.981 5   -507073.36543  25180466.375
  25180460.469          33.300          19.300
 -26935182.681 7 -20296435.25546  20775777.523
  20775765.582          47.200          40.100
 -12277245.357 6  -8792302.67744  23712915.563
  23712906.316          38.600          25.300
 -11062540.889 6  -6070244.18643  23410649.625
  23410637.918          38.600          22.500
 -27542700.656 5 -22841141.23642  25213211.578
  25213203.738          32.400          15.600
 -20209756.641 7 -14703036.49446  21020818.109
  21020805.523          47.600          39.300
 -27120860.572 8 -20272650.93247  20281585.125
  20281575.879          49.800          43.100
 -12113927.273 6  -8775510.45844  22792141.648
  22792132.520          40.800          29.600
 -16402519.400 6 -10749658.04944  22617778.750
  22617767.043          41.500          27.800
  -8286523.951 6  -8275792.69143  23939141.102
  23939131.445          39.200          23.300
 16  2 13  2 14  0.0000000  0 11G05G01G07G09G11G27G28G30G08G13G17
  -2893075.951 6  -1566877.87343  24621475.258
  24621464.664          37.100          19.600
   -474223.814 5   -571037.14143  25164844.063
  25164839.918          31.300          19.000
 -26897225.344 7 -20266858.10546  20783000.734
  20782988.500          47.400          39.900
 -12165170.149 6  -8704971.36843  23734243.102
  23734233.328          38.600          21.800
 -11123806.661 6  -6117983.68043  23398990.961
  23398979.547          38.900          22.300
 -27439768.448 5 -22760934.37142  25232799.344
  25232792.148          30.700          14.800
 -20239680.656 7 -14726353.88846  21015123.609
  21015111.258          47.500          38.600
 -27130522.724 8 -20280179.87647  20279746.406
  20279737.160          50.600          43.700
 -12045204.287 6  -8721960.08344  22805218.656
  22805210.055          40.900          29.100
 -16485776.200 7 -10814533.44944  22601934.266
  22601924.023          42.400          27.900
  -8393574.930 6  -8359209.01444  23918769.852
  23918760.137          38.300          25.000
 16  2 13  2 14 30.0000000  0 11G05G01G07G09G11G27G28G30G08G13G17
  -2829433.448 5  -1517286.35143  24633584.469
  24633576.043          35.500          21.100
   -556239.048 5   -634944.94742  25149238.383
  25149232.242          34.500          17.800
 -26858930.290 7 -20237017.80246  20790288.148
  20790275.973          46.800          39.700
 -12052965.357 6  -8617539.05043  23755594.539
  23755585.645          37.900          22.500
 -11184680.783 6  -6165418.01744  23387407.617
  23387395.324          39.200          24.000
 -28912055.04514                  25252422.719
                        29.400
 -20269273.828 7 -14749413.47846  21009492.063
  21009479.652          47.700          38.800
 -27139849.269 8 -20287447.30347  20277971.945
  20277962.113          50.100          43.800
 -11976035.405 6  -8668062.24344  22818381.125
  22818371.703          40.800          28.000
 -16568645.382 7 -10879106.79844  22586164.969
  22586153.906          42.500          28.300
  -8500508.465 6  -8442533.69644  23898422.383
  23898411.203          40.100          25.100
 16  2 13  2 15  0.0000000  0 10G05G01G07G09G11G28G30G08G13G17
  -2765527.121 6  -1467489.22743  24645746.141
  24645736.719          37.600          20.900
   -638191.566 5   -698804.04242  25133643.086
  25133637.180          34.600          17.800
 -26820309.057 7 -20206923.31946  20797637.109
  20797625.344          47.200          39.200
 -11940645.487 6  -8530017.08743  23776967.539
  23776959.289          38.800          22.200
 -11245171.986 6  -6212553.96244  23375896.406
  23375884.348          38.700          24.600
 -20298548.628 7 -14772224.99246  21003921.023
  21003908.730          47.200          38.800
 -27148851.369 8 -20294461.91847  20276258.984
  20276249.094          49.900          43.700
 -11906435.391 6  -8613828.45344  22831625.672
  22831616.484          40.000          27.200
 -16651136.374 7 -10943385.47044  22570468.180
  22570456.473          43.200          27.600
  -8607334.243 6  -8525774.49444  23878092.727
  23878083.363          39.100          26.400
 16  2 13  2 15 30.0000000  0 10G05G01G07G09G11G28G30G08G13G17
  -2701352.683 5  -1417483.17543  24657955.938
  24657948.391          35.700          20.400
   -720071.454 5   -762606.46142  25118062.125
  25118056.512          34.300          16.300
 -26781354.839 7 -20176569.38546  20805049.977
  20805037.918          47.200          39.800
 -11828206.470 6  -8442402.25943  23798364.727
  23798356.242          37.000          22.500
 -11305271.076 6  -6259384.37243  23364459.563
  23364447.563          38.800          22.800
 -20327499.214 7 -14794783.86446  20998412.070
  20998400.246          47.000          39.000
 -27157521.648 8 -20301217.95647  20274608.758
  20274599.570          50.300          43.700
 -11836399.841 6  -8559255.27644  22844953.281
  22844943.625          40.900          28.500
 -16733239.743 7 -11007362.06744  22554843.867
  22554832.980          43.200          28.600
  -8714043.018 6  -8608924.04444  23857787.797
  23857776.793          40.200          26.900
 16  2 13  2 16  0.0000000  0 10G05G01G07G09G11G28G30G08G13G17
  -2636913.591 5  -1367270.95843  24670218.898
  24670211.352          35.200          21.300
   -801875.414 5   -826349.76642  25102494.188
  25102490.570          33.200          14.800
 -26742067.142 7 -20145955.58646  20812526.320
  20812514.262          47.500          39.700
 -11715650.396 6  -8354696.23743  23819782.008
  23819774.813          36.800          22.200
 -11364974.884 6  -6305906.76443  23353097.242
  23353086.824          39.400          22.600
 -20356125.627 7 -14817090.13746  20992964.313
  20992952.020          47.700          38.400
 -27165858.796 8 -20307714.41947  20273022.430
  20273013.184          50.200          43.300
 -11765930.687 6  -8504344.24144  22858362.867
  22858354.031          40.300          28.600
 -16814952.235 7 -11071034.10744  22539294.695
  22539283.047          43.200          28.800
  -8820631.740 6  -8691980.07644  23837503.445
  23837493.730          38.800          26.000
 16  2 13  2 16 30.0000000  0 10G05G01G07G09G11G28G30G08G13G17
  -2572213.403 6  -1316855.23343  24682534.188
  24682523.301          37.700          19.000
   -883601.316 5   -890032.22342  25086943.164
  25086938.316          35.700          17.400
 -26702446.799 7 -20115082.58546  20820065.273
  20820053.684          47.000          40.100
 -11602980.746 6  -8266901.74243  23841223.148
  23841215.367          37.700          22.300
 -11424281.472 6  -6352119.68443  23341811.992
  23341800.930          39.700          22.900
 -20384429.323 7 -14839144.94546  20987579.086
  20987566.090          47.400          39.100
 -27173863.091 8 -20313951.51447  20271499.008
  20271489.469          50.000          43.500
 -11695031.259 6  -8449097.93044  22871855.164
  22871845.684          40.200          28.200
 -16896272.242 7 -11134400.30444  22523820.320
  22523808.730          43.100          29.800
  -8927099.112 6  -8774941.58044  23817244.188
  23817233.887          40.200          25.300
 16  2 13  2 17  0.0000000  0 10G05G01G07G09G11G28G30G08G13G17
  -2507254.621 6  -1266238.07342  24694894.797
  24694883.910          36.000          16.900
   -965245.866 6   -953651.31142  25071407.039
  25071400.957          37.300          16.900
 -26662493.389 7 -20083950.04346  20827668.602
  20827656.602          47.600          39.700
 -11490199.947 6  -8179020.62443  23862684.422
  23862676.582          37.500          22.000
 -11483188.071 6  -6398020.88543  23330603.500
  23330590.973          40.100          23.000
 -20412410.926 7 -14860948.76846  20982254.000
  20982241.473          47.300          38.600
 -27181533.549 8 -20319928.47647  20270039.477
  20270030.055          50.200          43.600
 -11623703.897 6  -8393518.16444  22885427.836
  22885418.414          40.600          28.500
 -16977196.999 7 -11197458.51644  22508420.414
  22508409.176          43.300          29.100
  -9033442.739 6  -8857806.64344  23797006.953
  23796996.594          40.900          24.800
 16  2 13  2 17 30.0000000  0 10G05G01G07G09G11G28G30G08G13G17
  -2442039.871 6  -1215421.40243  24707304.383
  24707294.316          37.300          19.600
  -1046805.683 6  -1017204.33442  25055885.977
  25055881.129          36.800          17.800
 -26622206.552 7 -20052557.70646  20835335.109
  20835322.875          47.900          39.800
 -11377310.121 6  -8091054.56343  23884166.195
  23884158.824          37.100          22.500
 -11541691.274 6  -6443607.75143  23319469.977
  23319458.328          39.500          22.600
 -20440070.639 8 -14882501.76546  20976990.133
  20976977.957          48.000          39.800
 -27188869.029 8 -20325644.43247  20268643.453
  20268634.207          49.900          42.900
 -11551950.569 6  -8337606.47944  22899081.453
  22899073.203          40.200          28.000
 -17057723.559 7 -11260206.45744  22493096.055
  22493084.992          43.400          28.400
  -9139659.401 6  -8940572.81543  23776794.711
  23776783.531          39.300          22.800
 16  2 13  2 18  0.0000000  0 10G05G01G07G09G11G28G30G08G13G17
  -2376572.298 5  -1164407.78642  24719762.234
  24719752.520          35.500          17.800
  -1128277.543 6  -1080688.84042  25040382.688
  25040377.840          36.300          14.800
 -26581585.942 7 -20020905.27946  20843064.563
  20843052.621          47.600          39.600
 -11264313.654 6  -8003005.38343  23905668.500
  23905661.773          36.900          21.500
 -11599788.695 6  -6488878.41044  23308414.570
  23308402.512          39.500          24.600
 -20467408.842 7 -14903804.24146  20971787.930
  20971775.988          47.700          39.100
 -27195868.650 8 -20331098.67347  20267311.383
  20267302.137          50.300          44.000
 -11479773.667 6  -8281364.73944  22912816.461
  22912807.977          40.500          28.700
 -17137849.127 7 -11322641.93244  22477849.516
  22477838.102          43.200          28.200
  -9245746.298 6  -9023237.87443  23756606.969
  23756596.199          38.300          23.600
 16  2 13  2 18 30.0000000  0 10G05G01G07G09G11G28G30G08G13G17
  -2310854.323 6  -1113198.98243  24732267.734
  24732257.023          36.300          18.300
  -1209658.137 5  -1122049.37342  25024896.594
  25024890.922          35.900          15.600
 -26540631.035 7 -19988992.36346  20850858.305
  20850846.246          47.800          39.600
 -11151212.965 6  -7914874.99943  23927191.922
  23927183.438          37.300          21.100
 -11657477.207 6  -6533830.45644  23297436.195
  23297424.313          40.000          24.000
 -20494425.982 7 -14924856.53346  20966646.648
  20966634.531          47.800          38.800
 -27202531.393 8 -20336290.40147  20266044.180
  20266034.348          50.600          43.800
 -11407175.453 6  -8224794.70944  22926631.609
  22926623.125          39.600          28.900
 -17217570.579 7 -11384762.50944  22462678.508
  22462667.152          43.700          27.900
  -9351701.394 6  -9105800.21343  23736444.297
  23736433.293          38.600          22.800
 16  2 13  2 19  0.0000000  0 10G05G01G07G09G11G28G30G08G13G17
  -2244889.381 6  -1061797.71643  24744821.352
  24744810.875          36.900          19.000
  -1290944.955 5  -1185389.72942  25009428.758
  25009422.910          34.500          14.800
 -26499342.630 7 -19956819.56746  20858715.016
  20858703.191          47.200          39.200
 -11038011.254 6  -7826665.92743  23948732.711
  23948725.340          36.900          22.200
 -11714754.703 6  -6578462.23543  23286536.156
  23286525.328          39.500          22.600
 -20521123.308 7 -14945659.62246  20961566.750
  20961554.516          47.700          39.300
 -27208857.153 8 -20341219.54747  20264840.320
  20264830.488          50.100          43.900
 -11334158.879 6  -8167898.69544  22940526.086
  22940517.250          39.900          28.500
 -17296886.154 7 -11446566.80744  22447584.852
  22447574.141          42.600          28.900
  -9457522.589 6  -9188258.17944  23716308.000
  23716296.352          38.400          24.300
 16  2 13  2 19 30.0000000  0 10G05G01G07G09G11G28G30G08G13G17
  -2178679.926 5  -1010206.00542  24757419.883
  24757410.051          35.400          17.400
  -1372134.475 5                  24993977.617
                        34.200
 -26457719.998 7 -19924386.34346  20866635.344
  20866623.754          47.600          39.000
 -10924710.307 6  -7738379.49143  23970292.977
  23970285.488          37.700          21.300
 -11771617.991 6  -6622771.24644  23275716.430
  23275704.430          40.100          25.100
 -20547501.047 7 -14966213.68446  20956547.195
  20956534.844          47.400          39.100
 -27214844.530 8 -20345885.02647  20263700.750
  20263691.211          50.700          43.300
 -11260725.737 6  -8110678.06444  22954499.953
  22954491.293          40.600          27.500
 -17375792.693 7 -11508052.40044  22432569.523
  22432558.227          43.800          28.800
  -9563206.423 6  -9270609.14244  23696196.875
  23696185.461          38.700          26.500
 16  2 13  2 20  0.0000000  0 10G05G01G07G09G11G28G30G08G13G17
  -2112226.993 5   -958424.45642  24770065.680
  24770055.730          35.900          17.400
  -1453221.226 5                  24978546.914
                        31.900
 -26415760.759 7 -19891690.83346  20874620.133
  20874607.898          47.300          38.800
 -10811310.577 6  -7650016.09343  23991872.203
  23991864.832          36.900          21.500
 -11828062.337 6  -6666753.83543  23264975.180
  23264963.824          40.600          22.900
 -20573557.559 7 -14986517.45046  20951588.461
  20951576.402          47.900          39.000
 -27220490.612 8 -20350284.55347  20262626.016
  20262616.711          50.900          42.900
 -11186876.669 6  -8053133.33844  22968552.914
  22968544.488          40.600          28.400
 -17454285.346 7 -11569215.46444  22417633.477
  22417621.945          43.300          29.900
  -9668748.515 6  -9352849.63444  23676112.203
  23676101.316          38.000          27.100
 16  2 13  2 20 30.0000000  0 10G05G01G07G09G11G28G30G08G13G17
  -2045539.572 5   -906460.22943  24782755.492
  24782746.305          34.700          18.600
  -1534208.803 5                  24963136.953
                        33.300
 -26373471.396 7 -19858738.07646  20882667.258
  20882655.141          47.800          39.600
 -10697821.226 6  -7561582.83343  24013469.047
  24013460.973          37.800          22.900
 -11884091.448 6  -6710412.83943  23254312.539
  23254301.711          39.800          23.900
 -20599300.303 7 -15006576.71046  20946689.852
  20946677.793          47.300          38.800
 -27225801.243 8 -20354422.69447  20261615.508
  20261605.617          50.300          43.500
 -11112620.365 6  -7995271.27844  22982683.586
  22982674.516          41.300          29.100
 -17532367.973 7 -11630059.02244  22402774.680
  22402762.973          43.600          28.900
  -9774153.097 6  -9434983.02144  23656053.586
  23656043.520          38.400          25.800
 16  2 13  2 21  0.0000000  0 10G05G01G07G09G11G28G30G08G13G17
  -1978612.264 5   -854309.12642  24795492.055
  24795481.695          35.200          17.800
  -3190505.325 4                  24947745.031
                        29.400
 -26330843.054 7 -19825521.17646  20890779.602
  20890767.074          47.600          39.800
 -10584235.930 6  -7473074.82843  24035083.891
  24035075.348          37.500          21.100
 -11939693.899 6  -6753739.39944  23243731.641
  23243720.695          40.500          25.300
 -20624720.753 7 -15026384.82346  20941853.109
  20941840.816          47.300          38.600
 -27230766.843 8 -20358291.98047  20260670.750
  20260661.152          50.900          43.500
 -11037950.663 6  -7937087.09944  22996893.266
  22996884.195          40.700          28.400
 -17610029.354 7 -11690574.35544  22387996.297
  22387984.648          43.900          29.900
  -9879408.530 6  -9517000.16044  23636025.453
  23636013.688          39.700          24.300
 16  2 13  2 21 30.0000000  0 10G05G01G07G09G11G28G30G08G13G17
  -1911456.859 5   -801980.31842  24808269.586
  24808261.160          32.600          17.400
  -3271276.667 5                  24932376.500
                        31.900
 -26287884.540 7 -19792047.01246  20898954.133
  20898942.191          47.800          39.400
 -10470566.196 5  -7384501.03643  24056714.656
  24056705.938          35.700          21.300
 -11994876.011 6  -6796738.41144  23233232.414
  23233219.301          40.200          24.700
 -20649828.818 7 -15045949.53646  20937074.297
  20937062.121          47.300          39.000
 -27235395.568 8 -20361898.76647  20259789.789
  20259780.602          50.200          43.500
 -10962878.853 6  -7878589.58744  23011178.617
  23011169.430          41.100          28.300
 -17687275.541 7 -11750766.14845  22373296.789
  22373284.906          43.200          30.400
  -9984521.428 6  -9598906.19644  23616022.680
  23616011.441          40.300          24.100
 16  2 13  2 22  0.0000000  0 11G05G01G07G09G11G28G30G20G08G13G17
  -1844072.186 5   -749472.78442  24821093.969
  24821083.844          35.100          16.900
  -3351935.445 5  -2322919.83942  24917026.523
  24917020.734          32.000          17.400
 -26244591.696 7 -19758312.32346  20907192.688
  20907180.219          47.800          39.100
 -10356810.319 5  -7295860.09243  24078361.477
  24078352.582          35.200          21.100
 -12049631.191 6  -6839404.74844  23222811.656
  23222800.301          41.000          25.700
 -20674620.975 7 -15065268.07146  20932357.070
  20932344.719          47.600          38.900
 -27239682.514 8 -20365239.23347  20258973.680
  20258964.492          50.100          43.800
  -1550205.864 5                  25148433.438
                        31.800
 -10887403.318 6  -7819777.47444  23025540.750
  23025531.387          40.800          26.900
 -17764100.039 7 -11810629.36144  22358676.898
  22358665.953          43.400          29.100
 -10089485.383 6  -9680696.22444  23596048.156
  23596037.211          39.900          26.300
 16  2 13  2 22 30.0000000  0 11G05G01G07G09G11G28G30G20G08G13G17
  -1776457.715 5   -696786.19642  24833960.250
  24833950.301          34.600          15.600
  -3432475.739 5  -2385678.41842  24901701.039
  24901694.547          31.800          16.300
 -26200961.507 7 -19724314.76746  20915494.305
  20915483.125          47.500          38.800
 -10242967.999 5  -7207151.81643  24100024.648
  24100016.691          34.300          20.900
 -12103953.851 6  -6881734.07544  23212474.891
  23212463.066          41.000          25.500
 -20699094.778 7 -15084338.55646  20927699.070
  20927687.480          47.300          39.800
 -27243624.080 8 -20368310.56847  20258224.180
  20258214.289          50.200          43.200
  -1531903.174 4                  25151916.297
                        29.600
 -10811523.892 6  -7760650.64444  23039980.617
  23039971.313          39.900          26.900
 -17840497.239 7 -11870159.60545  22344139.898
  22344128.426          44.000          30.600
 -10194294.882 6  -9762365.86244  23576103.492
  23576092.605          39.000          27.300
 16  2 13  2 23  0.0000000  0 11G05G01G07G09G11G28G30G20G08G13G17
  -1708610.820 5   -643918.47542  24846871.727
  24846861.367          35.600          17.400
  -3512887.946 5  -2448337.13642  24886399.070
  24886392.402          31.900          15.600
 -26156987.383 7 -19690049.20746  20923863.156
  20923851.273          47.500          39.000
 -10129035.281 5  -7118373.08343  24121705.836
  24121697.293          34.000          20.600
 -12157834.997 6  -6923719.34744  23202222.109
  23202209.699          41.700          24.800
 -20723244.689 7 -15103156.64946  20923103.984
  20923091.340          47.900          39.300
 -27247213.051 8 -20371107.15947  20257541.164
  20257531.742          50.000          43.500
  -1513123.460 4                  25155488.094
                        29.100
 -10735236.393 6  -7701205.84044  23054497.078
  23054488.242          41.200          26.700
 -17916458.066 7 -11929349.82245  22329685.570
  22329673.453          44.100          30.200
 -10298941.133 6  -9843908.29244  23556190.109
  23556179.164          40.500          26.500
 16  2 13  2 23 30.0000000  0 11G05G01G07G09G11G28G30G20G08G13G17
  -1640558.731 5   -590890.88943  24859821.359
  24859811.527          35.400          20.100
  -3593193.247 5  -2510912.64242  24871116.391
  24871110.426          31.600          15.600
 -26112693.701 8 -19655534.64646  20932291.813
  20932279.988          48.000          38.800
 -10015039.084 5  -7029544.89943  24143398.266
  24143389.723          34.100          19.600
 -12211296.536 6  -6965377.64644  23192048.594
  23192036.066          41.700          25.900
 -20747095.832 7 -15121741.93746  20918565.164
  20918552.988          47.400          38.900
 -27250473.022 8 -20373647.39147  20256920.539
  20256911.410          51.000          43.800
  -1493892.591 5                  25159149.797
                        32.400
 -10658567.850 6  -7641464.09944  23069086.609
  23069077.598          40.000          25.600
 -17992004.239 7 -11988216.91844  22315308.672
  22315297.023          43.500          29.700
 -10403445.639 6  -9925340.30744  23536302.320
  23536292.781          40.600          26.400
 16  2 13  2 24  0.0000000  0 11G05G01G07G09G11G28G30G20G08G13G17
  -1572276.711 5   -537684.15643  24872813.734
  24872805.777          34.600          19.000
  -3673361.426 4  -2573381.28142  24855858.672
  24855854.527          29.100          16.900
 -26068052.984 7 -19620749.67646  20940787.031
  20940774.973          47.500          38.800
  -9900954.659 5  -6940647.96543  24165107.180
  24165099.457          34.300          19.900
 -12264308.227 7  -7006685.42244  23181960.719
  23181948.367          42.100          25.000
 -20770621.381 7 -15140073.51146  20914088.555
  20914076.320          47.300          39.400
 -27253375.896 8 -20375909.35947  20256368.398
  20256358.742          50.600          43.400
  -1474184.717 5                  25162898.063
                        30.500
 -10581493.345 6  -7581406.03944  23083753.594
  23083744.406          39.300          26.500
 -18067105.981 7 -12046737.71445  22301017.250
  22301005.836          44.300          30.700
 -10507778.730 6 -10006638.72944  23516449.313
  23516438.777          41.100          27.400
 16  2 13  2 24 30.0000000  0 12G05G01G07G09G11G19G28G30G20G08G13G17
  -1503786.587 5   -484315.27742  24885848.656
  24885838.707          35.200          17.400
  -3753407.786 5  -2635755.01343  24840628.578
  24840621.676          32.800          19.000
 -26023083.910 7 -19585708.83846  20949344.195
  20949331.902          47.800          38.700
  -9786803.217 5  -6851698.82343  24186830.227
  24186822.035          34.900          21.100
 -12316886.425 6  -7047655.42044  23171955.133
  23171943.133          41.500          26.000
   -425168.44314                  25577985.219
                        29.600
 -20793840.803 7 -15158166.54946  20909670.023
  20909657.320          47.100          39.700
 -27255939.756 8 -20377907.16847  20255880.414
  20255870.641          49.600          43.500
  -1454019.882 5                  25166737.070
                        32.400
 -10504034.424 6  -7521048.43844  23098493.563
  23098484.668          39.200          27.300
 -18141779.598 7 -12104924.91945  22286807.484
  22286795.602          43.800          30.800
 -10611956.967 6 -10087816.49044  23496623.852
  23496614.430          40.700          26.700
 16  2 13  2 25  0.0000000  0 12G05G01G07G09G11G19G28G30G20G08G13G17
  -1435078.821 5   -430776.77542  24898920.625
  24898913.254          33.100          17.400
  -3833316.648 5  -2698021.57943  24825422.211
  24825415.719          33.000          20.400
 -25977774.111 7 -19550402.49546  20957966.281
  20957954.398          47.400          38.600
  -9672574.623 5  -6762689.57843  24208567.375
  24208558.832          35.400          19.300
 -12369015.745 7  -7088275.64844  23162034.539
  23162023.242          42.000          25.500
   -547780.19115                  25554655.094
                        32.600
 -20816742.457 7 -15176011.96946  20905311.930
  20905299.754          46.900          38.600
 -27258151.083 8 -20379630.27047  20255459.586
  20255450.398          51.000          43.100
  -1433386.845 4                  25170660.797
                        29.900
 -10426180.373 6  -7460382.93844  23113308.313
  23113299.359          39.000          25.800
 -18216009.528 7 -12162766.38145  22272682.148
  22272670.148          43.600          31.100
 -10715965.213 6 -10168861.77644  23476831.969
  23476822.254          41.400          28.400
 16  2 13  2 25 30.0000000  0 12G05G01G07G09G11G19G28G30G20G08G13G17
  -1366165.006 6   -377077.73843  24912036.367
  24912026.945          36.900          18.300
  -3913094.011 5  -2760185.65643  24810241.250
  24810234.582          33.800          20.400
 -25932132.216 7 -19514837.37746  20966651.836
  20966639.602          47.600          38.900
  -9558280.319 6  -6673629.09743  24230316.500
  24230308.777          36.100          20.100
 -12420702.830 6  -7128551.26344  23152199.469
  23152187.410          41.600          25.700
   -670457.125 5   -181249.19442  25531309.641
  25531299.809          32.400          17.800
 -20839335.766 7 -15193617.13046  20901012.688
  20901000.395          47.200          39.600
 -27260018.163 8 -20381085.12247  20255104.453
  20255094.797          50.800          43.500
  -1412296.011 5                  25174675.250
                        30.300
 -10347943.125 6  -7399418.85244  23128196.320
  23128187.660          40.100          26.000
 -18289802.392 7 -12220267.28045  22258639.672
  22258628.141          44.100          31.000
 -10819810.117 6 -10249779.80444  23457072.086
  23457061.082          41.700          27.100
 16  2 13  2 26  0.0000000  0 12G05G01G07G09G11G19G28G30G20G08G13G17
  -1297044.154 6   -323217.27843  24925189.391
  24925180.379          36.400          20.100
  -3992732.584 5  -2822241.61943  24795087.039
  24795080.137          33.000          19.300
 -25886154.016 8 -19479010.20546  20975400.945
  20975389.063          48.000          38.500
  -9443918.748 6  -6584516.18643  24252079.211
  24252070.609          36.800          19.300
 -12471940.680 6  -7168476.83844  23142449.328
  23142436.977          41.100          25.300
   -793192.88814   -276886.99752  25507951.992
  25507943.508          29.900          16.900
 -20861616.851 7 -15210978.99546  20896772.773
  20896760.246          47.200          39.100
 -27261536.100 8 -20382267.91147  20254815.641
  20254805.867          50.400          43.700
  -1390744.871 5                  25178777.172
                        31.200
 -10269321.067 6  -7338154.92244  23143158.219
  23143149.441          40.200          25.800
 -18363151.418 7 -12277422.33245  22244681.961
  22244669.961          43.900          31.400
 -10923484.555 7 -10330565.03844  23437343.383
  23437332.262          42.000          28.300
 16  2 13  2 26 30.0000000  0 12G05G01G07G09G11G19G28G30G20G08G13G17
  -1227720.224 6   -269198.73143  24938382.180
  24938372.758          36.800          20.400
  -4072230.016 5  -2884187.58043  24779958.328
  24779951.660          33.800          19.900
 -25839840.391 7 -19442921.66446  20984214.578
  20984202.285          47.800          38.800
  -9329493.318 6  -6495353.53443  24273854.781
  24273845.594          36.900          20.400
 -12522728.004 6  -7208051.34544  23132785.070
  23132772.777          41.500          25.600
   -915985.710 5   -372569.61542  25484585.898
  25484575.656          32.000          16.300
 -20883587.983 8 -15228099.34546  20892591.227
  20892578.992          48.400          39.500
 -27262705.098 8 -20383178.80747  20254593.164
  20254583.391          50.800          43.500
  -1368735.759 5                  25182965.539
                        31.200
 -10190317.612 6  -7276593.79544  23158191.961
  23158183.008          40.900          26.900
 -18436055.192 7 -12334230.44445  22230808.555
  22230796.906          44.300          31.100
 -11026987.326 6 -10411216.48544  23417647.180
  23417635.941          41.600          26.900
 16  2 13  2 27  0.0000000  0 12G05G01G07G09G11G19G28G30G20G08G13G17
  -1158194.709 5   -215023.01643  24951610.758
  24951602.566          35.200          19.000
  -4151581.405 5  -2946019.76543  24764858.859
  24764851.664          32.900          18.600
 -25793189.481 7 -19406570.30146  20993091.727
  20993079.316          47.300          38.900
  -9215004.735 6  -6406141.69243  24295639.828
  24295632.223          36.000          20.900
 -12573060.414 6  -7247271.38244  23123206.469
  23123194.293          40.900          24.000
  -1038832.195 5   -468293.86242  25461208.453
  25461198.680          30.700          16.900
 -20905247.948 7 -15244977.21746  20888469.773
  20888457.656          47.600          39.100
 -27263522.670 8 -20383815.86947  20254437.297
  20254427.992          50.400          43.300
  -1346268.566 5                  25187241.023
                        30.700
 -10110933.626 6  -7214736.13044  23173298.125
  23173289.641          40.600          27.700
 -18508509.138 7 -12390688.02445  22217020.906
  22217009.551          44.500          30.900
 -11130313.960 6 -10491730.71044  23397983.539
  23397973.883          40.700          26.700
 16  2 13  2 27 30.0000000  0 12G05G01G07G09G11G19G28G30G20G08G13G17
  -1088466.800 6   -160689.56343  24964880.852
  24964871.254          36.300          19.600
  -4230780.299 5  -3007733.10443  24749786.938
  24749780.563          35.500          20.400
 -25746198.011 7 -19369953.56946  21002033.711
  21002021.770          47.100          39.100
  -9100452.219 6  -6316879.99243  24317437.641
  24317430.328          36.300          21.500
 -12622932.381 6  -7286132.62544  23113716.023
  23113704.023          41.200          25.800
  -1161725.88015   -564054.98252  25437821.570
  25437812.266          31.600          14.800
 -20926594.102 7 -15261610.56546  20884408.000
  20884395.355          47.500          39.300
 -27263984.704 8 -20384175.88447  20254349.648
  20254339.992          50.800          43.600
  -1323341.40714                  25191602.352
                        26.400
 -10031168.099 6  -7152581.17644  23188477.367
  23188468.590          41.100          28.400
 -18580507.649 7 -12446790.73545  22203320.328
  22203308.152          44.800          31.100
 -11233458.864 6 -10572103.31044  23378356.508
  23378345.914          40.900          27.000
 16  2 13  2 28  0.0000000  0 12G05G01G07G09G11G19G28G30G20G08G13G17
  -1018548.385 5   -106207.76243  24978185.445
  24978176.844          34.800          20.400
  -4309832.723 5  -3069332.32443  24734744.352
  24734736.922          35.000          19.900
 -25698875.511 8 -19333078.89446  21011038.992
  21011026.992          48.000          38.600
  -8985847.451 5  -6227577.58743  24339247.352
  24339238.691          35.400          19.900
 -12672350.425 6  -7324640.17544  23104312.195
  23104299.961          39.800          24.100
  -1284673.75415   -659858.36552  25414424.820
  25414415.867          30.100          15.600
 -20947636.626 7 -15278007.32446  20880403.516
  20880391.105          47.500          40.300
 -27264099.663 8 -20384265.44747  20254327.328
  20254318.082          50.500          43.500
  -1299965.18014                  25196052.883
                        28.600
  -9951032.961 6  -7090138.21244  23203726.797
  23203717.375          40.600          25.800
 -18652057.221 7 -12502543.61345  22189704.570
  22189692.980          45.500          30.900
 -11336428.633 6 -10652339.44944  23358762.211
  23358751.383          41.800          27.400
 16  2 13  2 28 30.0000000  0 11G05G01G07G09G11G19G28G30G08G13G17
   -948440.159 5    -51578.02742  24991526.164
  24991517.387          33.700          17.800
  -4388732.584 5  -3130812.65943  24719730.586
  24719723.273          35.200          20.600
 -25651218.665 7 -19295943.68246  21020107.172
  21020095.465          47.000          38.300
  -8871189.899 5  -6138234.02843  24361065.813
  24361057.504          35.500          19.600
 -12721309.278 6  -7362789.90343  23094995.375
  23094982.965          41.000          23.600
  -1407670.268 5   -755699.56642  25391023.023
  25391010.789          34.800          17.800
 -20968372.810 7 -15294165.37446  20876457.438
  20876445.145          47.900          39.600
 -27263863.868 8 -20384081.70447  20254372.742
  20254362.969          51.100          43.500
  -9870527.703 6  -7027406.83644  23219046.250
  23219036.594          40.600          27.200
 -18723152.099 7 -12557942.20045  22176175.539
  22176164.184          44.400          30.900
 -11439217.443 6 -10732434.56844  23339202.328
  23339191.793          41.900          28.800
 16  2 13  2 29  0.0000000  0 12G05G01G07G09G11G19G28G30G15G08G13G17
   -878141.607 6      3200.07343  25004905.281
  25004894.395          36.500          18.300
  -4467473.398 6  -3192169.07143  24704746.797
  24704739.367          37.000          21.800
 -25603223.986 7 -19258545.22746  21029240.258
  21029228.492          47.600          38.400
  -8756478.747 5  -6048848.74043  24382893.859
  24382886.547          35.000          18.600
 -12769802.894 6  -7400577.10444  23085768.016
  23085754.902          40.200          24.400
  -1530709.45715   -851574.10652  25367607.695
  25367597.863          30.300          14.800
 -20988800.162 7 -15310082.76446  20872570.164
  20872558.047          47.600          39.400
 -27263273.160 8 -20383621.40547  20254484.867
  20254475.035          50.500          43.500
    181181.40715                  25306538.219
                        31.200
  -9789651.578 6  -6964386.46444  23234436.570
  23234427.090          39.400          24.700
 -18793786.336 7 -12612981.83845  22162734.250
  22162722.543          44.700          31.500
 -11541820.087 7 -10812384.64644  23319677.758
  23319667.047          42.200          27.700
 16  2 13  2 29 30.0000000  0 12G05G01G07G09G11G19G28G30G15G08G13G17
   -807656.568 5     58123.43343  25018317.188
  25018307.590          34.300          18.600
  -4546053.021 6  -3253399.89543  24689793.859
  24689785.668          37.900          20.400
 -25554892.668 7 -19220884.46146  21038437.656
  21038426.066          47.600          38.500
  -8641717.521 5  -5959424.42643  24404732.641
  24404724.625          35.700          18.300
 -12817830.031 6  -7438000.82144  23076628.148
  23076616.148          40.800          25.800
  -1653790.400 4                  25344187.688
                        28.600
 -21008920.633 7 -15325761.04246  20868741.422
  20868729.070          47.100          38.900
 -27262327.992 8 -20382884.88947  20254664.445
  20254655.082          50.700          42.900
     85835.295 5                  25288394.602
                        32.500
  -9708408.005 6  -6901079.78044  23249896.336
  23249887.266          39.400          25.600
 -18863959.509 7 -12667662.20445  22149380.594
  22149369.180          44.600          30.800
 -11644234.881 7 -10892188.31944  23300188.609
  23300177.957          42.000          29.000
 16  2 13  2 30  0.0000000  0 12G05G01G07G09G11G19G28G30G15G08G13G17
   -736988.358 6    113189.51443  25031765.258
  25031755.543          36.200          18.600
  -4624468.848 6  -3314503.10843  24674871.133
  24674863.996          37.400          19.300
 -25506225.270 7 -19182961.81246  21047698.859
  21047687.035          47.500          38.700
  -8526909.168 5  -5869963.38843  24426580.234
  24426571.867          35.000          18.300
 -12865388.638 6  -7475059.46043  23067578.125
  23067566.184          41.100          23.000
  -1776910.878 5                  25320758.945
                        33.400
 -21028735.378 7 -15341201.07646  20864970.813
  20864958.168          47.400          39.200
 -27261028.009 7 -20381871.90847  20254911.773
  20254902.586          46.300          43.600
     -9279.237 5                  25270294.945
                        32.800
  -9626800.246 6  -6837489.34244  23265425.336
  23265416.148          37.700          25.000
 -18933668.824 7 -12721981.11645  22136115.547
  22136103.781          44.600          31.000
 -11746459.641 6 -10971843.92144  23280735.781
  23280724.719          41.100          28.400
 16  2 13  2 30 30.0000000  0 12G05G01G07G09G11G19G28G30G15G08G13G17
   -666139.907 5    168396.12943  25045248.102
  25045237.684          35.900          18.300
  -4702717.294 6  -3375475.88043  24659980.984
  24659974.023          37.700          20.100
 -25457221.423 7 -19144776.98746  21057023.898
  21057012.426          47.400          38.900
  -8412055.935 5  -5780467.36543  24448435.992
  24448428.094          35.300          18.300
 -12912475.993 6  -7511750.89044  23058617.953
  23058605.895          41.300          25.000
  -1900067.963 5                  25297321.789
                        32.600
 -21048244.730 7 -15356403.15546  20861258.383
  20861246.207          47.500          39.200
 -27259372.222 7 -20380581.66647  20255226.977
  20255217.262          46.900          44.000
   -104159.766 5    428763.85953  25252239.305
  25252228.828          34.500          18.300
  -9544830.675 6  -6773616.93544  23281023.977
  23281014.613          38.700          24.300
 -19002911.371 7 -12775936.31845  22122938.406
  22122927.461          43.700          31.200
 -11848491.964 6 -11051349.58944  23261317.133
  23261308.004          40.100          28.100
 16  2 13  2 31  0.0000000  0 12G05G01G07G09G11G19G28G30G15G08G13G17
   -595114.689 5    223740.39043  25058763.133
  25058753.594          34.900          18.300
  -4780795.886 6  -3436316.27942  24645122.539
  24645116.164          36.700          17.800
 -25407881.736 7 -19106330.47046  21066413.500
  21066401.148          47.600          39.300
  -8297160.850 5  -5690938.76342  24470299.867
  24470291.676          35.000          17.400
 -12959090.422 6  -7548073.80344  23049747.477
  23049735.594          41.400          25.600
  -2023260.065 5   -778077.08753  25273879.242
  25273864.195          35.500          20.900
 -21067450.327 7 -15371368.53746  20857603.633
  20857590.988          47.200          39.400
 -27257360.541 8 -20379014.10647  20255609.797
  20255600.258          49.600          43.400
   -198804.001 5    355015.18742  25234228.727
  25234219.949          35.500          17.400
  -9462502.346 6  -6709465.00144  23296690.406
  23296681.629          39.700          26.000
 -19071685.574 7 -12829526.57945  22109851.898
  22109840.309          44.500          31.300
 -11950329.876 6 -11130703.76144  23241939.891
  23241929.297          40.900          28.200
 16  2 13  2 31 30.0000000  0 12G05G01G07G09G11G19G28G30G15G08G13G17
   -523915.247 5    279220.40842  25072311.469
  25072302.281          34.100          17.400
  -4858701.274 6  -3497021.77042  24630297.453
  24630290.023          37.100          17.400
 -25358206.012 7 -19067622.11446  21075866.000
  21075853.941          47.500          38.600
  -8182226.114 5  -5601379.20543  24492171.930
  24492163.504          34.700          19.000
 -13005229.362 6  -7584026.21744  23040967.445
  23040955.094          40.200          24.200
  -2146484.106 6   -874095.78842  25250431.172
  25250416.535          37.500          15.600
 -21086352.283 7 -15386097.31446  20854006.336
  20853994.277          47.100          39.400
 -27254991.956 8 -20377168.45047  20256060.555
  20256050.723          50.800          43.800
   -293209.500 5    281452.50342  25216264.031
  25216254.375          34.500          16.900
  -9379817.395 6  -6645035.16144  23312425.055
  23312415.867          39.700          25.600
 -19139988.546 7 -12882749.65745  22096854.414
  22096842.824          44.900          31.900
 -12051970.821 7 -11209904.41344  23222598.781
  23222587.953          42.400          27.900
 16  2 13  2 32  0.0000000  0 12G05G01G07G09G11G19G28G30G15G08G13G17
   -452544.116 5    334834.30843  25085892.023
  25085884.184          34.000          19.000
  -4936429.498 6  -3557589.10343  24615507.453
  24615498.500          38.600          18.600
 -25308193.576 7 -19028651.38346  21085383.336
  21085370.926          47.600          38.600
  -8067253.606 5  -5511790.27443  24514048.859
  24514041.840          33.900          18.600
 -13050889.753 6  -7619605.70544  23032277.797
  23032266.266          40.500          24.000
  -2269737.262 6   -970137.06042  25226975.523
  25226963.582          36.400          16.300
 -21104950.828 7 -15400589.66346  20850467.266
  20850454.738          47.500          39.300
 -27252265.144 8 -20375043.65147  20256579.375
  20256569.836          50.400          43.200
   -387373.054 5    208078.45642  25198345.344
  25198335.922          34.800          17.400
  -9296777.907 6  -6580329.05744  23328227.078
  23328217.598          39.800          26.200
 -19207817.341 7 -12935603.23945  22083947.219
  22083935.863          44.300          31.900
 -12153411.545 7 -11288949.06744  23203295.125
  23203284.180          42.500          29.900
 16  2 13  2 32 30.0000000  0 12G05G01G07G09G11G19G28G30G15G08G13G17
   -381002.319 5    390581.08743  25099506.961
  25099498.301          34.900          18.600
  -5013975.606 6  -3618014.59343  24600750.078
  24600742.297          37.800          18.300
 -25257842.525 7 -18989416.80146  21094964.773
  21094952.422          47.300          38.600
  -7952243.968 5  -5422172.37842  24535934.680
  24535927.484          34.300          17.400
 -13096067.466 6  -7654809.08143  23023680.875
  23023669.227          40.800          23.600
  -2393015.001 5  -1066197.55042  25203514.953
  25203504.887          34.600          15.600
 -21123245.171 7 -15414844.98146  20846985.789
  20846973.672          47.500          39.400
 -27249177.551 8 -20372637.72547  20257167.156
  20257157.441          50.200          44.100
   -481290.450 5    134896.09042  25180473.133
  25180464.766          34.200          16.900
  -9213385.037 6  -6515347.58844  23344095.820
  23344087.336          39.900          27.200
 -19275167.442 7 -12988083.79145  22071130.102
  22071119.215          44.300          31.600
 -12254647.827 7 -11367834.41445  23184030.617
  23184019.555          42.200          30.900
 16  2 13  2 33  0.0000000  0 12G05G01G07G09G11G19G28G30G15G08G13G17
   -309299.435 5    446453.36242  25113150.031
  25113142.543          33.600          17.800
  -5091342.872 6  -3678300.75242  24586027.344
  24586019.152          36.700          17.400
 -25207159.609 7 -18949923.62446  21104609.852
  21104597.383          47.100          38.900
  -7837206.107 5  -5332532.47642  24557826.953
  24557818.645          34.200          17.800
 -13140766.512 6  -7689639.49543  23015175.016
  23015163.250          41.100          23.000
  -2516321.168 6  -1162280.06542  25180052.047
  25180040.340          37.300          16.900
 -21141242.244 7 -15428868.66346  20843562.023
  20843548.910          47.800          39.500
 -27245734.961 8 -20369955.17647  20257822.148
  20257812.434          50.300          43.200
   -574965.334 5     61902.77742  25162647.602
  25162638.590          33.800          17.800
  -9129647.222 6  -6450097.34844  23360030.688
  23360021.734          39.800          25.500
 -19342043.089 7 -13040194.66245  22058404.305
  22058393.008          44.600          31.800
 -12355683.017 7 -11446563.09144  23164804.008
  23164793.063          42.400          29.700
 16  2 13  2 33 30.0000000  0 12G05G01G07G09G11G19G28G30G15G08G13G17
   -237430.562 5    502455.05742  25126828.414
  25126819.227          35.500          17.400
  -5168519.872 6  -3738438.60543  24571341.289
  24571333.039          36.800          18.300
 -25156136.506 7 -18910165.35846  21114318.320
  21114307.082          46.800          39.000
  -7722134.162 5  -5242866.07143  24579723.906
  24579716.477          33.900          19.000
 -13184976.424 6  -7724088.73143  23006762.727
  23006749.965          39.200          23.500
  -2639645.002 5  -1258376.43342  25156583.492
  25156571.844          34.300          16.300
 -21158934.543 7 -15442654.85246  20840194.727
  20840182.199          47.300          39.800
 -27241928.308 8 -20366988.94547  20258546.836
  20258537.121          49.900          43.300
   -668387.096 5    -10893.28443  25144869.125
  25144861.109          33.700          18.300
  -9045558.691 6  -6384573.82144  23376033.109
  23376023.863          39.400          25.800
 -19408433.636 7 -13091927.53545  22045770.688
  22045759.039          45.300          32.400
 -12456507.610 7 -11525127.62544  23145617.961
  23145606.781          42.200          28.900
 16  2 13  2 34  0.0000000  0 12G05G01G07G09G11G19G28G30G15G08G13G17
   -165406.538 5    558577.67742  25140533.914
  25140525.254          35.000          16.300
  -5245512.038 6  -3798432.42642  24556691.359
  24556682.289          37.900          17.400
 -25104781.924 7 -18870148.78846  21124091.148
  21124079.207          47.000          38.500
  -7607039.195 5  -5153181.72042  24601625.367
  24601618.230          34.900          17.800
 -13228703.354 6  -7758161.65144  22998441.977
  22998429.098          40.700          25.300
  -2762992.622 5  -1354491.33543  25133110.859
  25133099.563          35.000          19.300
 -21176331.472 7 -15456210.88446  20836884.258
  20836871.320          47.300          39.400
 -27237765.575 8 -20363745.24647  20259338.672
  20259329.074          50.700          43.400
   -761562.070 5    -83497.07643  25127138.914
  25127130.488          34.200          18.300
  -8961131.018 6  -6318786.03643  23392098.281
  23392089.504          38.700          23.200
 -19474345.035 7 -13143287.04445  22033228.031
  22033216.734          44.600          32.400
 -12557126.801 6 -11603532.13944  23126469.188
  23126459.063          41.400          29.400
 16  2 13  2 34 30.0000000  0 12G05G01G07G09G11G19G28G30G15G08G13G17
    -93223.115 5    614824.43342  25154269.555
  25154261.070          33.700          17.400
  -5322309.038 6  -3858274.19043  24542076.047
  24542068.910          36.200          19.300
 -25053088.658 7 -18829868.31346  21133928.383
  21133916.500          46.800          38.600
  -7491916.488 5  -5063475.74943  24623533.719
  24623525.352          34.900          18.600
 -13271937.855 6  -7791850.84344  22990214.766
  22990201.828          40.200          24.200
  -2886354.338 5  -1450617.17643  25109635.688
  25109624.273          35.300          19.300
 -21193426.546 8 -15469531.70346  20833631.063
  20833618.418          48.200          39.300
 -27233238.783 8 -20360217.86547  20260200.008
  20260190.352          50.500          43.400
   -854480.396 5   -155900.88842  25109456.961
  25109447.949          33.200          16.300
  -8876359.639 6  -6252730.42943  23408229.164
  23408221.090          38.100          23.900
 -19539767.787 7 -13194265.78745  22020778.805
  22020766.746          45.100          32.600
 -12657531.499 6 -11681769.51144  23107363.461
  23107352.574          40.900          28.500
 16  2 13  2 35  0.0000000  0 12G05G01G07G09G11G19G28G30G15G08G13G17
    -20886.341 5    671190.73642  25168034.680
  25168025.844          34.300          14.800
  -5398910.403 5  -3917963.52842  24527498.500
  24527492.184          33.800          17.800
 -25001059.628 7 -18789326.22246  21143829.164
  21143816.871          47.100          38.100
  -7376771.290 5  -4973752.23243  24645445.023
  24645436.949          34.900          19.000
 -13314680.447 6  -7825156.73644  22982081.023
  22982068.613          41.100          25.300
  -3009730.262 5  -1546754.13343  25086157.172
  25086146.285          33.000          20.900
 -21210223.305 7 -15482620.07446  20830434.563
  20830422.387          47.300          39.900
 -27228349.962 8 -20356408.38447  20261130.688
  20261120.680          50.100          43.500
   -947142.203 5   -228104.79142  25091824.203
  25091814.781          33.300          16.300
  -8791249.723 6  -6186411.00243  23424424.719
  23424416.820          38.400          21.800
 -19604702.267 7 -13244864.05045  22008421.672
  22008410.492          45.400          32.600
 -12757721.804 7 -11759839.80844  23088299.219
  23088286.867          42.700          29.800
 16  2 13  2 35 30.0000000  0 12G05G01G07G09G11G19G28G30G15G08G13G17
     51601.296 5    727674.59042  25181827.297
  25181819.867          33.700          15.600
  -7050732.690 5  -5205097.72542  24512960.859
  24512953.547          34.200          17.800
 -24948694.482 7 -18748522.22046  21153793.789
  21153781.496          46.900          38.200
  -7261605.603 5  -4884012.74443  24667359.422
  24667351.406          35.000          20.100
 -13356928.705 6  -7858077.43244  22974041.266
  22974029.617          41.100          24.300
  -3133117.529 5  -1642899.88343  25062675.430
  25062666.711          30.500          18.300
 -21226722.232 7 -15495476.36546  20827295.203
  20827282.559          47.400          39.200
 -27223098.270 8 -20352316.14347  20262129.977
  20262120.027          51.000          43.700
  -1039544.893 5   -300106.84942  25074240.641
  25074231.570          33.700          15.600
  -8705803.751 6  -6119829.74643  23440685.188
  23440676.469          39.000          23.600
 -19669145.689 7 -13295079.68445  21996158.734
  21996147.262          45.700          32.700
 -12857694.805 7 -11837740.76945  23069274.953
  23069262.777          43.300          30.200
 16  2 13  2 36  0.0000000  0 12G05G01G07G09G11G19G28G30G15G08G13G17
    124236.643 5    784273.56642  25195651.063
  25195642.695          34.600          16.900
  -7126932.662 5  -5264474.23042  24498458.984
  24498454.547          32.900          17.400
 -24895993.091 7 -18707456.20646  21163822.727
  21163810.492          46.300          38.500
  -7146421.847 5  -4794259.20543  24689278.563
  24689270.078          35.700          19.000
 -13398680.046 6  -7890610.91444  22966096.625
  22966083.805          40.800          25.300
  -4831933.71115  -2966652.58153  25039195.055
  25039185.281          33.400          20.100
 -21242924.090 7 -15508101.17346  20824211.820
  20824199.586          47.100          39.400
 -27217482.732 8 -20347940.40047  20263198.523
  20263188.457          50.800          43.500
  -1131685.589 5   -270723.81052  25056707.734
  25056696.672          35.500          17.400
  -8620023.722 6  -6052988.16643  23457008.430
  23457000.121          38.700          22.800
 -19733095.481 7 -13344910.66645  21983989.672
  21983977.848          45.400          32.600
 -12957447.983 7 -11915470.43245  23050291.852
  23050280.555          42.800          30.000
 16  2 13  2 36 30.0000000  0 12G05G01G07G09G11G19G28G30G15G08G13G17
    197015.241 6    840984.12342  25209501.852
  25209491.434          36.800          16.300
  -7202928.57815  -5323691.79552  24483999.242
  24483992.457          35.000          16.900
 -24842957.657 7 -18666129.88146  21173914.383
  21173902.617          46.800          38.500
  -7031224.093 6  -4704494.70643  24711200.148
  24711191.781          36.400          19.000
 -13439934.032 6  -7922756.87144  22958245.672
  22958233.438          41.000          25.200
  -4955337.395 5  -3062811.20943  25015712.836
  25015702.184          32.500          20.100
 -21258831.265 7 -15520496.35646  20821184.789
  20821172.848          47.300          39.200
 -27211504.401 8 -20343281.95047  20264335.844
  20264326.188          50.500          43.000
  -1223563.921 5   -342317.18243  25039223.922
  25039213.738          35.500          18.300
  -8533914.392 6  -5985889.96443  23473394.789
  23473386.480          39.200          23.400
 -19796551.397 7 -13394356.80945  21971914.852
  21971902.734          45.400          33.500
 -13056980.874 6 -11993028.42144  23031350.789
  23031339.668          41.500          29.700
 16  2 13  2 37  0.0000000  0 12G05G01G07G09G11G19G28G30G15G08G13G17
    269936.252 5    897805.73942  25223377.430
  25223368.242          35.800          15.600
  -7278715.565 5  -5382746.52042  24469576.680
  24469570.422          33.700          15.600
 -24789585.699 7 -18624541.34646  21184071.070
  21184059.188          46.800          38.400
  -6916012.898 5  -4614719.74543  24733124.430
  24733116.004          35.600          20.100
 -13480686.637 6  -7954512.14044  22950490.281
  22950478.047          40.500          24.600
  -5078744.676 5  -3158972.55942  24992229.188
  24992218.711          33.600          17.800
 -21274442.763 7 -15532661.14146  20818213.898
  20818201.664          47.500          39.600
 -27205160.715 8 -20338338.80947  20265543.422
  20265533.414          50.600          43.700
  -1315175.081 5   -413702.46443  25021791.055
  25021780.871          35.900          18.300
  -8447476.222 6  -5918535.53343  23489844.508
  23489834.383          39.700          23.000
 -19859508.615 7 -13443414.36345  21959934.000
  21959922.176          45.000          32.700
 -13156289.020 6 -12070411.35144  23012452.977
  23012442.324          41.800          29.800
 16  2 13  2 37 30.0000000  0 12G05G01G07G09G11G19G28G30G15G08G13G17
    342996.141 5    954735.47142  25237279.133
  25237270.883          33.400          14.800
  -7354290.718 5  -5441636.18742  24455196.039
  24455188.492          34.700          16.300
 -24735878.158 7 -18582691.30446  21194291.234
  21194279.352          46.700          37.800
  -6800790.903 5  -4524936.38343  24755050.578
  24755041.801          35.900          19.900
 -13520935.829 6  -7985875.12644  22942832.180
  22942818.891          41.400          24.700
  -5202153.123 5  -3255135.03942  24968745.875
  24968734.754          33.900          16.300
 -21289759.456 7 -15544596.22146  20815299.445
  20815286.918          47.300          39.900
 -27198451.262 8 -20333110.65447  20266820.070
  20266810.707          50.300          43.600
  -1406516.860 6   -484877.84943  25004408.922
  25004398.504          37.700          19.000
  -8360712.125 6  -5850927.11643  23506354.586
  23506345.223          39.900          22.500
 -19921965.172 7 -13492081.77945  21948048.547
  21948036.957          45.700          32.800
 -13255370.301 7 -12147617.50145  22993599.078
  22993587.547          43.000          30.300
 16  2 13  2 38  0.0000000  0 12G05G01G07G09G11G19G28G30G15G08G13G17
    416192.255 5   1011771.37642  25251206.891
  25251199.461          33.500          17.800
  -7429651.10015  -5500358.53452  24440854.875
  24440847.387          34.900          16.300
 -24681834.964 7 -18540579.73846  21204575.102
  21204563.395          46.600          38.000
  -6685560.906 6  -4435146.79743  24776978.820
  24776969.926          36.400          19.300
 -13560679.737 6  -8016844.38544  22935268.695
  22935255.816          41.500          25.200
  -5325560.392 6  -3351296.44042  24945263.422
  24945250.309          36.800          16.300
 -21304782.245 7 -15556302.28446  20812440.578
  20812428.109          47.500          38.900
 -27191375.585 8 -20327597.13247  20268166.586
  20268156.754          50.800          43.300
  -1497587.119 6   -555841.63943  24987078.094
  24987067.852          36.300          19.900
  -8273625.023 6  -5783067.01943  23522926.344
  23522917.098          38.800          23.000
 -19983919.205 7 -13540357.63545  21936259.328
  21936247.855          45.300          33.200
 -13354222.322 7 -12224645.01045  22974788.344
  22974776.695          43.200          30.200
 16  2 13  2 38 30.0000000  0 12G05G01G07G09G11G19G28G30G15G08G13G17
    489520.832 5   1068910.52842  25265162.547
  25265152.773          35.800          16.900
  -7504793.608 5  -5558911.04742  24426555.703
  24426548.332          34.600          17.800
 -24627456.357 7 -18498206.79246  21214923.367
  21214911.250          47.000          38.500
  -6570325.277 6  -4345352.82243  24798906.547
  24798898.180          36.400          19.600
 -13599915.982 6  -8047418.05044  22927802.555
  22927790.086          41.600          25.300
  -5448963.228 5  -3447454.30742  24921779.945
  24921768.004          35.900          17.800
 -21319511.984 7 -15567779.97946  20809637.516
  20809625.164          46.900          39.500
 -27183933.195 8 -20321797.85847  20269582.453
  20269572.797          49.900          43.300
  -1588383.391 6   -626591.91343  24969800.125
  24969789.590          36.000          19.900
  -8186217.586 6  -5714957.31243  23539559.594
  23539550.172          38.400          22.000
 -20045368.107 7 -13588239.86645  21924565.883
  21924554.234          44.900          32.700
 -13452842.341 7 -12301491.70945  22956021.539
  22956010.066          43.300          30.700
 16  2 13  2 39  0.0000000  0 12G05G01G07G09G11G19G28G30G15G08G13G17
    562979.409 5   1126150.91043  25279141.141
  25279131.484          35.100          18.600
  -7579714.72515  -5617291.11552  24412298.625
  24412291.078          34.100          17.800
 -24572742.258 7 -18455572.43346  21225335.055
  21225322.938          46.700          38.100
  -6455086.178 6  -4255556.13743  24820836.047
  24820827.270          37.300          19.600
 -13638642.177 6  -8077594.29144  22920432.023
  22920420.609          41.500          25.000
  -5572359.380 6  -3543607.08942  24898299.648
  24898286.477          36.700          17.400
 -21333949.068 7 -15579029.64046  20806890.719
  20806877.723          47.800          39.300
 -27176122.981 7 -20315711.96947  20271068.750
  20271058.918          46.400          43.700
  -1678902.905 5   -697126.49643  24952575.789
  24952564.668          34.100          19.300
  -8098492.193 6  -5646599.85543  23556253.328
  23556243.789          37.500          22.300
 -20106309.635 7 -13635726.74745  21912968.883
  21912957.176          45.300          32.700
 -13551228.133 7 -12378155.92845  22937297.828
  22937288.113          42.300          31.400
 16  2 13  2 39 30.0000000  0 12G05G01G07G09G11G19G28G30G15G08G13G17
    636564.712 5   1183490.09343  25293144.070
  25293134.941          35.400          19.600
  -7654411.731 5  -5675496.48942  24398083.570
  24398075.965          34.500          17.400
 -24517693.365 7 -18412677.18746  21235810.172
  21235798.641          47.100          37.600
  -6339846.468 6  -4165758.96343  24842764.898
  24842756.707          37.200          20.900
 -13676857.339 6  -8107372.31344  22913160.438
  22913148.379          40.500          25.600
  -5695746.881 6  -3639753.00743  24874819.672
  24874806.559          37.000          18.300
 -21348095.212 7 -15590052.59446  20804198.359
  20804186.301          47.300          39.200
 -27167944.855 7 -20309339.39247  20272624.594
  20272615.113          46.300          43.800
  -3344563.65115  -1995043.88453  24935404.375
  24935392.375          30.800          19.300
  -8010451.708 6  -5577996.87243  23573007.273
  23572997.324          37.300          23.000
 -20166741.708 7 -13682816.64445  21901469.672
  21901457.438          45.800          32.700
 -13649378.314 7 -12454636.55845  22918621.820
  22918610.348          43.800          32.700
 16  2 13  2 40  0.0000000  0 12G05G01G07G09G11G19G28G30G15G08G13G17
    710274.264 5   1240926.03042  25307169.773
  25307161.230          34.200          16.900
  -7728881.097 5  -5733524.52343  24383912.844
  24383904.535          35.600          19.600
 -24462309.214 7 -18369520.71346  21246349.789
  21246337.555          46.700          37.500
  -6224608.120 6  -4075962.89043  24864694.758
  24864686.039          36.300          19.600
 -13714558.616 6  -8136749.93144  22905986.070
  22905974.363          40.800          25.300
  -5819122.397 6  -3735889.71943  24851340.398
  24851328.633          36.600          18.600
 -21361950.555 7 -15600848.94746  20801561.570
  20801549.219          47.700          39.300
 -27159397.601 8 -20302679.19247  20274251.531
  20274241.641          49.900          43.700
  -3434522.59715  -2065141.54653  24918285.328
  24918274.676          30.700          19.600
  -7922098.239 6  -5509150.01443  23589819.289
  23589811.156          37.900          23.400
 -20226661.857 7 -13729507.64145  21890066.633
  21890054.750          45.900          33.100
 -13747289.467 7 -12530930.92245  22899989.039
  22899978.445          43.500          31.600
 16  2 13  2 40 30.0000000  0 12G05G01G07G09G11G19G28G30G15G08G13G17
    784105.657 5   1298456.99842  25321220.133
  25321211.121          32.000          15.600
  -7803118.938 5  -5791372.11143  24369785.359
  24369777.051          35.400          19.600
 -24406589.391 7 -18326102.66746  21256952.852
  21256940.383          47.000          37.400
  -6109372.810 5  -3986169.14143  24886623.344
  24886614.918          35.900          19.000
 -13751743.170 6  -8165724.89644  22898910.523
  22898898.582          40.900          25.800
  -5942482.541 5  -3832014.39443  24827865.656
  24827853.773          35.800          18.300
 -21375515.402 7 -15611418.94046  20798980.508
  20798968.098          47.800          39.800
 -27150480.006 8 -20295730.39747  20275948.586
  20275938.695          50.500          43.300
  -3524196.840 5  -2135017.41543  24901219.570
  24901209.914          33.800          20.100
  -7833433.883 6  -5440060.91843  23606691.555
  23606683.480          37.700          22.800
 -20286067.127 7 -13775797.43445  21878762.195
  21878750.605          45.500          33.300
 -13844958.609 7 -12607036.70845  22881403.445
  22881392.969          43.000          31.000
 16  2 13  2 41  0.0000000  0 12G05G01G07G09G11G19G28G30G15G08G13G17
    858054.726 5   1356079.68042  25335292.258
  25335283.129          34.600          16.300
  -7877123.452 5  -5849037.87843  24355703.625
  24355694.848          35.800          19.600
 -24350535.369 7 -18282424.22646  21267619.859
  21267607.273          47.000          37.800
  -5994144.415 6  -3896380.82843  24908550.211
  24908542.137          36.300          19.300
 -13788410.250 6  -8194296.61844  22891933.039
  22891920.395          41.300          25.600
  -6065826.076 5  -3928126.13443  24804394.609
  24804382.668          35.900          18.300
 -21388791.606 7 -15621764.01446  20796454.500
  20796441.621          47.800          39.500
 -27141192.730 8 -20288493.55447  20277715.969
  20277706.137          50.500          43.300
  -3613584.779 6  -2204670.25143  24884209.070
  24884199.414          37.100          22.900
  -7744462.348 6  -5370732.47243  23623623.094
  23623614.375          37.000          22.500
 -20344956.246 7 -13821685.02645  21867555.930
  21867544.223          45.300          33.300
 -13942384.622 7 -12682953.04345  22862864.406
  22862853.051          43.500          32.500
 16  2 13  2 41 30.0000000  0 12G05G01G07G09G11G19G28G30G15G08G13G17
    932119.421 5   1413792.35042  25349386.969
  25349377.254          31.800          16.900
  -7950890.505 6  -5906518.64443  24341665.828
  24341657.168          36.000          20.100
 -24294146.461 7 -18238484.83146  21278349.719
  21278338.012          46.400          37.600
  -5878924.369 5  -3806598.97843  24930475.602
  24930467.820          35.000          18.300
 -13824556.915 6  -8222462.84544  22885054.281
  22885041.930          40.100          25.300
  -6189149.469 5  -4024222.17843  24780925.688
  24780915.445          35.100          18.600
 -21401779.075 7 -15631884.10446  20793983.016
  20793970.254          47.000          39.500
 -27131534.250 8 -20280967.45747  20279553.461
  20279544.156          49.900          43.300
  -3702683.456 6  -2274097.68143  24867254.453
  24867244.328          39.000          22.000
  -7655185.680 6  -5301166.24143  23640611.711
  23640602.758          37.700          23.600
 -20403326.338 7 -13867168.18245  21856448.195
  21856437.250          45.700          33.400
 -14039563.737 7 -12758677.01545  22844371.750
  22844360.395          44.000          32.100
 16  2 13  2 42  0.0000000  0 12G05G01G07G09G11G19G28G30G15G08G13G17
 -24200423.08915 -18170007.05352  25363502.156
  25363493.555          32.600          16.300
  -8024417.234 6  -5963812.11643  24327673.461
  24327665.855          36.000          20.400
 -24237422.941 7 -18194284.67446  21289143.813
  21289131.578          46.700          37.300
  -5763715.141 5  -3716825.60042  24952398.836
  24952391.758          34.300          17.800
 -13860181.278 6  -8250222.05944  22878275.258
  22878262.320          41.200          25.100
  -6312450.780 5  -4120300.99443  24757461.063
  24757450.879          35.000          18.300
 -21414478.927 7 -15641780.07946  20791566.094
  20791553.566          47.200          39.100
 -27121504.025 8 -20273151.69247  20281462.359
  20281452.879          50.800          43.300
  -3791490.223 6  -2343297.73243  24850355.141
  24850344.547          39.600          19.900
  -7565606.564 6  -5231364.34243  23657657.930
  23657649.621          37.800          22.800
 -20461175.326 7 -13912245.28745  21845439.883
  21845428.527          45.500          33.000
 -14136494.321 7 -12834207.30345  22825926.477
  22825915.004          43.900          31.400
 16  2 13  2 42 30.0000000  0 12G05G01G07G09G11G19G28G30G15G08G13G17
 -24126136.62615 -18112121.57452  25377639.203
  25377629.020          33.800          16.900
  -8097700.942 6  -6020916.22643  24313728.461
  24313720.563          36.800          22.200
 -24180365.668 7 -18149824.45646  21300001.891
  21299990.066          46.500          38.000
  -5648519.819 5  -3627063.04243  24974320.164
  24974313.262          33.900          18.300
 -13895282.225 6  -8277573.43944  22871595.805
  22871583.160          41.100          26.100
  -6435727.510 5  -4216360.69343  24734002.820
  24733992.109          34.300          19.300
 -21426892.496 7 -15651452.96946  20789203.906
  20789191.027          47.300          39.800
 -27111102.111 8 -20265046.28747  20283441.820
  20283432.047          49.800          42.700
  -3880003.067 6  -2412268.95142  24833511.867
  24833501.391          39.600          13.900
  -7475728.097 6  -5161329.19443  23674761.516
  23674752.445          36.800          22.900
 -20518501.559 7 -13956915.05345  21834531.281
  21834519.516          45.300          33.100
 -14233174.739 7 -12909542.66545  22807527.602
  22807517.125          42.700          31.200
 16  2 13  2 43  0.0000000  0 12G05G01G07G09G11G19G28G30G15G08G13G17
 -24051743.994 5 -18054153.20642  25391795.016
  25391785.125          34.700          16.300
  -8170738.078 6  -6077828.19443  24299830.422
  24299822.289          36.500          21.500
 -24122974.082 7 -18105103.74846  21310923.297
  21310911.063          46.000          37.500
  -5533340.190 5  -3537312.73242  24996236.656
  24996230.984          32.400          16.900
 -13929856.800 6  -8304514.63944  22865016.438
  22865003.910          40.200          26.700
  -6558976.691 5  -4312398.92943  24710550.289
  24710537.996          35.400          19.000
 -21439020.060 7 -15660903.00346  20786895.930
  20786883.402          47.200          39.700
 -27100327.332 8 -20256650.33947  20285492.016
  20285482.359          50.300          43.400
  -3968219.405 6  -2481008.90342  24816724.703
  24816715.457          38.200          17.800
  -7385552.533 6  -5091062.52143  23691921.219
  23691911.914          37.900          23.000
 -20575302.299 7 -14001175.34645  21823722.422
  21823710.949          45.900          32.400
 -14329601.788 7 -12984680.59645  22789178.953
  22789167.656          43.300          31.400
 16  2 13  2 43 30.0000000  0 12G05G01G07G09G11G19G28G30G15G08G13G17
 -23977247.766 5 -17996104.19443  25405969.352
  25405961.746          32.400          18.300
  -8243525.185 6  -6134545.40243  24285977.484
  24285970.992          36.400          22.000
 -24065248.284 7 -18060122.60446  21321908.102
  21321895.867          45.600          37.300
  -5418178.536 5  -3447576.39942  25018152.023
  25018146.000          32.300          16.300
 -13963903.156 6  -8331044.27444  22858537.813
  22858525.051          40.900          24.300
  -6682195.035 5  -4408413.17842  24687100.414
  24687089.938          33.300          17.800
 -21450862.373 7 -15670130.76446  20784642.383
  20784629.914          46.500          39.500
 -27089178.877 8 -20247963.23147  20287613.930
  20287604.039          50.500          42.800
  -4056136.535 5  -2549515.66142  24799995.305
  24799985.063          35.500          17.800
  -7295082.298 6  -5020566.22443  23709136.867
  23709127.680          38.600          22.800
 -20631575.113 7 -14045024.26645  21813014.406
  21813002.289          46.100          33.600
 -14425772.715 7 -13059618.94345  22770878.563
  22770866.914          44.100          32.300
 16  2 13  2 44  0.0000000  0 12G05G01G07G09G11G19G28G30G15G08G13G17
 -23902650.977 5 -17937976.89042  25420166.633
  25420157.914          31.000          15.600
  -8316060.025 6  -6191065.98543  24272175.625
  24272167.551          36.600          22.200
 -24007189.265 7 -18014881.81246  21332956.352
  21332943.766          46.400          37.300
  -5303037.871 5  -3357856.44142  25040063.555
  25040056.945          31.500          15.600
 -13997420.093 6  -8357161.31644  22852159.203
  22852147.379          40.800          26.600
  -6805381.176 5  -4504402.13043  24663660.852
  24663649.906          33.700          18.600
 -21462420.910 7 -15679137.39446  20782442.953
  20782430.426          47.200          39.300
 -27077656.943 8 -20238985.10947  20289806.250
  20289796.535          50.800          43.100
  -4143752.539 5  -2617787.72543  24783321.438
  24783311.957          33.800          19.600
  -7204320.640 6  -4949842.84944  23726407.727
  23726399.594          37.400          25.300
 -20687318.796 7 -14088460.88245  21802407.086
  21802395.145          45.900          33.500
 -14521686.116 7 -13134356.62645  22752626.523
  22752615.578          44.600          32.100
 16  2 13  2 44 30.0000000  0 12G05G01G07G09G11G19G28G30G15G08G13G17
 -23827956.627 5 -17879773.52142  25434380.406
  25434371.277          33.700          15.600
  -8388338.778 6  -6247387.03443  24258421.563
  24258413.957          37.300          22.600
 -23948796.862 7 -17969381.23946  21344067.867
  21344055.691          46.000          36.400
  -5187920.092 5  -3268154.37442  25061969.313
  25061963.055          31.900          14.800
 -14030405.133 6  -8382863.95744  22845882.555
  22845870.145          40.400          26.100
  -6928531.520 5  -4600363.33243  24640227.031
  24640214.621          33.600          18.600
 -21473695.858 7 -15687923.04846  20780297.711
  20780284.949          45.300          39.800
 -27065760.249 8 -20229714.94847  20292070.125
  20292060.117          50.500          43.000
  -4231064.249 6  -2685822.68343  24766707.367
  24766696.422          36.500          21.500
  -7113269.310 6  -4878893.76043  23743734.602
  23743726.117          38.300          22.200
 -20742530.438 7 -14131482.92045  21791900.188
  21791888.480          46.000          33.200
 -14617339.222 7 -13208891.50345  22734424.281
  22734412.984          43.300          31.600
 16  2 13  2 45  0.0000000  0 12G05G01G07G09G11G19G28G30G15G08G13G17
 -23753167.556 5 -17821496.27542  25448611.188
  25448602.586          32.300          17.800
  -8460358.261 6  -6303506.05543  24244716.289
  24244708.977          37.200          21.700
 -23890070.992 7 -17923620.83346  21355242.813
  21355231.164          46.800          37.400
  -5072827.536 5  -3178471.89942  25083871.203
  25083864.770          32.900          14.800
 -14062856.530 6  -8408150.73644  22839707.055
  22839695.406          40.700          27.300
  -7051643.792 5  -4696294.92242  24616798.594
  24616786.359          35.400          17.800
 -21484688.210 7 -15696488.49746  20778205.555
  20778192.910          46.900          39.400
 -27053488.299 8 -20220152.38247  20294405.313
  20294395.539          49.700          43.400
  -4318069.461 6  -2753618.86443  24750150.289
  24750139.930          37.000          21.500
  -7021931.365 6  -4807721.31543  23761114.852
  23761106.543          38.800          22.600
 -20797208.011 7 -14174088.79245  21781495.664
  21781483.723          45.900          33.700
 -14712729.153 7 -13283221.30045  22716272.117
  22716261.465          43.700          31.200
 16  2 13  2 45 30.0000000  0 12G05G01G07G09G11G19G28G30G15G08G13G17
 -23678286.247 5 -17763147.20642  25462860.633
  25462852.852          30.500          16.300
  -8532115.550 6  -6359420.75343  24231060.914
  24231053.484          36.800          20.900
 -23831011.994 7 -17877600.83446  21366481.273
  21366469.215          46.200          36.900
  -4957762.623 5  -3088810.90942  25105768.039
  25105761.430          32.800          13.900
 -14094772.271 6  -8433020.14144  22833633.555
  22833621.848          40.500          26.400
  -7174715.141 5  -4792194.54843  24593377.711
  24593365.887          34.600          19.600
 -21495398.695 7 -15704834.32346  20776167.336
  20776154.926          46.600          39.900
 -27040840.545 8 -20210296.97847  20296812.391
  20296802.559          50.500          43.000
  -4404765.583 5  -2821174.20143  24733653.617
  24733642.027          35.900          20.100
  -6930309.717 6  -4736327.80443  23778550.406
  23778541.980          38.600          22.600
 -20851349.367 7 -14216276.84645  21771192.375
  21771180.902          46.700          33.900
 -14807854.206 7 -13357344.68045  22698170.477
  22698159.063          44.400          32.400
 16  2 13  2 46  0.0000000  0 12G05G01G07G09G11G19G28G30G15G08G13G17
 -23603316.829 5 -17704729.60042  25477127.383
  25477118.488          32.600          17.800
  -8603607.979 6  -6415129.08343  24217456.680
  24217448.898          36.300          22.300
 -23771620.649 7 -17831321.86246  21377783.367
  21377771.016          47.000          36.800
 -55256168.26115                  25127658.961
                        32.400
 -14126151.221 6  -8457471.25044  22827662.914
  22827650.035          41.500          25.400
  -7297743.596 6  -4888060.82943  24569967.305
  24569954.426          36.400          20.400
 -21505828.828 7 -15712961.67546  20774182.469
  20774170.176          46.600          39.800
 -27027816.964 8 -20200148.71747  20299290.492
  20299280.309          50.500          43.200
  -4491150.987 5  -2888487.44543  24717215.125
  24717203.359          34.100          18.300
  -6838406.733 6  -4664715.08643  23796039.344
  23796029.688          38.700          22.200
 -20904953.157 7 -14258046.00945  21760991.914
  21760980.266          46.300          33.700
 -14902712.334 7 -13431260.06745  22680120.117
  22680108.352          44.900          33.100
 16  2 13  2 46 30.0000000  0 12G05G01G07G09G11G19G28G30G15G08G13G17
 -23528261.456 5 -17646244.93443  25491409.578
  25491400.508          34.800          19.000
  -8674831.528 6  -6470627.89543  24203903.992
  24203895.449          37.700          20.900
 -23711896.358 7 -17784783.46246  21389148.555
  21389136.438          46.100          36.800
 -55141165.917 4                  25149543.195
                        29.900
 -14156990.506 7  -8481501.83044  22821794.891
  22821782.012          42.100          26.500
  -7420725.526 6  -4983890.75543  24546563.945
  24546551.711          36.100          20.900
 -21515978.223 7 -15720870.27546  20772251.305
  20772238.602          46.600          39.600
 -27014416.007 8 -20189706.42847  20301840.375
  20301830.309          50.400          43.000
  -4577222.020 5  -2955555.67442  24700835.344
  24700824.633          33.300          17.400
  -6746224.440 6  -4592884.71043  23813581.180
  23813571.758          37.600          22.500
 -20958016.169 7 -14299393.79645  21750894.891
  21750882.715          46.600          34.400
 -14997300.589 7 -13504965.16245  22662119.648
  22662108.586          43.900          32.800
 16  2 13  2 47  0.0000000  0 12G05G01G07G09G11G19G28G30G15G08G13G17
 -23453120.790 5 -17587693.80943  25505709.000
  25505699.871          34.700          19.600
  -8745781.558 6  -6525913.56243  24190402.039
  24190394.316          37.700          21.700
 -23651837.969 7 -17737984.71846  21400577.445
  21400565.152          46.700          36.700
 -55026196.326 5                  25171420.430
                        31.200
 -14187286.496 6  -8505109.08144  22816029.000
  22816016.238          41.800          26.900
  -7543656.827 5  -5079681.36043  24523170.398
  24523158.926          35.700          19.300
 -21525846.325 7 -15728559.68746  20770373.188
  20770361.012          47.200          39.700
 -27000635.610 8 -20178968.44647  20304463.078
  20304453.305          50.800          43.100
  -4662974.857 6  -3022375.97343  24684516.828
  24684506.176          36.500          20.600
  -6653764.308 6  -4520837.86043  23831175.844
  23831166.773          37.100          22.000
 -21010534.820 7 -14340317.39445  21740900.633
  21740888.867          47.000          33.700
 -15091614.665 7 -13578456.60545  22644172.227
  22644161.223          43.900          31.900
 16  2 13  2 47 30.0000000  0 12G05G01G07G09G11G19G28G30G15G08G13G17
 -23377902.300 5 -17529082.07443  25520022.383
  25520013.840          33.800          18.300
  -8816459.202 6  -6580986.99843  24176952.672
  24176944.949          37.100          21.700
 -23591449.891 7 -17690929.06746  21412068.750
  21412056.809          46.500          37.400
 -54911266.146 4                  25193292.195
                        29.600
 -14217041.839 6  -8528295.04344  22810366.859
  22810353.922          41.800          26.600
  -7666538.983 5  -5175433.64843  24499786.383
  24499774.793          34.900          18.300
 -21535438.358 7 -15736033.98946  20768547.734
  20768535.617          46.500          39.500
 -26986479.506 8 -20167937.70647  20307156.453
  20307147.031          50.200          43.200
  -4748411.254 6  -3088949.72943  24668257.820
  24668247.461          38.100          22.500
  -6561032.653 5  -4448579.42043  23848821.938
  23848813.102          35.500          19.900
 -21062511.445 7 -14380818.64545  21731009.492
  21730997.902          46.700          33.700
 -15185656.715 7 -13651736.07845  22626276.922
  22626265.508          43.900          32.100
 16  2 13  2 48  0.0000000  0 12G05G01G07G09G11G19G28G30G15G08G13G17
 -24878022.71115 -18698007.04252  25534350.609
  25534342.477          32.300          15.600
  -8886855.053 6  -6635840.85143  24163555.617
  24163549.066          36.600          21.100
 -23530726.046 7 -17643611.79146  21423624.602
  21423611.957          46.500          36.300
 -54796371.58914                  25215155.570
                        28.600
 -14246248.354 7  -8551053.34644  22804809.008
  22804796.305          42.400          27.500
  -7789362.806 5  -5271140.43543  24476413.695
  24476402.457          35.500          20.400
 -21544749.023 7 -15743289.02546  20766776.016
  20766763.547          47.000          39.600
 -26971940.887 8 -20156608.90847  20309923.203
  20309913.723          50.600          43.700
  -4833522.174 6  -3155269.84443  24652063.141
  24652051.492          36.900          22.200
  -6468026.189 5  -4376106.85143  23866519.555
  23866510.953          34.800          19.300
 -21113937.542 7 -14420890.90845  21721223.617
  21721211.969          46.700          34.000
 -15279417.959 7 -13724796.75945  22608435.555
  22608423.730          45.200          33.700
 16  2 13  2 48 30.0000000  0 12G05G01G07G09G11G19G28G30G15G08G13G17
 -24802655.73115 -18639279.53752  25548693.148
  25548684.898          31.600          14.800
  -8956976.755 6  -6690481.08143  24150214.266
  24150205.840          37.500          21.500
 -23469677.443 7 -17596041.46246  21435240.969
  21435229.027          46.700          37.000
 -54681525.46414                  25237009.063
                        26.800
 -14274915.642 7  -8573391.48644  22799354.133
  22799340.961          42.500          26.300
  -7912137.015 6  -5366808.51243  24453051.969
  24453039.793          37.100          21.500
 -21553789.531 7 -15750333.55546  20765055.484
  20765043.250          47.000          39.600
 -26957029.846 8 -20144989.90847  20312760.766
  20312751.051          51.000          43.300
  -4918316.387 5  -3221343.20343  24635926.852
  24635915.965          35.000          19.600
  -6374758.107 6  -4303430.42443  23884269.039
  23884259.734          36.300          20.900
 -21164821.926 7 -14460541.06445  21711540.555
  21711529.082          46.100          33.600
 -15372906.809 7 -13797645.18645  22590644.477
  22590633.004          44.700          32.200
 16  2 13  2 49  0.0000000  0 11G01G07G09G11G19G28G30G15G08G13G17
  -9026807.656 6  -6744894.70843  24136924.148
  24136916.719          36.000          19.300
 -23408290.814 7 -17548207.73046  21446922.266
  21446910.383          45.500          36.500
 -54566716.67514                  25258858.563
                        28.300
 -14303028.112 7  -8595297.27544  22794004.148
  22793991.504          42.100          26.700
  -8034844.724 6  -5462424.85743  24429700.648
  24429688.531          36.900          19.900
 -21562547.165 7 -15757157.66646  20763389.203
  20763376.734          47.300          39.600
 -26941732.215 8 -20133069.67047  20315671.820
  20315662.223          50.400          43.200
  -5002777.460 5  -3287156.95942  24619855.648
  24619843.824          34.500          16.300
  -6281217.573 6  -4230541.71443  23902069.680
  23902059.965          36.700          21.300
 -21215148.939 7 -14499756.89545  21701963.445
  21701952.090          46.700          34.200
 -15466107.920 7 -13870269.38245  22572908.516
  22572897.395          44.300          33.200
 16  2 13  2 49 30.0000000  0 11G01G07G09G11G19G28G30G15G08G13G17
  -9096357.047 5  -6799089.02043  24123689.055
  24123682.035          34.500          19.300
 -23346579.541 7 -17500121.01046  21458665.734
  21458653.852          45.900          37.000
 -54451960.01114                  25280693.094
                        27.300
 -14330596.294 6  -8616778.95544  22788758.195
  22788745.316          41.600          26.200
  -8157496.046 6  -5557997.17143  24406360.578
  24406348.988          37.300          21.100
 -21571035.433 7 -15763771.88746  20761774.242
  20761761.422          47.500          39.400
 -26926060.051 8 -20120857.59247  20318653.914
  20318644.258          50.500          43.100
  -5086915.854 6  -3352719.23543  24603843.797
  24603832.559          37.700          19.000
  -6187419.778 6  -4157452.56043  23919918.961
  23919908.836          37.500          20.400
 -21264928.825 7 -14538546.38845  21692490.961
  21692479.078          46.700          34.100
 -15559031.131 7 -13942677.04445  22555226.000
  22555214.820          44.400          33.500
 16  2 13  2 50  0.0000000  0 11G01G07G09G11G19G28G30G15G08G13G17
  -9165611.605 5  -6853053.55943  24110511.141
  24110503.008          35.000          19.900
 -23284532.619 7 -17451772.76746  21470473.000
  21470461.469          46.000          37.000
 -54337247.45914                  25302523.891
                        26.400
 -14357608.293 6  -8637827.26644  22783617.734
  22783605.207          41.400          26.100
  -8280077.734 6  -5653515.24643  24383034.641
  24383022.758          36.000          21.700
 -21579244.786 8 -15770168.76846  20760212.188
  20760199.602          48.000          39.700
 -26910002.445 8 -20108345.16047  20321709.648
  20321700.051          50.200          43.400
  -5170718.497 6  -3418019.94643  24587896.359
  24587885.648          39.400          22.200
  -6093356.850 6  -4084156.76643  23937817.727
  23937808.246          37.900          21.300
 -21314149.781 7 -14576900.37045  21683123.992
  21683112.461          46.500          33.700
 -15651663.614 7 -14014858.14845  22537598.164
  22537587.629          44.700          33.500
 16  2 13  2 50 30.0000000  0 10G01G07G11G19G28G30G15G08G13G17
  -9234577.100 5  -6906792.87143  24097387.031
  24097378.957          34.300          18.600
 -23222159.467 7 -17403170.30646  21482342.750
  21482330.164          45.700          36.600
 -14384071.350 7  -8658447.80344  22778581.922
  22778569.219          42.100          25.600
  -8402596.250 6  -5748984.13443  24359719.484
  24359707.836          36.500          20.600
 -21587184.900 7 -15776355.85646  20758700.703
  20758688.293          46.400          39.300
 -26893567.764 8 -20095538.91047  20324837.016
  20324827.418          50.500          43.300
  -5254192.047 6  -3483064.19944  24572011.813
  24572001.043          39.500          24.200
  -5999039.936 6  -4010663.06543  23955765.164
  23955755.625          38.300          21.700
 -21362818.781 7 -14614824.24645  21673862.727
  21673851.371          46.900          34.800
 -15744012.241 7 -14086818.08345  22520025.063
  22520013.473          44.300          33.200
 16  2 13  2 51  0.0000000  0 10G01G07G11G19G28G30G15G08G13G17
  -9303241.282 5  -6960297.39142  24084321.438
  24084313.070          34.800          17.400
 -23159451.321 7 -17354306.83346  21494275.406
  21494263.172          45.900          36.200
 -14409974.857 7  -8678632.33344  22773653.336
  22773639.695          42.400          27.400
  -8525039.600 6  -5844394.38443  24336419.180
  24336407.121          37.000          20.400
 -21594847.490 7 -15782326.68346  20757242.813
  20757230.637          46.400          38.900
 -26876746.298 8 -20082431.27247  20328038.086
  20328028.840          51.000          43.100
  -5337324.830 6  -3547842.90743  24556192.070
  24556181.184          37.800          22.900
  -5904463.053 6  -3936966.78343  23973763.070
  23973753.766          38.000          22.000
 -21410924.679 7 -14652309.33945  21664708.781
  21664696.898          47.000          34.200
 -15836065.641 7 -14158547.99645  22502507.742
  22502496.270          44.500          33.700
 16  2 13  2 51 30.0000000  0 10G01G07G11G19G28G30G15G08G13G17
  -9371609.905 5  -7013571.57343  24071309.656
  24071302.637          33.700          18.600
 -23096417.425 7 -17305189.51246  21506270.094
  21506257.977          45.500          36.400
 -14435325.840 7  -8698386.32844  22768829.039
  22768816.043          42.100          26.900
  -8647413.913 6  -5939750.99743  24313132.930
  24313119.348          38.000          20.100
 -21602242.520 7 -15788089.03246  20755835.430
  20755822.727          45.900          39.400
 -26859546.409 8 -20069028.74947  20331311.125
  20331301.703          50.600          43.000
  -5420123.382 6  -3612361.14843  24540435.414
  24540425.289          37.000          21.500
  -5809637.290 6  -3863076.60143  23991806.289
  23991798.449          37.000          21.700
 -21458474.124 7 -14689360.83745  21655660.250
  21655648.660          47.300          34.800
 -15927829.950 7 -14230052.61845  22485046.289
  22485034.523          45.100          33.800
 16  2 13  2 52  0.0000000  0 10G01G07G11G19G28G30G15G08G13G17
  -9439671.868 5  -7066606.85243  24058358.438
  24058350.539          33.900          18.300
 -23033050.315 7 -17255812.56046  21518328.367
  21518316.543          45.700          36.300
 -14460114.852 7  -8717702.43144  22764111.664
  22764098.844          42.400          26.400
  -8769708.645 6  -6035045.52143  24289859.961
  24289848.020          36.200          20.100
 -21609362.391 7 -15793636.96646  20754480.563
  20754467.918          45.800          39.400
 -26841959.573 8 -20055324.71747  20334657.906
  20334647.957          50.200          43.800
  -5502576.846 6  -3676610.50143  24524745.172
  24524734.637          37.500          19.900
  -5714557.497 6  -3788988.46043  24009900.102
  24009891.734          36.900          21.100
 -21505457.133 7 -14725970.94845  21646720.094
  21646707.801          47.000          34.500
 -16019295.260 7 -14301324.24345  22467640.813
  22467629.457          44.500          33.800
 16  2 13  2 52 30.0000000  0 10G01G07G11G19G28G30G15G08G13G17
  -9507432.650 5  -7119407.42243  24045463.133
  24045455.879          34.600          18.600
 -22969358.633 7 -17206182.67846  21530448.484
  21530437.012          44.900          36.600
 -14484349.071 7  -8736586.22144  22759499.688
  22759487.395          42.100          25.800
  -8891929.624 6  -6130282.53343  24266603.094
  24266589.805          37.300          19.900
 -21616216.499 7 -15798977.81346  20753176.141
  20753163.672          46.700          39.900
 -26823993.879 8 -20041325.46647  20338076.672
  20338067.074          50.800          43.300
  -5584691.690 6  -3740596.08443  24509119.422
  24509108.418          38.400          19.600
  -5619234.557 6  -3714710.85743  24028040.172
  24028031.277          37.600          21.700
 -21551880.567 7 -14762145.04345  21637885.469
  21637873.645          46.500          35.000
 -16110467.846 7 -14372367.77745  22450290.875
  22450279.871          44.000          34.500
 16  2 13  2 53  0.0000000  0 10G01G07G11G19G28G30G15G08G13G17
  -9574880.880 5  -7171964.42243  24032630.625
  24032621.262          35.800          19.000
 -22905334.395 7 -17156293.66946  21542632.406
  21542620.113          46.000          36.200
 -14508018.050 6  -8755029.56244  22754995.633
  22754982.695          41.500          26.900
  -9014065.527 6  -6225453.32843  24243362.109
  24243347.707          36.900          21.300
 -21622797.484 7 -15804105.83846  20751924.016
  20751911.313          46.300          39.600
 -26805640.396 8 -20027024.05047  20341569.375
  20341559.426          50.300          43.300
  -5666456.967 6  -3804309.27243  24493559.898
  24493548.484          36.500          18.600
  -5523662.588 6  -3640239.17543  24046226.813
  24046217.156          37.000          20.100
 -21597734.208 7 -14797875.14545  21629160.086
  21629147.910          46.600          34.800
 -16201337.099 7 -14443174.96245  22432998.805
  22432987.684          44.100          33.600
 16  2 13  2 53 30.0000000  0 10G01G07G11G19G28G30G15G08G13G17
  -9642021.422 5  -7224281.66543  24019851.984
  24019844.848          35.600          18.600
 -22840986.019 7 -17106152.08146  21554877.094
  21554866.031          45.700          36.000
 -14531128.294 6  -8773037.52644  22750597.469
  22750585.586          41.100          25.400
  -9136121.671 6  -6320561.85943  24220135.555
  24220121.855          37.900          21.100
 -21629114.229 7 -15809027.96346  20750721.695
  20750709.461          45.800          39.700
 -26786906.653 8 -20012426.32347  20345133.672
  20345124.719          49.800          43.400
  -5747878.622 5  -3867754.61443  24478065.930
  24478054.984          35.200          19.300
  -5427852.638 6  -3565582.03743  24064458.391
  24064449.613          36.500          19.300
 -21643024.101 7 -14833165.94545  21620541.867
  21620529.809          46.600          35.700
 -16291908.584 7 -14513750.11445  22415763.750
  22415752.980          44.100          34.500
 16  2 13  2 54  0.0000000  0 10G01G07G11G19G28G30G15G08G13G17
  -9708845.564 5  -7276352.38843  24007135.742
  24007128.195          35.900          19.300
 -22776308.233 7 -17055753.80346  21567184.727
  21567172.961          45.800          36.000
 -14553672.981 6  -8790604.79844  22746307.781
  22746295.313          41.500          25.500
  -9258089.607 6  -6415601.75944  24196925.078
  24196912.082          37.100          24.500
 -21635161.912 7 -15813740.42946  20749571.250
  20749558.371          46.100          39.500
 -26767786.508 8 -19997527.50547  20348772.273
  20348763.145          50.700          42.700
  -5828948.152 6  -3930925.59843  24462639.555
  24462627.672          37.900          19.600
  -5331801.245 6  -3490736.78943  24082736.992
  24082727.512          36.300          19.000
 -21687742.878 7 -14868011.73245  21612031.695
  21612019.813          46.700          35.000
 -16382174.343 7 -14584087.03045  22398586.922
  22398575.215          44.600          33.600
 16  2 13  2 54 30.0000000  0 10G01G07G11G19G28G30G15G08G13G17
  -9775350.848 6  -7328174.65443  23994480.844
  23994473.180          36.000          19.600
 -22711301.858 7 -17005099.49946  21579555.250
  21579543.074          46.200          36.400
 -14575650.977 6  -8807730.49244  22742125.477
  22742112.363          41.500          26.500
  -9379967.641 6  -6510571.56443  24173733.063
  24173719.598          38.800          22.600
 -21640942.045 7 -15818244.41246  20748471.125
  20748458.363          46.800          40.200
 -26748280.059 8 -19982327.66447  20352484.391
  20352475.086          49.300          43.100
  -5909664.042 6  -3993821.04843  24447279.906
  24447268.492          37.400          20.100
  -5235511.834 5  -3415706.11143  24101059.250
  24101051.176          35.500          20.900
 -21731889.430 7 -14902411.62945  21603630.977
  21603619.152          46.600          35.000
 -16472132.950 7 -14654184.61845  22381468.500
  22381456.969          44.600          34.600
 16  2 13  2 55  0.0000000  0 10G01G07G11G19G28G30G15G08G13G17
  -9841535.146 5  -7379746.77843  23981886.953
  23981878.352          35.600          18.300
 -22645968.086 7 -16954190.08045  21591988.188
  21591976.070          45.700          35.300
 -14597061.964 6  -8824414.34644  22738051.383
  22738038.094          41.900          26.400
  -9501753.617 6  -6605469.69043  24150556.117
  24150544.117          37.700          22.800
 -21646456.011 7 -15822540.99546  20747422.148
  20747409.328          46.800          39.600
 -26728387.659 8 -19966827.08047  20356269.836
  20356260.355          49.900          43.500
  -5990024.781 6  -4056439.73643  24431986.930
  24431975.984          36.700          20.400
  -5138987.275 5  -3340492.17043  24119428.141
  24119419.305          35.700          21.500
 -21775462.696 7 -14936364.80745  21595339.547
  21595327.430          46.600          34.500
 -16561783.211 7 -14724041.93245  22364407.781
  22364397.012          43.400          34.800
 16  2 13  2 55 30.0000000  0 10G01G07G11G19G28G30G15G08G13G17
  -9907395.158 6  -7431066.20543  23969352.906
  23969345.652          36.800          20.100
 -22580307.232 7 -16903025.79345  21604482.688
  21604470.746          45.300          34.900
 -14617903.940 6  -8840654.82544  22734084.516
  22734072.105          41.400          26.200
  -9623444.342 6  -6700293.57943  24127399.805
  24127386.574          36.000          22.200
 -21651704.613 7 -15826630.80346  20746423.023
  20746410.730          46.600          39.800
 -26708108.627 8 -19951025.23347  20360128.539
  20360119.234          49.900          43.100
  -6070027.501 5  -4118779.45743  24416762.383
  24416751.906          34.700          20.400
  -5042230.283 5  -3265097.14543  24137839.992
  24137831.449          35.700          20.900
 -21818460.571 7 -14969869.62545  21587157.133
  21587144.957          46.400          34.900
 -16651122.359 7 -14793656.79945  22347408.164
  22347396.164          44.500          35.500
 16  2 13  2 56  0.0000000  0 10G01G07G11G19G28G30G15G08G13G17
  -9972926.799 6  -7482129.76943  23956883.031
  23956875.367          36.300          20.100
 -22514318.787 7 -16851606.23245  21617039.906
  21617027.848          45.700          35.500
 -14638174.752 6  -8856450.25744  22730227.891
  22730215.188          41.100          26.200
  -9745036.531 5  -6795040.68243  24104261.117
  24104248.590          34.700          19.300
 -21656687.671 7 -15830513.69346  20745474.578
  20745462.344          45.900          39.600
 -26687441.601 8 -19934921.04747  20364061.547
  20364051.656          48.800          42.900
  -6149669.052 6  -4180837.69043  24401606.867
  24401597.035          37.100          19.900
  -4945242.501 6  -3189522.28443  24156298.852
  24156287.789          36.800          19.600
 -21860880.384 7 -15002924.01445  21579085.063
  21579072.770          45.900          35.200
 -16740147.526 7 -14863027.02145  22330465.875
  22330454.988          44.000          34.000
 16  2 13  2 56 30.0000000  0 10G01G07G11G19G28G30G15G08G13G17
 -10038132.830 5  -7532939.59243  23944474.047
  23944467.203          35.700          19.600
 -22448008.670 7 -16799936.01745  21629658.758
  21629646.582          46.000          34.800
 -14657878.505 6  -8871803.81344  22726478.219
  22726465.926          41.900          27.600
  -9866533.096 6  -6889713.20343  24081141.930
  24081128.582          36.400          19.900
 -21661411.606 7 -15834194.66146  20744576.070
  20744563.543          45.800          40.300
 -26666391.727 8 -19918518.54947  20368066.828
  20368057.348          49.800          43.000
  -6228952.319 6  -4242616.82843  24386520.156
  24386509.270          38.200          22.200
  -4848032.271 6  -3113774.05843  24174796.875
  24174786.340          37.700          19.300
 -21902726.173 7 -15035531.11045  21571122.008
  21571109.773          46.800          35.300
 -16828861.766 7 -14932154.97645  22313584.773
  22313573.242          45.000          34.600
 16  2 13  2 57  0.0000000  0 10G01G07G11G19G28G30G15G08G13G17
 -10103001.664 6  -7583486.66443  23932130.180
  23932122.457          36.300          19.000
 -22381368.544 7 -16748008.64446  21642339.617
  21642327.617          46.200          36.000
 -14677005.266 6  -8886707.78344  22722838.281
  22722826.164          41.600          27.200
  -9987922.391 6  -6984302.26843  24058041.227
  24058027.879          36.400          21.300
 -21665868.798 7 -15837667.79146  20743727.805
  20743715.219          46.600          39.200
 -26644950.019 8 -19901810.72547  20372147.359
  20372137.996          49.100          43.400
  -6307866.954 6  -4304108.71743  24371502.867
  24371491.980          38.400          21.500
  -4750593.583 6  -3037847.81343  24193337.609
  24193328.598          37.600          21.500
 -21943987.368 7 -15067682.67045  21563269.891
  21563258.535          46.500          35.300
 -16917253.724 7 -15001031.81345  22296764.508
  22296753.094          45.200          34.700
 16  2 13  2 57 30.0000000  0 10G01G07G11G19G28G30G15G08G13G17
 -10167538.716 5  -7633775.20043  23919848.813
  23919841.500          35.400          19.000
 -22314407.612 7 -16695831.30945  21655081.773
  21655069.656          45.300          35.300
 -14695562.146 7  -8901167.65944  22719307.508
  22719294.453          42.500          25.000
 -10109210.368 6  -7078812.30543  24034961.320
  24034948.383          37.600          21.300
 -21670068.350 7 -15840940.15446  20742928.852
  20742916.090          46.200          39.800
 -26623124.485 8 -19884803.80547  20376300.641
  20376291.102          49.800          43.500
  -6386418.884 6  -4365317.98443  24356555.070
  24356543.832          37.400          21.800
  -4652937.472 5  -2961752.12543  24211919.734
  24211911.602          35.800          20.600
 -21984670.979 7 -15099384.17845  21555527.938
  21555516.230          46.600          35.000
 -17005331.114 7 -15069663.51545  22280004.063
  22279992.531          45.800          35.300
 16  2 13  2 58  0.0000000  0 10G01G07G11G19G28G30G15G08G13G17
 -10231731.613 6  -7683795.55243  23907633.156
  23907626.137          36.600          19.900
 -22247116.803 7 -16643396.92345  21667887.078
  21667874.902          45.500          34.200
 -14713538.530 7  -8915175.23744  22715885.688
  22715873.746          42.200          27.300
 -10230384.862 6  -7173233.93043  24011903.672
  24011889.914          37.700          22.300
 -21674002.066 7 -15844005.38046  20742180.273
  20742167.570          45.900          39.300
 -26600905.336 8 -19867490.16747  20380529.016
  20380519.242          49.200          43.200
  -6464596.293 6  -4426235.35243  24341678.453
  24341667.039          38.100          21.500
  -4555057.136 5  -2885481.77642  24230543.984
  24230537.727          32.900          16.300
 -22024765.883 7 -15130626.94045  21547898.469
  21547886.762          45.300          35.700
 -17093081.710 7 -15138040.59245  22263305.609
  22263293.844          45.300          34.900
 16  2 13  2 58 30.0000000  0 10G01G07G11G19G28G30G15G08G13G17
 -10295586.717 6  -7733552.75243  23895482.328
  23895474.313          36.700          20.100
 -22179505.869 7 -16590713.08545  21680752.625
  21680740.449          45.200          34.800
 -14730942.374 7  -8928736.65344  22712573.789
  22712561.203          42.600          28.200
 -10351452.581 6  -7267572.36844  23988864.500
  23988851.563          38.400          25.600
 -21677679.886 7 -15846871.19646  20741480.539
  20741467.543          46.000          39.700
 -26578301.515 8 -19849876.80047  20384830.148
  20384820.375          48.600          43.000
  -6542406.236 6  -4486866.45143  24326872.234
  24326860.762          37.900          22.600
  -4456964.163 5  -2809045.71842  24249211.422
  24249204.285          33.200          17.400
 -22064279.873 7 -15161417.04345  21540379.031
  21540367.500          45.300          35.500
 -17180512.606 7 -15206168.54545  22246667.883
  22246656.645          45.100          35.000
 16  2 13  2 59  0.0000000  0 10G01G07G11G19G28G30G15G08G13G17
 -10359093.564 6  -7783038.54043  23883398.000
  23883389.809          37.500          21.100
 -22111568.096 7 -16537774.56445  21693680.398
  21693668.984          45.600          34.700
 -14747764.780 7  -8941845.00944  22709373.258
  22709360.848          42.100          26.600
 -10472403.227 6  -7361819.56943  23965847.828
  23965834.832          38.300          22.500
 -21681095.285 7 -15849532.53746  20740829.594
  20740817.301          45.700          39.800
 -26555305.047 8 -19831957.46147  20389206.063
  20389196.641          48.400          43.000
  -6619838.693 6  -4547203.33343  24312136.141
  24312126.250          37.100          22.600
  -4358653.604 6  -2732440.05843  24267920.945
  24267911.992          37.600          18.300
 -22103203.740 7 -15191747.32045  21532972.461
  21532960.344          46.300          35.100
 -17267614.191 7 -15274039.87445  22230093.164
  22230081.750          45.400          35.100
 16  2 13  2 59 30.0000000  0 10G01G07G11G19G28G30G15G08G13G17
 -10422257.545 6  -7832257.17343  23871378.469
  23871370.043          37.300          22.300
 -22043311.957 7 -16484587.98545  21706669.148
  21706657.676          45.800          34.800
 -14764013.366 7  -8954506.22944  22706281.516
  22706268.578          42.200          27.200
 -10593242.416 6  -7455979.90344  23942852.500
  23942840.266          36.000          24.400
 -21684257.682 7 -15851996.72746  20740228.555
  20740215.793          47.000          39.400
 -26531923.971 8 -19813738.44047  20393655.414
  20393646.168          48.900          43.100
  -6696899.827 6  -4607250.90843  24297473.164
  24297460.988          37.700          21.700
  -4260136.633 6  -2655673.54443  24286668.164
  24286658.566          37.600          19.300
 -22141544.132 7 -15221622.93145  21525676.422
  21525664.305          46.600          35.500
 -17354392.819 7 -15341659.57145  22213579.273
  22213568.563          45.700          35.400
 16  2 13  3  0  0.0000000  0 10G01G07G11G19G28G30G15G08G13G17
 -10485065.841 6  -7881198.67543  23859426.367
  23859417.766          36.800          21.500
 -21974727.953 7 -16431145.92145  21719720.508
  21719708.801          45.600          35.200
 -14779676.956 7  -8966711.62444  22703300.117
  22703288.117          42.600          27.300
 -10713957.692 5  -7550043.70443  23919880.664
  23919869.016          35.900          22.800
 -21687157.693 7 -15854256.46546  20739676.695
  20739663.875          46.300          39.800
 -26508148.022 8 -19795211.72547  20398179.891
  20398169.824          49.300          43.000
  -6773577.525 6  -4666999.73143  24282881.086
  24282869.906          39.100          22.000
  -4161405.843 6  -2578740.43843  24305456.602
  24305446.652          38.200          19.600
 -22179289.894 7 -15251035.20445  21518493.367
  21518481.953          45.800          35.300
 -17440836.153 7 -15409017.97745  22197129.977
  22197118.797          44.900          35.000
 16  2 13  3  0 30.0000000  0 10G01G07G11G19G28G30G15G08G13G17
 -10547524.469 6  -7929867.65843  23847539.789
  23847532.184          37.300          21.700
 -21905825.812 7 -16377455.95945  21732831.945
  21732820.473          45.800          35.000
 -14794762.730 7  -8978466.75444  22700429.859
  22700417.684          42.800          27.700
 -10834554.961 6  -7644015.53244  23896931.547
  23896919.430          37.200          25.300
 -21689805.154 7 -15856319.40346  20739173.117
  20739160.180          45.000          39.400
 -26483985.792 8 -19776384.00847  20402777.602
  20402767.945          48.600          42.900
  -6849878.389 6  -4726454.92143  24268361.500
  24268350.320          38.300          22.300
  -4062472.912 6  -2501649.84743  24324282.391
  24324273.379          38.900          21.100
 -22216448.244 7 -15279989.74545  21511422.555
  21511410.438          46.300          35.500
 -17526951.206 7 -15476120.57645  22180742.953
  22180731.305          46.400          35.900
 16  2 13  3  1  0.0000000  0 10G01G07G11G19G28G30G15G08G13G17
 -10609624.059 6  -7978256.86643  23835724.297
  23835715.168          36.700          21.300
 -21836599.375 7 -16323513.28745  21746005.344
  21745993.754          45.000          34.900
 -14809263.786 7  -8989766.26244  22697670.523
  22697658.465          42.300          27.800
 -10955025.089 6  -7737888.33443  23874007.008
  23873994.715          38.500          23.000
 -21692194.545 7 -15858181.25346  20738717.758
  20738705.465          45.200          39.900
 -26459430.509 8 -19757250.01947  20407450.719
  20407440.887          49.300          42.900
  -6925793.510 6  -4785609.51343  24253915.055
  24253904.285          36.900          21.100
  -3963333.868 6  -2424398.60843  24343147.359
  24343138.582          39.500          22.200
 -22253011.372 7 -15308480.48345  21504464.820
  21504452.938          47.200          35.400
 -17612729.295 7 -15542960.61046  22164419.461
  22164408.340          45.500          36.100
 16  2 13  3  1 30.0000000  0 10G01G07G11G19G28G30G15G08G13G17
 -10671364.214 5  -8026366.02143  23823973.469
  23823965.629          35.400          21.300
 -21767051.949 7 -16269320.49745  21759239.773
  21759227.949          45.200          34.800
 -14823180.991 7  -9000610.82844  22695022.016
  22695009.781          43.400          27.800
 -11075368.028 6  -7831662.07643  23851106.758
  23851094.406          38.700          23.000
 -21694329.505 7 -15859844.85546  20738311.922
  20738299.043          46.000          39.600
 -26434484.294 8 -19737811.39647  20412197.664
  20412188.184          49.100          43.400
  -7001323.529 6  -4844463.99743  24239542.414
  24239531.645          36.600          19.900
  -3863993.616 6  -2346990.63143  24362050.969
  24362042.484          38.700          23.500
 -22288979.913 7 -15336507.89245  21497619.961
  21497607.961          46.300          35.700
 -17698171.363 7 -15609538.81146  22148160.578
  22148149.516          46.100          36.500
 16  2 13  3  2  0.0000000  0 10G01G07G11G19G28G30G15G08G13G17
 -10732741.796 5  -8074192.64443  23812292.883
  23812285.922          35.300          20.900
 -21697183.434 7 -16214877.50745  21772535.797
  21772523.563          45.400          34.100
 -14836513.232 7  -9010999.57244  22692485.672
  22692472.617          42.700          28.200
 -11195580.814 6  -7925334.32443  23828231.797
  23828218.332          38.000          22.900
 -21696210.145 7 -15861310.26146  20737953.875
  20737940.879          45.100          39.500
 -26409146.472 8 -19718067.63547  20417019.539
  20417009.590          49.200          42.600
  -7076465.568 6  -4903016.19143  24225243.547
  24225232.777          36.700          19.600
  -3764454.442 6  -2269427.63444  24380994.141
  24380984.074          39.500          24.800
 -22324352.214 7 -15364070.70745  21490888.891
  21490877.418          46.200          35.700
 -17783274.689 7 -15675853.03346  22131965.648
  22131954.527          45.400          36.000
 16  2 13  3  2 30.0000000  0 10G01G07G11G19G28G30G15G08G13G17
 -10793754.780 5  -8121735.15243  23800684.523
  23800675.570          35.500          21.500
 -21626995.492 7 -16160185.61645  21785892.313
  21785879.785          44.300          35.000
 -14849260.407 7  -9020932.42844  22690059.156
  22690046.980          42.400          28.100
 -11315661.307 6  -8018903.49544  23805381.359
  23805368.188          37.900          25.200
 -21697838.741 7 -15862579.28946  20737644.273
  20737631.395          44.900          40.200
 -26383417.770 8 -19698019.29447  20421915.008
  20421905.527          49.500          42.700
  -7151218.463 6  -4961265.13443  24211018.250
  24211007.656          36.300          20.600
  -3664719.912 6  -2191712.41944  24399972.859
  24399963.145          39.600          24.500
 -22359128.253 7 -15391168.89145  21484271.594
  21484259.066          46.000          35.300
 -17868038.184 7 -15741902.45746  22115835.883
  22115824.293          45.300          37.000
 16  2 13  3  3  0.0000000  0 10G01G07G11G19G28G30G15G08G13G17
 -10854399.582 6  -8168990.76943  23789144.820
  23789135.691          36.100          21.500
 -21556487.856 7 -16105244.61945  21799309.297
  21799297.824          44.900          34.800
 -14861420.475 7  -9030407.80144  22687745.195
  22687732.492          42.500          27.400
 -11435606.578 6  -8112367.28344  23782556.094
  23782543.273          37.600          24.800
 -21699214.976 7 -15863651.65346  20737381.805
  20737369.160          45.700          39.700
 -26357296.995 8 -19677665.43847  20426886.000
  20426876.109          49.000          42.800
  -7225578.957 6  -5019208.30743  24196868.047
  24196857.043          37.900          20.900
  -3564792.238 6  -2113846.71944  24418988.102
  24418979.207          37.500          25.800
 -22393305.666 7 -15417800.63046  21477767.453
  21477755.629          46.000          36.000
 -17952459.043 7 -15807684.90046  22099771.063
  22099759.707          45.900          36.600
 16  2 13  3  3 30.0000000  0 10G01G07G11G19G28G30G15G08G13G17
 -10914671.010 6  -8215955.45243  23777674.531
  23777666.223          36.400          22.500
 -21485658.843 7 -16050053.19245  21812787.195
  21812775.664          45.000          34.100
 -14872990.486 7  -9039423.38044  22685544.000
  22685531.414          43.600          28.000
 -11555411.213 6  -8205721.49544  23759757.555
  23759745.145          37.100          24.200
 -21700337.973 7 -15864526.71946  20737167.992
  20737155.699          45.100          39.900
 -26330781.707 8 -19657004.18247  20431931.805
  20431921.621          48.600          42.400
  -7299542.957 6  -5076842.52243  24182793.055
  24182781.406          37.700          20.100
  -3464671.281 6  -2035830.40143  24438040.469
  24438030.813          36.000          22.000
 -22426880.600 7 -15443962.90045  21471378.398
  21471366.750          46.000          35.800
 -18036533.005 7 -15873197.02646  22083772.758
  22083760.934          46.300          36.000
 16  2 13  3  4  0.0000000  0 10G01G07G11G19G28G30G15G08G13G17
 -10974572.266 6  -8262631.71043  23766275.570
  23766267.789          36.300          22.500
 -21414515.087 7 -15994616.51145  21826325.508
  21826313.742          44.300          33.800
 -14883975.192 7  -9047982.87444  22683453.719
  22683440.781          42.600          27.400
 -11675078.729 6  -8298968.84544  23736985.805
  23736973.160          38.700          26.400
 -21701214.087 7 -15865209.39546  20737001.391
  20736989.039          45.200          40.300
 -26303877.527 8 -19636039.88847  20437051.445
  20437041.613          48.700          42.500
  -7373113.994 6  -5134170.58143  24168792.938
  24168780.820          37.100          18.600
  -3364365.454 5  -1957670.01743  24457127.227
  24457118.918          32.300          20.400
 -22459857.799 7 -15469659.39945  21465103.242
  21465091.184          46.500          35.600
 -18120263.993 7 -15938441.90745  22067838.711
  22067827.531          45.300          35.900
 16  2 13  3  4 30.0000000  0 10G01G07G11G19G28G30G15G08G13G17
 -11034090.732 6  -8309009.70743  23754950.164
  23754941.328          36.000          22.000
 -21343047.416 7 -15938927.42245  21839925.813
  21839914.047          44.900          35.600
 -14894363.868 7  -9056077.94444  22681477.117
  22681464.121          42.900          27.700
 -11794596.523 6  -8392099.57044  23714241.734
  23714230.086          36.400          25.300
 -21701834.626 7 -15865692.91946  20736883.203
  20736870.852          45.400          40.100
 -26276574.374 8 -19614764.69747  20442247.125
  20442237.234          48.600          43.000
  -7446280.063 6  -5191183.06043  24154869.234
  24154858.172          38.600          19.300
 -36347687.70614 -27658960.12253  24476249.016
  24476243.344          29.400          18.600
 -22492225.961 7 -15494881.33246  21458943.680
  21458931.621          46.100          36.500
 -18203640.118 7 -16003410.27346  22051972.742
  22051961.328          45.400          36.300
 16  2 13  3  5  0.0000000  0  9G01G07G11G19G28G30G15G13G17
 -11093233.206 5  -8355094.68843  23743695.695
  23743686.684          35.200          22.200
 -21271265.869 7 -15882993.74945  21853585.836
  21853573.660          45.400          34.300
 -14904165.321 7  -9063715.42844  22679610.750
  22679598.457          42.800          26.800
 -11913971.451 6  -8485118.95443  23691526.828
  23691513.012          38.600          22.900
 -21702209.987 7 -15865985.40046  20736811.758
  20736799.172          45.700          39.800
 -26248881.689 8 -19593185.97447  20447516.719
  20447507.063          48.600          43.000
  -7519048.534 6  -5247885.70243  24141022.313
  24141010.254          39.000          21.700
 -22523993.317 7 -15519635.09445  21452898.164
  21452886.398          46.100          35.900
 -18286668.992 7 -16068108.04946  22036173.172
  22036161.348          45.400          36.800
 16  2 13  3  5 30.0000000  0  9G01G07G11G19G28G30G15G13G17
 -11151992.925 5  -8400881.44043  23732513.234
  23732504.574          35.000          20.400
 -21199167.752 7 -15826813.41145  21867304.367
  21867293.070          43.900          34.000
 -14913374.727 7  -9070891.57144  22677858.914
  22677846.270          42.900          27.400
 -12033197.012 6  -8578021.94943  23668837.617
  23668824.563          36.900          22.800
 -21702337.286 7 -15866084.57846  20736788.016
  20736775.430          45.400          39.300
 -26220795.259 8 -19571300.44047  20452861.234
  20452851.813          49.300          43.300
  -7591413.485 6  -5304273.93743  24127252.492
  24127240.199          38.800          20.900
 -22555154.826 7 -15543916.77246  21446968.594
  21446956.535          46.400          36.300
 -18369344.831 7 -16132530.74046  22020440.016
  22020428.543          46.700          36.900
 16  2 13  3  6  0.0000000  0  9G01G07G11G19G28G30G15G13G17
 -11210367.256 5  -8446367.89143  23721405.492
  23721396.539          35.200          21.700
 -21126752.902 7 -15770386.26645  21881084.570
  21881072.922          44.500          34.200
 -14921991.171 7  -9077605.67444  22676219.336
  22676206.281          43.500          25.800
 -12152270.358 6  -8670806.34143  23646179.242
  23646165.836          36.900          22.500
 -21702217.602 7 -15865991.31746  20736810.719
  20736798.309          46.100          39.400
 -26192314.939 8 -19549107.98047  20458280.906
  20458271.250          48.500          42.800
  -7663372.770 6  -5360346.02543  24113558.539
  24113546.949          38.700          20.600
 -22585709.490 7 -15567725.57845  21441154.617
  21441142.266          45.800          35.500
 -18451665.828 7 -16196676.93546  22004774.859
  22004763.504          45.700          36.600
 16  2 13  3  6 30.0000000  0 10G01G07G11G19G28G30G15G08G13G17
 -11268358.262 5  -8491555.61643  23710370.234
  23710361.457          34.600          21.700
 -21054027.075 7 -15713716.80645  21894924.711
  21894912.418          44.100          34.000
 -14930018.904 7  -9083861.03244  22674691.203
  22674678.676          42.800          27.000
 -12271193.895 6  -8763473.97244  23623548.992
  23623535.703          37.300          24.900
 -21701856.393 7 -15865709.83346  20736879.672
  20736866.441          45.500          39.700
 -26163445.435 8 -19526612.26247  20463774.898
  20463765.066          49.300          42.600
  -7734929.218 6  -5416104.24743  24099941.477
  24099930.180          39.900          22.500
    589559.659 6 -27427057.40652  24553088.992
  24553079.629          36.100          17.400
 -22615660.935 7 -15591064.35445  21435454.852
  21435442.617          45.800          35.700
 -18533634.883 7 -16260548.88845  21989177.406
  21989165.055          45.800          35.900
 16  2 13  3  7  0.0000000  0 10G01G07G11G19G28G30G15G08G13G17
 -11325953.288 5  -8536434.81243  23699409.945
  23699401.168          34.600          21.700
 -20980981.170 7 -15656797.93345  21908824.391
  21908812.391          44.500          33.300
 -14937446.903 7  -9089649.07344  22673277.570
  22673265.395          42.400          26.400
 -12389955.018 6  -8856015.03744  23600948.719
  23600936.602          38.100          25.400
 -21701244.747 7 -15865233.21446  20736995.383
  20736983.207          46.200          40.200
 -26134176.510 8 -19503805.29747  20469344.023
  20469334.777          49.200          42.600
  -7806070.519 6  -5471538.95643  24086403.477
  24086392.473          37.500          21.300
    690945.859 6 -27348055.19143  24572382.875
  24572372.984          38.600          19.000
 -22644998.081 7 -15613924.44945  21429871.953
  21429860.012          46.800          35.800
 -18615239.567 7 -16324136.92546  21973648.242
  21973636.535          46.100          36.500
 16  2 13  3  7 30.0000000  0 10G01G07G11G19G28G30G15G08G13G17
 -11383153.902 5  -8581006.64343  23688524.688
  23688516.555          33.800          21.100
 -20907620.164 7 -15599633.52445  21922784.352
  21922772.938          44.500          33.400
 -14944278.933 7  -9094972.72944  22671977.656
  22671964.953          42.200          27.200
 -12508555.107 6  -8948430.65644  23578379.836
  23578367.719          38.700          25.300
 -21700388.208 7 -15864565.76646  20737158.977
  20737145.688          46.600          39.800
 -26104512.356 8 -19480690.36247  20474989.242
  20474979.527          49.100          42.600
  -7876799.083 6  -5526652.05943  24072944.297
  24072932.180          37.700          22.200
    792503.953 6 -27268919.01843  24591708.805
  24591698.328          39.200          19.000
 -22673723.561 7 -15636307.92745  21424405.906
  21424393.789          46.100          35.600
 -18696482.893 7 -16387443.38646  21958187.508
  21958175.859          45.700          37.000
 16  2 13  3  8  0.0000000  0 10G01G07G11G19G28G30G15G08G13G17
 -11439957.845 5  -8625269.42443  23677714.594
  23677707.574          34.700          20.400
 -20833945.426 7 -15542224.65845  21936804.367
  21936792.660          44.100          33.200
 -14950515.351 7  -9099832.26544  22670790.672
  22670778.496          42.500          25.500
 -12626992.229 6  -9040719.28644  23555842.281
  23555829.754          38.100          26.400
 -21699287.858 7 -15863708.35346  20737368.258
  20737355.906          46.700          40.300
 -26074453.309 8 -19457267.72347  20480709.461
  20480699.746          48.900          42.500
  -7947113.294 6  -5581442.29443  24059564.219
  24059552.219          38.900          22.200
    894230.393 6 -27189651.67242  24611066.297
  24611056.406          37.900          16.900
 -22701837.195 7 -15658214.64346  21419055.867
  21419043.926          45.000          36.500
 -18777363.850 7 -16450467.47346  21942796.383
  21942785.262          46.400          37.600
 16  2 13  3  8 30.0000000  0 10G01G07G11G19G28G30G15G08G13G17
 -11496362.671 5  -8669221.18143  23666981.992
  23666973.508          35.000          20.600
 -20759957.526 7 -15484571.75445  21950883.633
  21950872.277          44.900          33.600
 -14956154.425 7  -9104226.32944  22669717.625
  22669704.629          42.100          26.700
 -12745263.833 6  -9132878.92544  23533336.141
  23533323.320          37.000          25.600
 -21697944.721 7 -15862661.73146  20737623.195
  20737610.785          46.200          40.400
 -26043999.336 8 -19433537.35747  20486504.648
  20486494.699          49.100          42.900
  -8017011.266 6  -5635908.21643  24046262.641
  24046251.285          38.400          22.000
    996122.728 6 -27110255.04642  24630456.508
  24630446.793          36.700          15.600
 -22729337.691 7 -15679643.57945  21413822.242
  21413810.652          45.500          35.700
 -18857879.931 7 -16513207.24546  21927475.258
  21927463.375          46.600          37.600
 16  2 13  3  9  0.0000000  0 10G01G07G11G19G28G30G15G08G13G17
 -11552364.933 5  -8712859.25943  23656325.133
  23656316.180          35.100          21.700
 -20685656.799 7 -15426675.09845  21965022.680
  21965011.383          44.300          33.800
 -14961195.508 7  -9108154.43944  22668757.773
  22668746.008          42.600          25.900
 -12863367.036 6  -9224907.31044  23510861.805
  23510849.395          38.100          25.700
 -21696359.357 7 -15861426.37646  20737925.469
  20737912.707          45.900          40.100
 -26013149.587 8 -19409498.59047  20492374.805
  20492365.090          48.600          42.700
  -8086490.305 6  -5690047.66243  24033041.609
  24033030.547          38.800          22.800
   1098178.559 5                  24649875.977
                        35.600
 -22756223.501 7 -15700593.54546  21408706.320
  21408694.438          44.500          36.200
 -18938028.535 7 -16575660.68446  21912222.953
  21912211.832          46.400          37.000
 16  2 13  3  9 30.0000000  0 10G01G07G11G19G28G30G15G08G13G17
 -11607960.704 6  -8756180.58543  23645745.617
  23645736.547          36.500          20.600
 -20611042.340 7 -15368533.97745  21979221.484
  21979209.953          45.000          34.000
 -14965636.553 7  -9111614.97444  22667913.727
  22667900.262          42.600          26.700
 -12981296.944 6  -9316800.70843  23488419.680
  23488407.328          37.800          23.000
 -21694531.131 7 -15860001.77346  20738272.813
  20738260.520          45.800          39.900
 -25981902.696 8 -19385150.35647  20498320.906
  20498311.367          49.100          42.800
  -8155546.710 6  -5743857.83643  24019900.828
  24019888.242          39.100          21.800
   1200397.329 5                  24669328.570
                        35.300
 -22782492.587 7 -15721062.95846  21403707.508
  21403695.859          45.800          36.700
 -19017806.965 7 -16637825.67246  21897042.031
  21897030.266          46.600          37.400
 16  2 13  3 10  0.0000000  0 10G01G07G11G19G28G30G15G08G13G17
 -11663153.399 6  -8799187.83743  23635242.578
  23635233.742          36.200          21.100
 -20536121.070 7 -15310153.77645  21993478.484
  21993466.484          44.600          33.800
 -14969483.062 6  -9114612.23344  22667181.133
  22667168.020          41.800          25.500
 -13099057.181 6  -9408561.92044  23466010.586
  23465998.117          38.500          25.500
 -21692466.981 7 -15858393.33146  20738666.047
  20738652.992          45.800          40.100
 -25950264.639 8 -19360497.32747  20504341.711
  20504331.996          48.800          42.800
  -8224184.773 6  -5797341.99643  24006838.813
  24006827.750          38.300          21.300
   1302769.946 6 -26934055.89643  24688808.992
  24688798.223          36.800          19.600
 -22808149.796 7 -15741055.57246  21398825.156
  21398813.039          45.600          36.000
 -19097219.487 7 -16699705.51346  21881930.352
  21881918.527          46.400          37.000
 16  2 13  3 10 30.0000000  0 10G01G07G11G19G28G30G15G08G13G17
 -11717933.102 6  -8841873.30443  23624818.703
  23624810.043          37.300          22.600
 -20460886.425 7 -15251529.39845  22007795.297
  22007783.590          44.900          33.000
 -14972726.771 6  -9117139.78744  22666563.742
  22666550.922          41.100          25.300
 -13216638.195 6  -9500183.44544  23443636.906
  23443623.266          39.400          24.900
 -21690160.525 7 -15856596.08246  20739104.688
  20739092.043          45.800          39.800
 -25918227.918 8 -19335533.64447  20510438.141
  20510428.250          49.000          42.900
  -8292394.922 6  -5850492.69443  23993859.906
  23993847.320          38.800          23.200
   1405301.131 6 -26854161.48543  24708320.445
  24708309.852          37.000          22.300
 -22833186.401 7 -15760564.60345  21394060.789
  21394048.496          46.000          35.900
 -19176256.872 7 -16761293.06346  21866889.594
  21866878.238          47.000          37.900
 16  2 13  3 11  0.0000000  0 10G01G07G11G19G28G30G15G08G13G17
 -11772300.073 6  -8884237.16243  23614472.758
  23614464.039          37.000          21.800
 -20385342.412 7 -15192663.94745  22022171.156
  22022158.805          45.200          32.300
 -14975370.390 7  -9119199.74644  22666060.953
  22666048.309          42.100          26.100
 -13334040.130 6  -9591665.43144  23421295.906
  23421282.793          40.200          26.900
 -21687615.940 7 -15854613.27646  20739588.563
  20739575.918          46.000          40.300
 -25885795.377 8 -19310261.54047  20516609.906
  20516600.250          49.500          43.300
  -8360178.223 6  -5903310.80043  23980959.703
  23980949.109          37.900          21.100
   1507985.757 5 -26774147.48643  24727860.703
  24727850.344          35.000          20.100
 -22857604.993 7 -15779592.06346  21389413.984
  21389401.867          46.100          36.800
 -19254920.158 7 -16822589.09146  21851920.555
  21851908.672          47.300          37.000
 16  2 13  3 11 30.0000000  0 10G01G07G11G19G28G30G15G08G13G17
 -11826251.431 6  -8926277.12943  23604205.391
  23604197.844          37.200          23.200
 -20309489.050 7 -15133557.46345  22036605.188
  22036593.539          44.600          32.400
 -14977412.989 7  -9120791.36344  22665672.586
  22665659.824          42.000          26.800
 -13451259.875 6  -9683005.44944  23398989.430
  23398976.668          39.800          27.400
 -21684833.807 7 -15852445.37146  20740118.656
  20740106.129          46.700          39.800
 -25852966.623 8 -19284680.69447  20522856.609
  20522847.188          49.200          43.000
  -8427532.355 6  -5955794.51043  23968143.414
  23968131.531          38.000          22.300
   1610821.346 5 -26694015.90442  24747430.563
  24747418.621          31.000          17.400
 -22881403.945 7 -15798136.68946  21384885.289
  21384873.055          46.400          36.200
 -19333207.073 7 -16883591.84446  21837023.414
  21837011.063          47.500          37.600
 16  2 13  3 12  0.0000000  0  9G01G07G11G19G28G30G15G13G17
 -11879776.957 6  -8967985.31843  23594020.688
  23594012.145          37.000          21.800
 -20233319.689 7 -15074204.73645  22051100.125
  22051088.594          44.800          32.900
 -14978846.749 7  -9121908.56544  22665399.602
  22665387.133          42.600          27.000
 -13568287.309 6  -9774195.61444  23376719.633
  23376706.930          40.000          27.300
 -21681807.045 7 -15850086.85246  20740694.391
  20740681.688          46.800          40.000
 -25819733.928 8 -19258785.08547  20529180.438
  20529171.133          48.800          43.500
  -8494447.844 6  -6007936.41543  23955410.695
  23955398.051          38.300          22.800
 -22904574.785 7 -15816191.88246  21380476.102
  21380464.219          45.600          36.000
 -19411108.460 7 -16944294.18346  21822198.813
  21822187.223          46.800          37.300
 16  2 13  3 12 30.0000000  0  9G01G07G11G19G28G30G15G13G17
 -11932888.351 6  -9009370.77743  23583913.977
  23583904.906          37.100          22.000
 -20156849.378 7 -15014617.49145  22065651.758
  22065640.285          44.900          33.100
 -14979685.436 6  -9122562.06444  22665239.164
  22665227.281          41.500          26.400
 -13685133.894 6  -9865244.84244  23354484.234
  23354471.531          40.400          27.000
 -21678551.142 7 -15847549.77546  20741313.820
  20741301.234          46.900          39.800
 -25786111.605 8 -19232585.87147  20535578.758
  20535569.453          49.100          42.900
  -8560936.981 6  -6059746.09143  23942756.477
  23942745.941          36.800          21.300
 -22927130.809 7 -15833767.98646  21376184.148
  21376171.797          46.600          36.100
 -19488636.774 7 -17004705.83246  21807445.961
  21807434.430          47.800          38.200
 16  2 13  3 13  0.0000000  0 10G01G07G11G19G28G30G15G08G13G17
 -11985580.927 6  -9050429.87443  23573887.070
  23573877.883          38.500          22.900
 -20080076.866 7 -14954794.77045  22080261.148
  22080249.559          44.300          33.200
 -14979925.958 7  -9122749.48344  22665194.453
  22665181.574          42.100          27.300
 -13801795.070 6  -9956149.62244  23332285.086
  23332271.094          40.500          26.200
 -21675064.831 7 -15844833.15546  20741977.578
  20741965.109          46.700          39.200
 -25752097.425 8 -19206081.31547  20542051.609
  20542041.836          49.000          42.900
  -8626995.507 6  -6111220.21243  23930187.156
  23930174.863          38.900          21.800
   -155667.535 5 -27750460.66952  24806303.406
  24806292.988          35.200          17.800
 -22949068.743 7 -15850862.47546  21372009.063
  21371996.711          46.400          36.300
 -19565788.215 7 -17064823.80146  21792764.023
  21792752.551          47.000          37.800
 16  2 13  3 13 30.0000000  0 10G01G07G11G19G28G30G15G08G13G17
 -12037841.942 6  -9091152.70643  23563941.117
  23563932.867          37.300          22.200
 -20002992.824 7 -14894729.29445  22094929.805
  22094918.215          44.100          33.000
 -14979558.122 6  -9122462.84244  22665264.289
  22665251.469          41.200          26.900
 -13918257.814 6 -10046899.78044  23310122.125
  23310108.895          40.700          26.600
 -21671338.841 7 -15841929.77746  20742686.867
  20742673.695          47.000          39.500
 -25717681.129 8 -19179263.43047  20548600.820
  20548591.047          49.000          42.700
  -8692611.417 6  -6162349.44743  23917700.406
  23917688.758          38.600          22.600
    -52251.120 6 -27669876.37142  24825983.055
  24825973.750          37.100          17.400
 -22970378.537 7 -15867467.50346  21367953.742
  21367941.859          46.800          36.000
 -19642550.735 7 -17124638.71646  21778156.813
  21778145.223          46.900          37.900
 16  2 13  3 14  0.0000000  0 10G01G07G11G19G28G30G15G08G13G17
 -12089673.685 6  -9131541.05343  23554078.234
  23554069.574          37.400          22.600
 -19925602.756 7 -14834425.36945  22109656.375
  22109644.961          43.900          32.700
 -14978586.067 7  -9121705.38644  22665450.148
  22665436.859          42.700          27.400
 -14034524.337 6 -10137497.03944  23287997.969
  23287984.855          40.200          27.300
 -21667378.810 7 -15838844.02846  20743439.734
  20743427.324          46.000          39.600
 -25682867.507 8 -19152135.93347  20555225.781
  20555216.535          49.300          42.900
  -8757787.600 6  -6213136.01543  23905298.805
  23905286.277          38.700          22.300
     51304.400 6 -27589183.67742  24845689.594
  24845680.758          36.900          17.800
 -22991063.769 7 -15883585.86046  21364017.508
  21364005.508          47.300          36.600
 -19718927.387 7 -17184152.96646  21763622.938
  21763610.879          47.700          38.000
 16  2 13  3 14 30.0000000  0 10G01G07G11G19G28G30G15G08G13G17
 -12141074.166 6  -9171593.34443  23544297.305
  23544288.820          36.900          22.800
 -19847908.086 7 -14773884.09545  22124441.156
  22124430.152          43.400          33.700
 -14977010.186 6  -9120477.41744  22665748.906
  22665736.789          41.400          27.900
 -14150592.666 6 -10227939.85944  23265910.289
  23265897.527          40.800          26.900
 -21663186.394 7 -15835577.20346  20744237.781
  20744225.137          45.700          39.600
 -25647657.118 8 -19124699.26547  20561925.867
  20561916.094          48.900          42.200
  -8822522.593 6  -6263578.86243  23892979.281
  23892966.637          37.000          20.600
    154996.031 5 -27508385.00943  24865421.203
  24865412.367          34.700          18.600
 -23011123.745 7 -15899217.00446  21360200.555
  21360188.555          47.600          36.100
 -19794916.951 7 -17243365.57946  21749162.578
  21749150.520          47.400          37.400
 16  2 13  3 15  0.0000000  0 10G01G07G11G19G28G30G15G08G13G17
 -12192040.548 6  -9211307.40043  23534599.031
  23534590.078          38.200          22.200
 -19769909.387 7 -14713105.90645  22139283.563
  22139272.383          43.300          33.500
 -14974829.732 6  -9118778.36244  22666164.391
  22666151.863          41.900          28.600
 -14266459.604 6 -10318225.74044  23243860.953
  23243848.250          39.500          27.200
 -21658762.176 7 -15832129.76346  20745079.320
  20745066.852          45.700          39.500
 -25612049.513 8 -19096953.07747  20568701.594
  20568692.113          49.200          42.600
  -8886814.122 6  -6313676.10243  23880744.406
  23880733.168          38.400          22.300
    258822.069 5 -27427481.63242  24885179.219
  24885169.973          33.200          17.800
 -23030557.933 7 -15914360.51946  21356502.281
  21356490.105          47.200          36.400
 -19870517.417 7 -17302275.00346  21734776.133
  21734764.250          47.300          38.200
 16  2 13  3 15 30.0000000  0 10G01G07G11G19G28G30G15G08G13G17
 -12242568.168 6  -9250679.55243  23524983.164
  23524974.914          37.600          22.900
 -19691605.300 7 -14652089.74645  22154184.516
  22154172.516          44.000          32.300
 -14972042.343 6  -9116606.37644  22666694.742
  22666682.449          39.800          26.700
 -14382120.420 6 -10408350.99844  23221851.852
  23221839.266          39.700          26.800
 -21654104.692 7 -15828500.53646  20745966.258
  20745953.262          45.800          40.100
 -25576042.638 8 -19068895.76447  20575553.719
  20575543.887          49.000          42.500
  -8950658.040 6  -6363424.57343  23868594.859
  23868583.504          40.100          23.000
    362781.598 5 -27346474.29242  24904962.234
  24904952.344          31.300          17.400
 -23049363.218 7 -15929013.98346  21352923.398
  21352911.457          46.400          36.800
 -19945725.065 7 -17360878.31646  21720464.484
  21720452.777          47.000          38.300
 16  2 13  3 16  0.0000000  0 10G01G07G11G19G28G30G15G08G13G17
 -12292660.261 6  -9289712.32043  23515451.461
  23515442.508          37.100          23.600
 -19613002.366 7 -14590840.74145  22169142.633
  22169130.867          43.900          32.500
 -14968653.349 6  -9113965.58844  22667339.672
  22667326.500          40.900          27.300
 -14497578.277 6 -10498318.10144  23199881.750
  23199868.520          40.900          28.900
 -21649220.718 7 -15824694.82346  20746895.469
  20746883.117          46.000          39.800
 -25539642.068 8 -19040531.69847  20582480.367
  20582470.242          48.800          42.200
  -9014058.321 6  -6412827.36143  23856530.398
  23856518.867          39.100          22.600
    466866.568 5 -27265369.16142  24924768.609
  24924759.598          33.700          17.800
 -23067544.386 7 -15943181.12646  21349463.906
  21349452.141          47.300          36.800
 -20020543.409 7 -17419178.29246  21706226.820
  21706215.465          47.300          38.300
 16  2 13  3 16 30.0000000  0 10G01G07G11G19G28G30G15G08G13G17
 -12342308.324 6  -9328399.10043  23506002.953
  23505994.820          37.200          22.500
 -19534095.499 7 -14529354.89645  22184158.523
  22184146.289          42.500          32.600
 -14964656.534 6  -9110851.18144  22668100.164
  22668087.813          40.600          28.000
 -14612824.574 6 -10588120.39744  23177950.883
  23177937.184          40.900          27.300
 -21644105.266 7 -15820708.74346  20747868.555
  20747856.086          46.200          39.700
 -25502841.934 8 -19011856.26247  20589483.492
  20589473.602          49.000          42.400
  -9077007.015 6  -6461878.25343  23844551.906
  23844540.199          38.100          22.300
    571080.550 6 -27184163.50743  24944599.297
  24944590.520          37.700          19.600
 -23085094.991 7 -15956856.91846  21346124.383
  21346111.914          47.100          36.800
 -20094965.450 7 -17477169.46046  21692064.727
  21692053.195          46.900          38.400
 16  2 13  3 17  0.0000000  0 10G01G07G11G19G28G30G15G08G13G17
 -12391511.790 6  -9366739.44643  23496639.625
  23496631.902          37.600          23.500
 -19454887.371 7 -14467634.31645  22199230.813
  22199219.340          43.100          32.100
 -14960053.629 6  -9107264.46844  22668976.242
  22668963.129          41.700          26.200
 -14727858.359 6 -10677757.07444  23156060.727
  23156047.027          40.800          29.000
 -21638760.844 7 -15816544.26046  20748885.391
  20748872.922          45.800          39.500
 -25465644.014 8 -18982870.88047  20596561.539
  20596552.059          48.300          42.300
  -9139504.201 6  -6510577.31543  23832658.336
  23832647.977          38.600          22.800
    675419.035 6 -27102860.79343  24964455.500
  24964445.551          38.300          19.000
 -23102015.873 7 -15970042.01846  21342903.891
  21342892.535          46.700          36.100
 -20168991.049 7 -17534851.69346  21677978.297
  21677967.059          46.300          38.500
 16  2 13  3 17 30.0000000  0 10G01G07G11G19G28G30G15G08G13G17
 -12440268.477 6  -9404731.65043  23487360.898
  23487353.586          37.300          22.500
 -19375378.982 7 -14405679.76145  22214360.711
  22214348.594          42.000          31.600
 -14954844.251 6  -9103205.23344  22669966.281
  22669953.988          40.200          26.500
 -14842676.996 6 -10767226.10844  23134211.445
  23134198.273          40.200          27.700
 -21633188.823 7 -15812202.41046  20749946.281
  20749933.402          45.300          39.900
 -25428048.655 8 -18953575.78846  20603715.797
  20603706.316          49.000          41.300
  -9201548.327 6  -6558923.40643  23820852.898
  23820840.371          39.500          22.800
    779879.782 6 -27021462.84143  24984334.008
  24984323.766          39.200          18.600
 -23118307.051 7 -15982736.44046  21339804.305
  21339791.895          47.100          36.500
 -20242618.933 7 -17592224.03846  21663967.375
  21663955.609          47.500          38.600
 16  2 13  3 18  0.0000000  0 10G01G07G11G19G28G30G15G08G13G17
 -12488575.316 6  -9442373.32043  23478169.836
  23478161.176          38.100          22.900
 -19295570.710 7 -14343491.52445  22229547.844
  22229536.195          42.600          32.300
 -14949027.294 6  -9098672.52144  22671073.969
  22671061.676          40.900          27.400
 -14957277.528 6 -10856525.21044  23112402.477
  23112390.125          40.400          27.000
 -21627389.347 7 -15807683.32846  20751049.961
  20751036.848          45.600          39.300
 -25390055.244 8 -18923970.54347  20610945.758
  20610936.512          48.800          42.800
  -9263136.722 6  -6606914.34844  23809133.313
  23809120.551          40.100          24.700
    884460.408 6                  25004233.953
                        38.100
 -23133967.405 7 -15994939.30346  21336823.789
  21336812.375          46.800          36.400
 -20315846.702 7 -17649284.61146  21650032.906
  21650021.023          46.900          39.100
 16  2 13  3 18 30.0000000  0 10G01G07G11G19G28G30G15G08G13G17
 -12536430.007 6  -9479662.65143  23469062.484
  23469054.293          38.000          23.000
 -19215463.493 7 -14281070.35045  22244791.609
  22244780.313          42.700          31.200
 -14942603.366 6  -9093666.86844  22672296.055
  22672283.938          41.100          25.900
 -15071657.547 6 -10945652.46444  23090637.602
  23090624.605          40.400          28.800
 -21621363.430 7 -15802987.78946  20752196.414
  20752183.477          45.500          39.800
 -25351663.897 8 -18894055.19947  20618251.484
  20618241.301          48.300          42.300
  -9324267.633 6  -6654548.77844  23797499.266
  23797488.145          38.200          24.700
    989158.492 5                  25024157.641
                        35.800
 -23148996.014 7 -16006649.90546  21333964.555
  21333952.262          47.000          36.200
 -20388672.663 7 -17706032.08246  21636174.320
  21636162.203          47.000          38.700
 16  2 13  3 19  0.0000000  0 10G01G07G11G19G28G30G15G08G13G17
 -12583830.324 6  -9516597.93143  23460043.570
  23460034.676          37.800          22.600
 -19135058.698 7 -14218417.30045  22260092.023
  22260080.316          42.600          31.400
 -14935572.427 6  -9088188.20444  22673634.406
  22673621.234          40.700          25.600
 -15185814.480 6 -11034605.89744  23068914.641
  23068901.059          39.900          29.100
 -21615112.016 7 -15798116.54246  20753385.984
  20753373.223          45.800          40.000
 -25312874.846 8 -18863829.96647  20625632.820
  20625623.047          48.600          42.100
  -9384939.517 6  -6701825.54044  23785954.336
  23785941.750          39.900          24.500
   1093971.205 5                  25044103.203
                        33.500
 -23163392.671 7 -16017868.08546  21331224.172
  21331212.816          47.000          36.900
 -20461095.679 7 -17762465.56646  21622392.641
  21622380.641          47.500          39.300
 16  2 13  3 19 30.0000000  0 10G01G07G11G19G28G30G15G08G13G17
 -12630774.117 6  -9553177.49043  23451109.719
  23451101.293          37.700          22.300
 -19054357.300 7 -14155533.13445  22275449.242
  22275437.359          42.800          31.100
 -14927934.597 6  -9082236.64344  22675087.539
  22675074.777          40.200          24.600
 -15299745.752 6 -11123383.46044  23047233.375
  23047220.379          41.200          28.700
 -21608636.504 7 -15793070.68346  20754617.984
  20754605.926          46.300          39.600
 -25273688.506 8 -18833295.17047  20633089.695
  20633079.395          48.800          42.100
  -9445150.878 6  -6748743.45944  23774496.234
  23774484.938          39.000          24.600
   1198896.123 5                  25064069.422
                        30.300
 -23177157.242 7 -16028593.72046  21328605.219
  21328592.750          47.000          37.000
 -20533114.421 7 -17818584.04246  21608687.930
  21608676.340          46.600          38.700
 16  2 13  3 20  0.0000000  0 10G01G07G11G19G28G30G15G08G13G17
 -12677250.592 6  -9589392.89943  23442265.297
  23442257.809          37.300          22.800
 -18973351.994 7 -14092412.13845  22290864.219
  22290852.102          42.900          31.400
 -14919681.353 6  -9075805.53444  22676658.023
  22676645.613          41.100          24.800
 -15413440.433 6 -11211976.67744  23025597.609
  23025585.375          40.500          28.400
 -21601929.119 7 -15787844.14646  20755894.555
  20755881.734          46.000          39.600
 -25234096.313 8 -18802444.10846  20640623.578
  20640614.508          48.300          41.400
  -9504891.319 6  -6795294.42943  23763128.148
  23763116.324          39.600          22.600
   1303939.871 4                  25084063.750
                        28.900
 -23190280.535 7 -16038819.65546  21326108.219
  21326096.102          47.100          36.900
 -20604718.662 7 -17874379.53046  21595061.703
  21595049.996          46.400          38.300
 16  2 13  3 20 30.0000000  0 10G01G07G11G19G28G30G15G08G13G17
 -12723282.188 6  -9625261.67543  23433505.734
  23433497.895          37.700          22.900
 -18892067.876 7 -14029073.91545  22306331.984
  22306319.926          42.900          30.400
 -14910837.620 6  -9068914.32344  22678340.547
  22678328.488          40.500          25.600
 -15526920.617 6 -11300402.78944  23004003.523
  23003990.352          41.100          28.100
 -21595015.499 7 -15782456.89846  20757209.859
  20757197.391          46.200          39.400
 -25194123.304 8 -18771296.30747  20648230.305
  20648220.941          48.800          42.500
  -9564183.933 6  -6841496.42943  23751845.227
  23751833.051          39.200          22.500
   1409074.261 5                  25104070.172
                        31.600
 -23202787.020 7 -16048564.96946  21323728.125
  21323716.066          47.400          36.500
 -20675931.590 7 -17929870.09146  21581510.281
  21581499.102          46.700          39.200
 16  2 13  3 21  0.0000000  0 10G01G07G11G19G28G30G15G08G13G17
 -12768840.381 6  -9660761.54343  23424836.742
  23424828.082          37.500          22.800
 -18810479.961 7 -13965498.95245  22321857.758
  22321845.992          42.400          30.400
 -14901376.629 6  -9061542.10244  22680140.898
  22680128.605          40.700          24.700
 -15640157.449 6 -11388639.23344  22982455.672
  22982441.855          41.800          28.900
 -21587870.476 7 -15776889.33946  20758569.875
  20758557.055          46.700          39.600
 -25153743.210 8 -18739831.30046  20655914.523
  20655904.457          48.900          41.500
  -9623000.780 6  -6887327.70144  23740653.602
  23740641.133          40.700          24.700
   1514323.568 5 -26632370.82753  25124095.086
  25124083.496          33.500          19.300
 -23214649.831 7 -16057808.71346  21321470.406
  21321458.934          47.500          36.800
 -20746725.413 7 -17985034.07546  21568039.000
  21568027.410          47.200          38.900
 16  2 13  3 21 30.0000000  0 10G01G07G11G19G28G30G15G08G13G17
 -12813929.843 6  -9695896.13643  23416256.438
  23416248.246          37.700          23.000
 -18728596.736 7 -13901693.86345  22337439.602
  22337427.777          42.600          31.000
 -14891305.735 6  -9053694.64444  22682057.875
  22682044.762          41.800          25.300
 -15753155.341 6 -11476689.49444  22960952.695
  22960938.879          41.700          28.500
 -21580501.994 7 -15771147.64846  20759972.227
  20759959.465          46.500          39.700
 -25112963.373 8 -18708054.80646  20663674.570
  20663664.680          48.500          41.800
  -9681347.067 6  -6932792.32444  23729550.188
  23729537.426          40.000          24.500
   1619678.208 5 -26550276.32343  25144141.969
  25144132.137          35.500          19.900
 -23225875.778 7 -16066556.20846  21319334.219
  21319322.395          47.200          36.800
 -20817106.005 7 -18039876.07246  21554645.484
  21554634.188          46.900          39.000
 16  2 13  3 22  0.0000000  0 10G01G07G11G19G28G30G15G08G13G17
 -12858553.528 6  -9730667.81343  23407764.594
  23407756.637          37.300          23.200
 -18646423.836 7 -13837663.07245  22353077.344
  22353065.051          42.400          31.100
 -14880630.115 6  -9045375.97243  22684089.523
  22684076.469          41.300          23.900
 -15865916.741 6 -11564555.47744  22939495.039
  22939481.574          41.400          29.300
 -21572915.985 7 -15765236.46246  20761415.461
  20761402.582          46.200          39.700
 -25071788.962 8 -18675970.86546  20671510.102
  20671500.270          48.900          41.500
  -9739226.285 6  -6977892.99543  23718535.555
  23718523.906          39.400          22.300
   1725130.636 6 -26468105.61443  25164209.047
  25164199.215          36.100          21.100
 -23236469.950 8 -16074811.40046  21317318.383
  21317306.324          48.000          36.700
 -20887076.602 7 -18094398.58646  21541331.133
  21541319.074          47.200          38.500
 16  2 13  3 22 30.0000000  0 10G01G07G11G19G28G30G15G08G13G17
 -12902703.317 6  -9765070.23043  23399363.031
  23399355.484          37.900          23.300
 -18563956.149 7 -13773402.56745  22368769.820
  22368757.879          42.300          30.800
 -14869343.721 6  -9036581.37644  22686237.383
  22686224.387          41.800          25.300
 -15978433.376 6 -11652230.74844  22918082.336
  22918070.277          40.800          29.000
 -21565106.922 7 -15759151.47546  20762901.516
  20762889.047          46.800          39.200
 -25030214.284 8 -18643575.01046  20679421.313
  20679411.129          49.200          41.200
  -9796630.795 6  -7022623.73344  23707612.234
  23707600.527          39.900          26.100
   1830684.313 6 -26385856.02143  25184295.125
  25184285.117          37.100          22.200
 -23246425.815 7 -16082569.20346  21315423.813
  21315412.047          47.700          37.000
 -20956629.447 7 -18148595.58546  21528095.328
  21528083.973          47.600          39.100
 16  2 13  3 23  0.0000000  0 10G01G07G11G19G28G30G15G08G13G17
 -12946379.558 6  -9799103.63143  23391051.906
  23391043.832          38.100          23.900
 -18481197.705 7 -13708915.50745  22384518.117
  22384506.352          42.000          31.100
 -14857449.485 6  -9027313.12944  22688500.680
  22688487.977          41.400          26.500
 -16090704.869 6 -11739715.01244  22896718.109
  22896705.699          41.400          29.700
 -21557079.424 7 -15752896.27846  20764429.000
  20764416.473          46.700          39.900
 -24988242.119 8 -18610869.43447  20687408.406
  20687398.633          49.300          42.600
  -9853561.509 6  -7066985.29643  23696777.734
  23696766.848          38.500          23.900
   1936334.176 6 -26303531.44543  25204399.141
  25204389.660          37.400          22.300
 -23255745.542 8 -16089831.33146  21313649.898
  21313638.484          48.000          36.800
 -21025766.618 7 -18202468.70346  21514938.961
  21514927.313          47.800          39.400
 16  2 13  3 23 30.0000000  0 10G01G07G11G19G28G30G15G08G13G17
 -12989580.565 6  -9832766.73543  23382831.172
  23382822.922          38.600          22.800
 -18398149.961 7 -13644203.00045  22400321.992
  22400309.758          43.100          30.500
 -14844947.818 6  -9017571.56844  22690879.805
  22690866.809          41.800          26.600
 -16202729.710 7 -11827007.05545  22875402.203
  22875388.563          42.900          30.300
 -21548834.504 7 -15746471.65346  20765998.500
  20765985.445          46.800          40.500
 -24945873.174 8 -18577854.66847  20695471.070
  20695461.297          49.400          42.000
  -9910017.365 6  -7110976.82643  23686034.969
  23686023.320          38.700          23.900
   2042077.297 6 -26221134.23043  25224521.813
  25224512.039          38.200          22.600
 -23264429.240 7 -16096597.84946  21311998.203
  21311985.910          47.800          37.000
 -21094486.954 7 -18256016.99446  21501861.945
  21501850.297          47.300          39.000
 16  2 13  3 24  0.0000000  0 10G01G07G11G19G28G30G15G08G13G17
 -13032302.975 6  -9866056.89044  23374701.180
  23374692.930          37.700          24.200
 -18314812.944 7 -13579265.10844  22416180.164
  22416168.516          42.500          29.900
 -14831838.186 7  -9007356.25144  22693374.016
  22693361.781          42.300          25.500
 -16314504.195 7 -11914103.99345  22854131.211
  22854118.391          42.500          30.000
 -21540371.560 7 -15739877.14246  20767608.563
  20767595.859          46.900          40.100
 -24903106.447 8 -18544529.94346  20703608.859
  20703599.438          49.500          41.800
  -9965995.706 6  -7154596.22944  23675382.703
  23675371.289          39.600          24.700
   2147912.361 6 -26138665.34343  25244660.344
  25244651.801          37.000          22.500
 -23272476.000 7 -16102868.04946  21310466.859
  21310454.742          47.500          37.100
 -21162787.513 7 -18309238.18146  21488864.344
  21488852.813          47.600          39.500
 16  2 13  3 24 30.0000000  0 10G01G07G11G19G28G30G15G08G13G17
 -13074544.528 6  -9898972.35244  23366662.563
  23366654.605          37.900          24.400
 -18231187.334 7 -13514102.33845  22432094.156
  22432081.512          43.000          30.500
 -14818120.478 7  -8996667.13144  22695984.781
  22695971.902          42.200          26.000
 -16426025.271 6 -12001003.50345  22832908.578
  22832896.402          41.300          30.000
 -21531691.485 7 -15733113.44446  20769259.977
  20769247.273          47.200          40.000
 -24859942.114 8 -18510895.39046  20711822.852
  20711813.137          49.300          41.800
 -10021494.784 6  -7197842.27844  23664821.633
  23664809.633          40.400          25.600
   2253837.247 6 -26056126.47643  25264817.914
  25264808.609          37.200          21.500
 -23279885.444 7 -16108641.63646  21309056.836
  21309044.777          47.100          36.600
 -21230666.636 7 -18362130.97946  21475947.602
  21475935.895          47.600          39.200
 16  2 13  3 25  0.0000000  0 10G01G07G11G19G28G30G15G08G13G17
 -13116303.067 6  -9931511.46344  23358716.406
  23358708.332          38.300          24.500
 -18147274.289 7 -13448715.58445  22448062.336
  22448049.867          42.800          30.900
 -14803795.312 6  -8985504.63444  22698710.570
  22698697.223          41.500          24.800
 -16537290.338 6 -12087703.56845  22811735.367
  22811723.250          41.400          30.400
 -21522795.279 7 -15726181.33746  20770953.109
  20770940.523          46.200          39.400
 -24816380.341 8 -18476951.16346  20720112.625
  20720103.086          49.700          41.900
 -10076513.004 6  -7240713.56744  23654351.188
  23654340.125          39.300          25.800
   2359849.585 6 -25973519.47043  25284990.469
  25284982.277          36.200          20.400
 -23286657.034 7 -16113918.19446  21307767.711
  21307756.004          47.000          37.100
 -21298123.047 7 -18414694.37946  21463111.266
  21463099.734          47.700          40.100
 16  2 13  3 25 30.0000000  0 10G01G07G11G19G28G30G15G08G13G17
 -13157576.889 6  -9963672.86744  23350862.148
  23350854.367          37.700          26.200
 -18063075.162 7 -13383105.90045  22464084.336
  22464072.570          42.200          30.000
 -14788862.746 7  -8973868.86844  22701552.984
  22701539.695          42.500          25.900
 -16648297.522 7 -12174202.63745  22790613.305
  22790599.488          43.300          30.400
 -21513684.292 7 -15719081.86246  20772687.297
  20772674.242          47.200          39.800
 -24772421.776 8 -18442697.73346  20728477.539
  20728468.000          49.500          41.900
 -10131049.003 6  -7283209.11044  23643973.930
  23643961.871          40.500          25.100
   2465946.427 5 -25890846.62243  25305180.898
  25305172.004          35.400          21.100
 -23292791.071 7 -16118697.96446  21306600.594
  21306588.945          47.200          37.000
 -21365156.021 7 -18466927.84246  21450355.578
  21450344.164          47.900          40.700
 16  2 13  3 26  0.0000000  0 10G01G07G11G19G28G30G15G08G13G17
 -13198363.756 6  -9995454.82243  23343101.453
  23343092.734          39.400          23.900
 -17978591.010 7 -13317274.13745  22480161.313
  22480149.371          42.000          30.400
 -14773322.929 6  -8961759.92144  22704508.242
  22704497.004          40.400          26.400
 -16759044.056 7 -12260498.61945  22769538.023
  22769525.145          42.500          30.000
 -21504359.455 7 -15711815.73846  20774461.313
  20774448.727          47.200          40.200
 -24728066.600 8 -18408135.25146  20736918.133
  20736908.945          48.700          41.700
 -10185101.056 6  -7325327.59744  23633688.508
  23633676.039          39.400          25.500
   2572125.244 5 -25808109.87542  25325385.328
  25325377.137          34.500          17.800
 -23298287.475 7 -16122980.87046  21305554.836
  21305542.602          47.200          37.100
 -21431764.088 7 -18518830.20346  21437680.070
  21437668.363          47.500          39.700
 16  2 13  3 26 30.0000000  0 10G01G07G11G19G28G30G15G08G13G17
 -13238658.548 6 -10026853.33243  23335433.094
  23335424.258          37.900          23.800
 -17893819.837 7 -13251218.71445  22496292.648
  22496280.941          42.800          30.000
 -14757173.301 7  -8949175.79244  22707583.141
  22707570.086          42.100          25.600
 -16869524.169 6 -12346587.01945  22748513.125
  22748501.301          41.800          31.600
 -21494818.565 7 -15704381.26646  20776277.188
  20776264.367          46.900          39.900
 -24683311.996 8 -18373261.53946  20745434.813
  20745424.863          49.300          41.500
 -10238664.821 6  -7367065.53444  23623495.227
  23623484.105          39.900          25.400
   2678386.853 5 -25725308.60442  25345607.211
  25345598.668          33.900          16.300
 -23303143.401 7 -16126764.70346  21304630.773
  21304618.891          46.500          36.400
 -21497942.617 7 -18570397.85746  21425086.852
  21425075.086          47.200          39.800
 16  2 13  3 27  0.0000000  0 10G01G07G11G19G28G30G15G08G13G17
 -13278465.038 6 -10057871.35344  23327858.359
  23327849.582          38.500          25.100
 -17808768.951 7 -13184945.32244  22512477.258
  22512465.668          42.000          29.900
 -14740420.233 6  -8936121.44044  22710770.313
  22710757.727          40.900          25.900
 -16979741.801 6 -12432470.86745  22727539.984
  22727527.340          41.700          30.400
 -21485068.401 7 -15696783.72346  20778131.977
  20778119.391          46.500          39.700
 -24638164.017 8 -18338081.29646  20754026.133
  20754016.418          49.500          41.500
 -10291744.559 6  -7408426.33443  23613394.719
  23613383.012          39.300          23.500
   2784723.451 5 -25642448.96142  25365841.328
  25365834.133          33.300          15.600
 -23307364.171 7 -16130053.60946  21303827.508
  21303815.859          46.900          37.000
 -21563696.237 7 -18621634.40946  21412573.977
  21412562.504          47.000          39.400
 16  2 13  3 27 30.0000000  0 10G01G07G11G19G28G30G15G08G13G17
 -13317776.086 6 -10088503.29243  23320377.586
  23320368.750          39.000          22.900
 -17723433.970 7 -13118450.56245  22528716.352
  22528704.469          42.400          30.200
 -14723058.999 6  -8922593.20644  22714074.727
  22714061.613          40.400          26.700
 -17089688.522 7 -12518143.60245  22706618.406
  22706605.469          43.000          31.200
 -21475104.390 7 -15689019.54746  20780028.406
  20780015.762          47.200          39.400
 -24592617.955 8 -18302590.85746  20762692.969
  20762683.664          48.900          41.500
 -10344333.518 6  -7449404.73644  23603387.273
  23603375.625          40.700          27.900
   2891137.611 5 -25559528.82142  25386092.055
  25386085.563          32.500          14.800
 -23310944.862 7 -16132843.75946  21303146.703
  21303134.234          47.300          37.700
 -21629018.217 7 -18672534.62546  21400143.945
  21400132.180          47.800          40.000
 16  2 13  3 28  0.0000000  0 10G01G07G11G19G28G30G15G08G13G17
 -13356582.787 6 -10118742.25544  23312992.922
  23312983.910          39.700          24.700
 -17637808.939 6 -13051729.79045  22545010.133
  22544998.074          41.800          30.000
 -14705082.907 6  -8908585.85444  22717494.016
  22717482.602          40.800          26.000
 -17199354.910 7 -12603597.89145  22685750.047
  22685736.934          43.000          30.400
 -21464920.298 7 -15681083.88546  20781966.398
  20781953.813          46.900          39.600
 -24546667.170 8 -18266785.05046  20771437.055
  20771427.691          49.400          41.800
 -10396423.400 6  -7489994.18844  23593474.266
  23593462.793          39.400          24.400
   1422213.46615 -26704145.04752  25406357.547
  25406351.172          32.400          16.900
 -23313878.561 7 -16135129.75646  21302588.234
  21302576.293          47.100          37.200
 -21693900.078 7 -18723091.87646  21387797.914
  21387785.855          47.500          40.100
 16  2 13  3 28 30.0000000  0 10G01G07G11G19G28G30G15G08G13G17
 -13394907.692 6 -10148605.80444  23305699.375
  23305691.652          38.600          25.200
 -17551919.829 7 -12984803.24445  22561354.648
  22561342.355          42.300          30.000
 -14686516.882 6  -8894118.82744  22721028.289
  22721015.586          40.300          26.800
 -17308763.380 7 -12688851.24245  22664929.336
  22664916.516          42.200          30.500
 -21454542.120 7 -15672996.98546  20783941.500
  20783928.563          46.900          39.400
 -24500336.569 8 -18230683.28346  20780253.766
  20780244.227          48.800          41.600
 -10448036.974 6  -7530212.56244  23583652.820
  23583641.406          40.400          26.700
   1528764.21615                  25426633.281
                        31.000
 -23316189.528 7 -16136930.50146  21302147.945
  21302136.297          45.900          36.900
 -21758365.657 7 -18773324.78046  21375530.203
  21375518.262          46.700          39.600
 16  2 13  3 29  0.0000000  0  9G01G07G11G19G28G30G15G13G17
 -13432712.291 6 -10178063.91044  23298506.180
  23298497.402          39.200          25.700
 -17465731.367 6 -12917643.42744  22577755.508
  22577743.742          41.300          29.400
 -14667325.033 6  -8879164.13144  22724679.336
  22724667.395          41.300          26.400
 -17417874.830 6 -12773873.11145  22644165.602
  22644153.543          41.800          30.200
 -21443934.370 7 -15664731.20846  20785959.867
  20785946.871          47.100          40.100
 -24453589.920 8 -18194257.31946  20789149.094
  20789139.613          49.100          41.200
 -10499136.758 6  -7570030.54544  23573929.250
  23573917.543          40.200          26.300
 -23317841.381 7 -16138217.66246  21301834.055
  21301821.703          46.500          37.000
 -21822377.666 7 -18823204.24146  21363349.398
  21363337.223          46.800          40.100
 16  2 13  3 29 30.0000000  0  9G01G07G11G19G28G30G15G13G17
 -13470028.008 6 -10207141.08544  23291405.086
  23291396.426          38.700          26.200
 -17379277.803 6 -12850277.04944  22594207.164
  22594195.398          41.600          28.700
 -14647541.509 6  -8863748.39544  22728444.719
  22728432.191          41.400          26.500
 -17526720.158 7 -12858687.61445  22623454.086
  22623441.266          42.500          31.300
 -21433131.034 7 -15656313.01446  20788015.539
  20788002.719          47.400          40.300
 -24406460.944 8 -18157533.44747  20798117.750
  20798108.094          49.100          42.200
 -10549754.563 6  -7609472.97544  23564296.219
  23564284.688          40.200          25.000
 -23318867.977 7 -16139017.60746  21301638.438
  21301626.789          46.300          36.800
 -21885967.682 7 -18872754.87146  21351247.977
  21351236.445          47.100          40.300
 16  2 13  3 30  0.0000000  0  9G01G07G11G19G28G30G15G13G17
 -13506836.672 6 -10235823.14644  23284400.734
  23284391.957          39.600          24.700
 -17292544.325 7 -12782692.56544  22610712.141
  22610700.082          42.100          28.900
 -14627149.994 6  -8847858.90144  22732324.328
  22732312.035          41.300          26.400
 -17635280.636 7 -12943280.15245  22602795.992
  22602782.410          43.800          31.700
 -21422116.897 7 -15647730.55546  20790111.273
  20790099.039          47.300          39.800
 -24358933.757 8 -18120499.28146  20807161.742
  20807152.320          48.800          41.200
 -10599872.818 6  -7648526.13244  23554759.563
  23554747.445          40.600          26.300
 -23319253.129 7 -16139317.71646  21301565.000
  21301553.234          46.600          36.900
 -21949118.075 7 -18921962.95146  21339230.695
  21339219.223          47.200          40.600
 16  2 13  3 30 30.0000000  0  9G01G07G11G19G28G30G15G13G17
 -13543139.018 6 -10264110.65544  23277492.633
  23277483.328          38.800          24.000
 -17205534.517 6 -12714892.73944  22627269.008
  22627257.125          41.400          28.200
 -14606153.846 7  -8831498.24244  22736320.883
  22736307.828          42.700          27.800
 -17743556.338 7 -13027650.79845  22582191.156
  22582177.867          43.700          31.300
 -21410895.731 7 -15638986.77646  20792246.906
  20792234.027          47.200          39.700
 -24311011.401 8 -18083157.18446  20816281.211
  20816271.555          49.500          41.800
 -10649492.614 6  -7687190.89244  23545317.695
  23545305.637          41.400          26.000
 -23318999.667 7 -16139120.21046  21301613.398
  21301601.105          46.500          36.600
 -22011830.107 7 -18970829.45146  21327297.109
  21327285.695          47.500          40.500
 16  2 13  3 31  0.0000000  0  9G01G07G11G19G28G30G15G13G17
 -13578932.186 6 -10292001.43244  23270681.406
  23270671.867          39.000          25.300
 -17118248.930 6 -12646878.01244  22643878.898
  22643867.074          41.000          28.900
 -14584552.777 7  -8814666.25744  22740431.273
  22740419.098          42.000          27.200
 -17851543.671 7 -13111796.75045  22561642.000
  22561629.180          42.900          31.300
 -21399466.668 7 -15630080.99546  20794421.609
  20794409.199          46.800          40.300
 -24262693.242 8 -18045506.67546  20825475.914
  20825466.258          49.500          41.800
 -10698611.561 6  -7725465.38144  23535970.250
  23535958.484          40.700          26.100
 -23318106.379 7 -16138424.13346  21301783.227
  21301771.227          46.900          37.000
 -22074102.234 7 -19019353.17246  21315446.688
  21315435.156          47.000          40.600
 16  2 13  3 31 30.0000000  0  9G01G07G11G19G28G30G15G13G17
 -13614214.553 6 -10319494.15944  23263967.234
  23263958.281          38.900          25.200
 -17030688.613 6 -12578649.23544  22660541.148
  22660530.027          41.100          29.400
 -14562347.602 7  -8797363.50344  22744656.805
  22744644.102          42.200          26.500
 -17959240.529 7 -13195716.35445  22541148.117
  22541134.828          43.600          31.400
 -21387831.473 7 -15621014.62146  20796635.875
  20796623.172          47.000          39.800
 -24213980.019 8 -18007548.31846  20834745.438
  20834736.016          49.300          41.700
 -10747228.659 6  -7763348.80544  23526718.563
  23526706.973          40.900          26.800
 -23316574.071 7 -16137230.13146  21302075.039
  21302062.922          47.100          36.600
 -22135933.297 7 -19067533.20146  21303681.719
  21303669.426          47.200          40.300
 16  2 13  3 32  0.0000000  0  9G01G07G11G19G28G30G15G13G17
 -13648984.839 6 -10346587.84944  23257351.523
  23257341.281          39.400          25.900
 -16942855.541 7 -12510207.93244  22677256.266
  22677244.266          42.100          29.900
 -14539539.352 6  -8779590.84944  22748996.719
  22748984.191          41.400          27.700
 -18066645.217 7 -13279408.26545  22520710.180
  22520696.305          43.100          31.900
 -21375991.202 7 -15611788.42746  20798889.047
  20798875.992          47.500          39.800
 -24164872.493 8 -17969282.72146  20844090.383
  20844080.785          49.100          41.600
 -10795343.126 6  -7800840.58244  23517562.789
  23517550.613          40.600          26.100
 -23314403.519 7 -16135538.79146  21302487.898
  21302475.898          45.900          36.800
 -22197322.386 7 -19115368.81946  21291999.234
  21291987.000          47.900          39.400
 16  2 13  3 32 30.0000000  0  9G01G07G11G19G28G30G15G13G17
 -13683239.549 6 -10373279.81544  23250832.195
  23250823.359          38.200          25.200
 -16854749.266 6 -12441553.71744  22694022.305
  22694009.895          41.400          28.800
 -14516127.415 7  -8761347.76844  22753451.898
  22753439.723          42.500          26.800
 -18173753.346 7 -13362869.12345  22500327.477
  22500314.305          43.300          31.900
 -21363945.505 7 -15602402.16946  20801181.141
  20801168.086          47.200          40.000
 -24115369.671 8 -17930709.09546  20853510.695
  20853500.746          49.400          40.700
 -10842952.071 6  -7837938.43644  23508503.039
  23508491.625          40.500          26.200
 -23311593.235 7 -16133348.95846  21303022.594
  21303010.945          47.400          36.800
 -22258266.832 7 -19162857.97146  21280400.961
  21280389.957          46.600          40.100
 16  2 13  3 33  0.0000000  0  9G01G07G11G19G28G30G15G13G17
 -13716977.685 6 -10399569.27643  23244411.898
  23244403.707          38.000          23.500
 -16766371.706 6 -12372688.11444  22710839.461
  22710827.344          41.800          28.100
 -14492112.849 7  -8742635.13144  22758021.820
  22758008.824          42.400          26.700
 -18280563.236 7 -13446097.58745  22480002.219
  22479989.164          43.400          32.300
 -21351695.859 7 -15592856.98146  20803512.070
  20803499.191          46.500          39.500
 -24065472.602 8 -17891828.27046  20863005.125
  20862995.352          49.200          40.800
 -10890054.753 6  -7874641.80844  23499539.555
  23499527.906          40.300          25.800
 -23308144.401 7 -16130661.54846  21303679.109
  21303667.168          47.100          36.700
 -22318766.475 7 -19210000.51246  21268889.086
  21268877.262          47.300          40.400
 16  2 13  3 33 30.0000000  0  9G01G07G11G19G28G30G15G13G17
 -13750196.736 6 -10425454.24944  23238090.070
  23238082.406          39.000          24.700
 -16677723.499 6 -12303611.60344  22727708.430
  22727696.430          40.600          28.200
 -14467496.147 6  -8723453.26344  22762706.344
  22762693.172          41.600          26.400
 -18387071.870 7 -13529091.29845  22459733.734
  22459721.617          43.500          32.800
 -21339242.036 7 -15583152.69846  20805881.938
  20805869.293          47.200          39.500
 -24015181.114 8 -17852640.10046  20872575.906
  20872566.074          49.500          40.500
 -10936649.461 6  -7910949.36544  23490673.188
  23490661.773          39.600          25.000
 -23304056.548 7 -16127476.21246  21304457.180
  21304444.887          47.200          36.400
 -22378819.335 7 -19256794.91946  21257461.367
  21257449.543          47.600          40.300
 16  2 13  3 34  0.0000000  0  9G01G07G11G19G28G30G15G13G17
 -13782893.732 6 -10450932.40644  23231868.711
  23231860.109          39.200          26.400
 -16588804.618 6 -12234324.20444  22744629.531
  22744616.945          41.400          26.900
 -14442276.510 7  -8703801.60544  22767505.219
  22767492.340          42.100          26.900
 -18493275.725 7 -13611847.52245  22439524.133
  22439511.254          43.400          32.400
 -21326584.294 7 -15573289.50846  20808290.969
  20808278.266          46.500          39.800
 -23964494.378 8 -17813143.94846  20882221.242
  20882211.703          48.700          41.200
 -10982733.309 6  -7946858.81544  23481903.688
  23481891.688          40.400          26.400
 -23299328.797 7 -16123792.24746  21305357.055
  21305345.113          47.200          37.100
 -22438423.127 7 -19303239.41446  21246118.984
  21246107.160          47.000          40.600
 16  2 13  3 34 30.0000000  0  9G01G07G11G19G28G30G15G13G17
 -13815072.334 6 -10476006.62944  23225745.180
  23225736.461          39.200          25.300
 -16499621.729 6 -12164831.10644  22761599.820
  22761587.762          41.700          27.600
 -14416460.027 6  -8683684.86244  22772417.320
  22772405.086          41.100          25.100
 -18599177.358 7 -13694368.24345  22419371.414
  22419358.477          43.200          32.600
 -21313728.857 7 -15563272.28646  20810736.805
  20810724.277          46.500          39.600
 -23913418.272 8 -17773344.38646  20891940.406
  20891930.574          49.400          41.300
 -11028310.698 6  -7982373.66944  23473230.383
  23473218.910          39.600          25.500
 -23293966.930 7 -16119614.16946  21306376.758
  21306365.109          47.700          36.700
 -22497581.924 7 -19349337.15646  21234861.430
  21234849.723          47.800          40.600
 16  2 13  3 35  0.0000000  0  9G01G07G11G19G28G30G15G13G17
 -13846724.583 6 -10500670.69444  23219721.648
  23219712.637          39.100          25.400
 -16410169.810 6 -12095128.35744  22778621.633
  22778610.570          40.900          27.100
 -14390041.221 7  -8663098.78144  22777445.609
  22777432.613          42.100          27.400
 -18704768.269 7 -13776646.84845  22399278.180
  22399265.594          43.500          33.200
 -21300670.228 7 -15553096.73446  20813222.328
  20813209.332          46.700          39.800
 -23861947.026 8 -17733236.93646  20901735.500
  20901726.020          49.000          40.600
 -11073374.413 6  -8017488.21644  23464656.016
  23464643.430          40.200          26.900
 -23287965.170 7 -16114937.47246  21307518.984
  21307507.336          47.500          36.600
 -22556288.858 7 -19395082.79446  21223689.539
  21223678.008          47.600          40.500
 16  2 13  3 35 30.0000000  0  9G01G07G11G19G28G30G15G13G17
 -13877850.822 6 -10524924.90144  23213798.516
  23213789.738          38.400          25.700
 -16320452.214 6 -12025218.58644  22795694.867
  22795683.277          41.100          27.100
 -14363023.094 6  -8642045.69844  22782586.375
  22782574.082          41.300          26.400
 -18810047.971 7 -13858682.95845  22379244.703
  22379231.414          44.100          33.100
 -21287411.109 7 -15542764.94846  20815745.391
  20815732.160          46.900          39.800
 -23810083.200 8 -17692823.57346  20911604.789
  20911594.840          48.800          41.200
 -11117924.848 6  -8052202.83144  23456177.992
  23456165.172          39.600          25.500
 -23281325.932 7 -16109764.04046  21308782.359
  21308770.594          47.500          36.300
 -22614544.647 7 -19440476.88746  21212604.328
  21212592.328          47.200          40.600
 16  2 13  3 36  0.0000000  0  9G01G07G11G19G28G30G15G13G17
 -13908449.374 6 -10548767.94044  23207976.352
  23207967.340          39.100          25.300
 -16230470.219 6 -11955102.77944  22812818.859
  22812806.977          41.200          28.600
 -14335406.327 7  -8620526.12744  22787842.313
  22787828.672          42.100          27.100
 -18915014.263 7 -13940474.84945  22359270.250
  22359256.902          43.600          33.400
 -21273952.389 7 -15532277.61846  20818306.086
  20818293.793          47.200          39.900
 -23757827.305 8 -17652104.70146  20921548.648
  20921538.816          48.800          41.400
 -11161960.956 6  -8086516.68044  23447797.828
  23447785.594          39.800          25.700
 -23274049.993 8 -16104094.47446  21310167.438
  21310155.203          48.000          36.800
 -22672348.389 7 -19485518.75346  21201604.445
  21201592.211          47.700          40.800
 16  2 13  3 36 30.0000000  0  9G01G07G11G19G28G30G15G13G17
 -13938517.221 6 -10572197.40544  23202254.531
  23202245.461          39.400          25.500
 -16140223.526 6 -11884780.74144  22829992.219
  22829980.219          41.200          28.500
 -14307190.550 6  -8598539.80244  22793211.086
  22793198.324          41.400          26.000
 -19019663.169 7 -14022019.41545  22339355.430
  22339343.313          43.400          32.400
 -21260293.447 7 -15521634.28846  20820905.656
  20820893.188          46.700          40.500
 -23705178.348 8 -17611079.55246  20931567.664
  20931557.715          48.500          41.200
 -11205480.398 6  -8120427.91544  23439516.258
  23439504.316          40.800          25.800
 -23266136.172 7 -16097927.86546  21311673.109
  21311661.051          47.100          36.800
 -22729697.629 8 -19530206.45146  21190691.219
  21190679.336          48.300          40.200
 16  2 13  3 37  0.0000000  0  9G01G07G11G19G28G30G15G13G17
 -13968053.830 6 -10595212.95644  23196634.023
  23196624.836          37.100          24.700
 -16049714.922 6 -11814254.59444  22847215.422
  22847203.656          41.800          27.400
 -14278377.786 6  -8576088.29444  22798694.586
  22798681.648          41.400          27.000
 -19123993.122 7 -14103315.44145  22319502.180
  22319489.770          43.400          33.100
 -21246436.465 7 -15510836.63746  20823542.148
  20823529.563          46.700          39.300
 -23652138.099 8 -17569749.49246  20941660.430
  20941650.949          48.100          41.000
 -11248482.958 6  -8153936.37444  23431332.945
  23431321.355          40.400          27.100
 -23257585.911 7 -16091265.32845  21313300.031
  21313287.680          47.600          35.900
 -22786592.205 7 -19574539.86446  21179864.469
  21179852.645          47.400          40.700
 16  2 13  3 37 30.0000000  0  9G01G07G11G19G28G30G15G13G17
 -13997056.929 6 -10617812.75744  23191114.406
  23191105.336          38.600          26.200
 -15958944.936 6 -11743524.76244  22864488.047
  22864476.164          40.400          27.400
 -14248968.273 6  -8553171.78744  22804289.852
  22804277.852          40.300          26.100
 -19228001.635 7 -14184361.02745  22299711.070
  22299697.078          43.700          34.200
 -21232381.831 7 -15499884.97746  20826216.875
  20826203.938          47.100          40.600
 -23598706.444 8 -17528114.43746  20951828.398
  20951818.449          49.100          40.700
 -11290967.030 6  -8187040.84444  23423249.531
  23423236.418          40.800          26.400
 -23248399.523 7 -16084107.10746  21315048.766
  21315036.238          47.300          37.200
 -22843030.813 7 -19618517.98446  21169125.133
  21169112.430          47.500          40.800
 16  2 13  3 38  0.0000000  0  9G01G07G11G19G28G30G15G13G17
 -14025524.568 6 -10639995.31744  23185697.539
  23185688.410          39.100          26.000
 -15867914.177 6 -11672591.73144  22881810.281
  22881798.691          40.900          27.600
 -14218962.472 7  -8529790.64344  22810001.133
  22809988.547          42.300          26.300
 -19331685.612 7 -14265153.70145  22279979.625
  22279966.688          43.600          33.400
 -21218129.697 7 -15488779.42346  20828928.656
  20828916.305          46.100          40.000
 -23544883.454 8 -17486174.44846  20962070.234
  20962060.988          48.600          40.500
 -11332930.854 6  -8219739.88544  23415262.406
  23415251.168          40.000          27.900
 -23238577.249 7 -16076453.39546  21316917.242
  21316905.242          47.400          37.300
 -22899012.043 8 -19662139.71746  21158471.742
  21158459.742          48.600          41.100
 16  2 13  3 38 30.0000000  0  9G01G07G11G19G28G30G15G13G17
 -14053455.540 6 -10661759.69644  23180382.031
  23180374.309          38.700          25.700
 -15776624.657 6 -11601457.10544  22899182.289
  22899170.465          40.500          27.700
 -14188361.748 6  -8505945.92144  22815823.531
  22815811.648          40.700          25.900
 -19435043.216 7 -14345692.07145  22260311.172
  22260298.762          43.400          33.600
 -21203681.455 7 -15477521.05546  20831678.164
  20831666.047          46.700          39.900
 -23490670.082 8 -17443930.27946  20972387.727
  20972377.543          48.600          41.300
 -11374373.581 6  -8252032.92344  23407376.938
  23407364.352          40.500          27.500
 -23228119.575 7 -16068304.56946  21318907.492
  21318895.316          47.500          36.700
 -22954535.244 7 -19705404.54046  21147905.414
  21147893.473          47.800          41.500
 16  2 13  3 39  0.0000000  0  9G01G07G11G19G28G30G15G13G17
 -14080847.757 6 -10683104.27644  23175169.867
  23175161.207          38.600          26.300
 -15685077.103 6 -11530121.39844  22916603.344
  22916591.930          40.300          27.300
 -14157166.638 6  -8481638.03644  22821759.883
  22821747.121          41.400          24.700
 -19538071.255 7 -14425973.62145  22240706.109
  22240693.992          43.600          34.000
 -21189037.249 7 -15466109.97346  20834465.133
  20834452.313          47.200          39.600
 -23436066.337 8 -17401381.91146  20982777.313
  20982767.656          48.500          40.300
 -11415293.920 6  -8283918.87544  23399590.508
  23399578.332          41.100          27.900
 -23217027.196 7 -16059661.16646  21321018.234
  21321006.703          47.500          36.600
 -23009599.028 8 -19748311.37146  21137427.547
  21137416.016          48.400          41.100
 16  2 13  3 39 30.0000000  0  9G01G07G11G19G28G30G15G13G17
 -14107699.542 6 -10704027.73844  23170059.500
  23170051.309          37.900          25.600
 -15593272.625 6 -11458585.47944  22934072.719
  22934061.422          40.600          27.100
 -14125377.703 6  -8456867.45144  22827808.625
  22827796.508          41.200          25.300
 -19640767.615 7 -14505996.71245  22221164.141
  22221150.500          44.300          33.800
 -21174197.841 7 -15454546.79546  20837289.188
  20837276.367          46.800          40.100
 -23381072.695 8 -17358529.74946  20993242.516
  20993232.625          48.700          40.100
 -11455690.776 6  -8315396.90444  23391903.383
  23391890.914          41.700          28.500
 -23205300.241 8 -16050523.28346  21323249.602
  21323237.719          48.200          36.700
 -23064202.115 7 -19790859.21046  21127037.078
  21127025.371          47.900          41.700
 16  2 13  3 40  0.0000000  0  9G01G07G11G19G28G30G15G13G17
 -14134009.997 6 -10724529.37444  23165053.453
  23165044.266          39.600          24.700
 -15501213.284 6 -11386850.95644  22951591.539
  22951579.539          40.900          27.900
 -14092996.738 6  -8431635.51044  22833971.000
  22833958.766          39.900          26.500
 -19743130.047 7 -14585759.60345  22201684.633
  22201671.754          44.400          33.900
 -21159164.519 7 -15442832.51446  20840149.570
  20840137.043          46.700          39.800
 -23325690.289 8 -17315374.63346  21003781.352
  21003771.813          48.400          40.100
 -11495563.427 6  -8346466.49144  23384315.359
  23384303.242          41.300          28.500
 -23192940.245 8 -16040892.12546  21325601.836
  21325589.719          48.400          36.200
 -23118344.472 8 -19833048.03946  21116734.172
  21116722.348          48.600          41.500
 16  2 13  3 40 30.0000000  0  9G01G07G11G19G28G30G15G13G17
 -14159776.601 6 -10744607.23244  23160151.047
  23160141.156          38.800          25.500
 -15408899.220 6 -11314917.96644  22969157.992
  22969146.930          41.100          27.300
 -14060023.849 6  -8405942.36444  22840246.563
  22840232.863          40.600          25.600
 -19845155.296 7 -14665259.75745  22182269.586
  22182256.473          44.100          33.700
 -21143937.213 7 -15430967.07946  20843047.422
  20843034.895          47.000          39.900
 -23269918.645 8 -17271916.21846  21014394.297
  21014384.875          48.400          40.400
 -11534909.837 6  -8377126.00644  23376827.766
  23376816.176          40.600          27.900
 -23179946.735 8 -16030767.31746  21328074.570
  21328062.336          48.000          36.900
 -23172024.018 8 -19874876.23446  21106519.227
  21106507.637          48.400          41.500
 16  2 13  3 41  0.0000000  0  9G01G07G11G19G28G30G15G13G17
 -14184998.358 6 -10764260.53544  23155350.414
  23155341.578          39.400          24.500
 -15316332.301 6 -11242787.94944  22986774.164
  22986761.871          41.000          27.100
 -14026460.476 6  -8379789.08644  22846631.539
  22846619.949          39.400          25.600
 -19946841.459 7 -14744495.69745  22162919.828
  22162906.598          44.200          34.700
 -21128517.184 7 -15418951.47146  20845981.867
  20845969.105          46.400          39.700
 -23213758.883 8 -17228155.37346  21025081.508
  21025072.086          48.300          40.500
 -11573729.528 6  -8407375.09944  23369440.133
  23369428.602          40.900          27.800
 -23166320.897 7 -16020149.78046  21330667.125
  21330655.184          47.500          36.800
 -23225240.397 8 -19916343.52346  21096392.156
  21096380.742          48.300          41.500
 16  2 13  3 41 30.0000000  0  9G01G07G11G19G28G30G15G13G17
 -14209673.013 6 -10783487.52444  23150654.984
  23150646.441          39.000          24.300
 -15223512.909 6 -11170461.19444  23004436.344
  23004425.105          40.700          26.800
 -13992307.048 6  -8353176.03244  22853132.000
  22853119.063          40.300          24.900
 -20048185.281 7 -14823464.86845  22143633.930
  22143621.578          43.100          34.300
 -21112904.173 7 -15406785.47746  20848952.875
  20848940.055          45.900          39.800
 -23157210.766 8 -17184091.90546  21035842.219
  21035832.387          48.600          40.100
 -11612020.828 6  -8437212.45644  23362153.586
  23362142.113          40.900          28.000
 -23152062.567 7 -16009039.40046  21333380.547
  21333368.664          47.700          36.800
 -23277991.794 7 -19957448.48946  21086354.203
  21086342.379          47.900          41.500
 16  2 13  3 42  0.0000000  0  9G01G07G11G19G28G30G15G13G17
 -14233799.220 6 -10802287.16444  23146063.070
  23146055.348          38.800          24.700
 -15130442.783 6 -11097939.06144  23022146.461
  23022135.633          39.200          26.900
 -13957564.677 6  -8326104.06644  22859743.117
  22859730.121          40.200          25.200
 -20149184.780 7 -14902165.74445  22124414.703
  22124401.590          44.300          34.800
 -21097099.312 7 -15394469.98846  20851960.273
  20851947.336          46.800          39.800
 -23100275.045 8 -17139726.40246  21046676.852
  21046666.961          48.100          40.800
 -11649782.537 6  -8466637.14244  23354967.930
  23354956.398          40.900          27.900
 -23137172.934 7 -15997437.10046  21336214.297
  21336201.594          47.600          36.700
 -23330277.412 7 -19998190.49946  21076404.680
  21076393.090          47.900          41.800
 16  2 13  3 42 30.0000000  0  9G01G07G11G19G28G30G15G13G17
 -14257373.433 6 -10820656.67944  23141578.203
  23141569.016          39.800          25.000
 -15037120.918 6 -11025220.76344  23039904.586
  23039893.934          40.300          26.000
 -13922232.427 6  -8298572.42344  22866466.211
  22866453.859          39.700          24.100
 -20249835.232 7 -14980594.63345  22105261.930
  22105247.996          44.700          34.600
 -21081100.938 7 -15382003.72046  20855005.125
  20854992.246          46.700          39.300
 -23042950.097 7 -17095057.61746  21057585.078
  21057575.598          47.800          39.800
 -11687011.852 6  -8495646.98444  23347883.453
  23347871.805          41.700          28.100
 -23121650.553 7 -15985341.73746  21339167.938
  21339155.938          47.500          36.700
 -23382094.354 8 -20038567.31646  21066543.984
  21066532.043          48.500          40.600
 16  2 13  3 43  0.0000000  0  9G01G07G11G19G28G30G15G13G17
 -14280396.778 6 -10838596.94144  23137196.375
  23137187.656          38.900          25.300
 -14943551.380 6 -10952309.47244  23057711.156
  23057699.625          39.900          24.800
 -13886313.779 6  -8270583.88144  22873301.648
  22873289.004          40.100          25.300
 -20350136.770 7 -15058751.65545  22086174.820
  22086161.883          44.300          34.600
 -21064912.536 7 -15369389.37646  20858085.211
  20858072.332          46.400          39.400
 -22985239.129 8 -17050088.04246  21068567.547
  21068557.715          48.300          40.000
 -11723710.017 6  -8524242.94644  23340900.281
  23340888.223          40.600          27.900
 -23105498.780 7 -15972755.94146  21342241.383
  21342229.031          47.400          36.400
 -23433444.523 8 -20078580.41946  21056772.539
  21056760.539          48.500          41.700
 16  2 13  3 43 30.0000000  0  9G01G07G11G19G28G30G15G13G17
 -14302871.061 6 -10856109.33044  23132919.992
  23132910.453          38.800          24.700
 -14849738.682 6 -10879208.71244  23075563.266
  23075551.324          41.500          25.300
 -13849813.448 6  -8242142.05243  22880247.094
  22880234.508          39.600          23.300
 -20450090.245 7 -15136637.45145  22067154.211
  22067140.980          43.700          34.100
 -21048538.067 7 -15356630.04946  20861201.109
  20861188.172          46.700          39.900
 -22927146.000 7 -17004820.67946  21079621.531
  21079612.578          47.900          40.100
 -11759879.816 6  -8552427.16844  23334017.250
  23334005.309          40.700          28.100
 -23088721.430 7 -15959682.68846  21345434.133
  21345422.191          47.500          36.600
 -23484330.012 8 -20118231.42546  21047089.180
  21047077.414          48.300          41.500
 16  2 13  3 44  0.0000000  0  9G01G07G11G19G28G30G15G13G17
 -14324788.843 6 -10873188.12443  23128748.797
  23128740.020          38.800          22.900
 -14755677.892 6 -10805914.62344  23093462.617
  23093450.441          39.800          25.900
 -13812726.143 6  -8213242.85144  22887304.977
  22887292.332          41.100          25.200
 -20549687.148 7 -15214245.39945  22048201.797
  22048188.449          43.700          34.700
 -21031972.158 7 -15343721.54546  20864353.805
  20864340.867          47.000          39.300
 -22868665.148 8 -16959251.19546  21090750.844
  21090740.953          48.000          40.100
 -11795513.919 6  -8580193.99444  23327236.742
  23327224.391          41.200          28.100
 -23071313.568 7 -15946118.12746  21348746.953
  21348735.012          47.400          36.100
 -23534744.011 8 -20157515.03646  21037495.352
  21037483.996          48.600          41.800
 16  2 13  3 44 30.0000000  0  9G01G07G11G19G28G30G15G13G17
 -14346150.929 6 -10889833.89544  23124684.297
  23124674.934          38.700          25.200
 -14661372.711 6 -10732430.11644  23111408.273
  23111396.098          40.600          24.900
 -13775055.471 6  -8183889.08044  22894473.242
  22894460.480          40.600          25.500
 -20648927.515 7 -15291575.52245  22029317.016
  22029303.551          44.900          34.900
 -21015217.893 7 -15330666.28246  20867542.273
  20867529.043          47.400          40.100
 -22809799.459 7 -16913381.83546  21101952.305
  21101942.707          47.800          40.100
 -11830613.584 6  -8607544.36444  23320556.852
  23320545.086          40.500          27.900
 -23053278.350 7 -15932064.71546  21352178.914
  21352166.797          47.300          36.800
 -23584687.983 8 -20196432.39246  21027991.906
  21027980.023          49.000          41.400
 16  2 13  3 45  0.0000000  0  9G01G07G11G19G28G30G15G13G17
 -14366955.251 6 -10906045.05143  23120724.906
  23120715.836          38.900          23.000
 -14566823.807 6 -10658755.68844  23129400.883
  23129388.180          40.700          26.200
 -13736802.128 6  -8154081.26544  22901752.852
  22901740.207          41.100          24.500
 -20747808.481 7 -15368625.59845  22010500.117
  22010487.063          43.600          34.800
 -20998275.185 7 -15317464.17046  20870765.969
  20870753.031          47.600          40.200
 -22750548.762 8 -16867212.46146  21113227.344
  21113217.805          48.200          39.800
 -11865177.018 6  -8634476.87444  23313980.102
  23313967.809          40.800          28.700
 -23034615.610 7 -15917522.32946  21355730.172
  21355717.996          47.100          37.200
 -23634160.084 8 -20234982.05546  21018577.602
  21018565.426          48.900          41.400
 16  2 13  3 45 30.0000000  0  9G01G07G11G19G28G30G15G13G17
 -14387201.516 6 -10921821.35544  23116872.734
  23116863.137          39.100          26.100
 -14472033.430 6 -10584893.10744  23147437.633
  23147426.512          40.500          25.500
 -13697967.814 6  -8123820.77644  22909141.906
  22909130.199          41.200          25.800
 -20846328.075 7 -15445394.08345  21991752.469
  21991739.121          44.900          34.700
 -20981145.456 7 -15304116.32346  20874025.508
  20874012.453          47.300          39.100
 -22690914.702 7 -16820744.36946  21124575.953
  21124566.004          47.800          39.900
 -11899204.510 6  -8660991.81944  23307504.445
  23307492.797          40.400          27.900
 -23015327.350 7 -15902492.52646  21359400.711
  21359388.477          47.300          36.300
 -23683160.300 8 -20273164.01746  21009253.094
  21009241.270          48.900          41.700
 16  2 13  3 46  0.0000000  0  9G01G07G11G19G28G30G15G13G17
 -14406887.656 6 -10937161.16743  23113126.258
  23113117.012          40.000          23.000
 -14377001.982 6 -10510842.68544  23165522.891
  23165510.539          41.500          25.500
 -13658552.999 6  -8093107.92143  22916643.008
  22916630.070          40.900          22.500
 -20944483.169 7 -15521878.54745  21973075.352
  21973061.066          44.300          35.300
 -20963828.819 7 -15290622.83546  20877320.945
  20877308.125          46.900          39.800
 -22630897.227 7 -16773977.51046  21135996.359
  21135986.703          47.900          39.300
 -11932694.600 6  -8687087.97244  23301131.109
  23301119.520          40.600          28.000
 -22995413.910 7 -15886975.56346  21363189.938
  21363177.879          47.600          36.600
 -23731687.702 8 -20310977.56047  21000018.602
  21000006.660          48.700          42.000
 16  2 13  3 46 30.0000000  0  9G01G07G11G19G28G30G15G13G17
 -14426012.602 6 -10952063.71644  23109486.383
  23109477.020          39.400          24.700
 -14281731.230 6 -10436605.78644  23183652.508
  23183640.156          40.300          25.300
 -13618559.366 6  -8061944.02943  22924253.164
  22924239.758          40.600          22.800
 -21042271.798 7 -15598077.46045  21954465.727
  21954452.438          44.100          35.700
 -20946326.086 7 -15276984.33346  20880651.469
  20880638.824          47.600          39.900
 -22570497.120 7 -16726912.49446  21147490.023
  21147480.191          47.600          39.900
 -11965646.203 6  -8712764.52344  23294860.711
  23294849.238          39.900          27.500
 -22974876.230 7 -15870972.18146  21367098.313
  21367085.609          47.600          36.300
 -23779741.492 8 -20348422.05646  20990874.016
  20990862.250          48.500          41.600
 16  2 13  3 47  0.0000000  0  9G01G07G11G19G28G30G15G13G17
 -14444574.181 6 -10966527.29044  23105954.750
  23105945.387          39.600          24.700
 -14186221.676 6 -10362182.80844  23201826.664
  23201815.016          41.500          25.800
 -13577987.343 6  -8030329.45144  22931973.680
  22931961.211          40.800          24.200
 -21139690.951 7 -15673988.45845  21935927.383
  21935914.152          44.700          35.200
 -20928636.938 7 -15263200.57746  20884017.547
  20884005.078          47.000          39.800
 -22509714.224 7 -16679549.21246  21159056.625
  21159047.379          47.400          39.500
 -11998058.006 6  -8738020.46044  23288693.773
  23288681.715          41.100          27.600
 -22953714.742 7 -15854482.70746  21371125.070
  21371112.953          47.500          36.400
 -23827320.134 8 -20385496.32646  20981820.430
  20981808.547          49.200          41.500
 16  2 13  3 47 30.0000000  0  9G01G07G11G19G28G30G15G13G17
 -14462571.996 6 -10980551.53744  23102529.945
  23102520.875          39.000          25.900
 -14090475.494 6 -10287575.40744  23220046.930
  23220035.281          41.500          26.600
 -13536838.961 6  -7998265.77343  22939804.516
  22939791.227          41.100          23.300
 -21236738.909 7 -15749610.22545  21917460.469
  21917446.711          45.200          35.100
 -20910763.286 7 -15249273.06246  20887418.664
  20887405.902          46.500          39.800
 -22448549.844 7 -16631888.66746  21170696.359
  21170686.059          47.600          40.300
 -12029929.637 6  -8762855.47544  23282628.648
  23282616.766          40.700          27.600
 -22931931.076 7 -15837508.43046  21375270.570
  21375258.160          46.800          36.300
 -23874423.476 8 -20422200.21146  20972856.734
  20972845.027          48.500          41.500
 16  2 13  3 48  0.0000000  0  9G01G07G11G19G28G30G15G13G17
 -14480004.640 6 -10994135.41644  23099212.422
  23099203.645          40.600          24.700
 -13994494.100 6 -10212784.74544  23238310.859
  23238299.855          40.300          25.600
 -13495115.622 6  -7965754.06743  22947743.516
  22947730.754          40.100          22.800
 -21333413.348 7 -15824940.92645  21899063.219
  21899050.105          45.400          35.100
 -20892705.024 7 -15235201.69246  20890855.414
  20890842.418          47.000          39.300
 -22387004.676 7 -16583931.41346  21182407.602
  21182397.945          47.100          39.800
 -12061260.473 6  -8787269.10044  23276666.836
  23276654.016          41.100          28.000
 -22909526.417 7 -15820050.25746  21379533.758
  21379521.816          47.700          36.500
 -23921050.900 8 -20458533.25846  20963983.914
  20963971.914          48.900          41.700
 16  2 13  3 48 30.0000000  0  9G01G07G11G19G28G30G15G13G17
 -14496869.993 6 -11007277.23644  23096003.328
  23095994.258          39.900          25.700
 -13898277.253 6 -10137810.61444  23256621.797
  23256609.328          39.900          27.000
 -13452817.527 6  -7932794.50544  22955793.883
  22955780.301          41.400          24.200
 -21429710.895 7 -15899977.94845  21880738.930
  21880725.230          45.800          35.700
 -20874462.102 7 -15220986.42346  20894326.352
  20894314.117          46.800          39.800
 -22325078.308 7 -16535677.10746  21194191.289
  21194182.102          46.800          39.800
 -12092048.633 6  -8811259.87944  23270807.813
  23270795.578          40.800          27.900
 -22886500.658 7 -15802108.11646  21383915.531
  21383903.297          47.600          36.700
 -23967200.317 8 -20494493.81846  20955201.875
  20955189.699          48.400          41.700
 16  2 13  3 49  0.0000000  0  9G01G07G11G19G28G30G15G13G17
 -14513168.102 6 -11019977.04944  23092901.633
  23092892.445          39.900          24.000
 -13801827.975 6 -10062655.36544  23274973.844
  23274962.605          40.200          24.000
 -13409947.377 6  -7899389.20143  22963951.633
  22963938.168          40.200          23.000
 -21525630.439 7 -15974720.41845  21862485.578
  21862472.348          46.400          35.800
 -20856036.561 7 -15206628.85646  20897832.945
  20897820.242          47.000          39.700
 -22262772.771 7 -16487127.33746  21206048.063
  21206038.348          47.300          39.800
 -12122294.515 6  -8834828.09844  23265052.266
  23265039.680          39.900          29.000
 -22862856.075 7 -15783683.77245  21388414.977
  21388402.742          47.000          35.700
 -24012872.635 8 -20530082.62247  20946510.891
  20946498.598          48.300          42.400
 16  2 13  3 49 30.0000000  0  9G01G07G11G19G28G30G15G13G17
 -14528897.127 6 -11032233.41444  23089909.063
  23089898.996          40.300          25.100
 -13705146.824 6  -9987319.45343  23293372.125
  23293360.477          40.400          23.500
 -13366505.788 6  -7865538.59844  22972217.188
  22972204.895          40.700          24.600
 -21621168.816 7 -16049165.87445  21844305.570
  21844292.281          45.400          35.600
 -20837428.154 7 -15192128.79546  20901373.992
  20901361.465          46.700          39.500
 -22200087.971 7 -16438282.04446  21217976.586
  21217966.871          47.500          39.400
 -12151996.736 6  -8857972.66344  23259400.172
  23259387.996          40.900          29.300
 -22838592.811 7 -15764777.33645  21393031.969
  21393019.676          47.400          35.500
 -24058066.476 8 -20565298.58146  20937910.555
  20937898.730          48.300          41.900
 16  2 13  3 50  0.0000000  0  9G01G07G11G19G28G30G15G13G17
 -14544055.911 6 -11044045.43444  23087023.867
  23087014.797          40.500          26.500
 -13608235.365 6  -9911804.09544  23311814.406
  23311801.938          39.400          25.400
 -13322493.911 6  -7831243.63944  22980592.391
  22980580.684          40.600          24.800
 -21716323.796 7 -16123312.58746  21826197.836
  21826184.605          45.600          36.200
 -20818637.502 7 -15177486.72846  20904949.664
  20904936.785          46.400          39.700
 -22137024.653 7 -16389141.80946  21229977.672
  21229967.957          47.300          39.200
 -12181154.583 6  -8880693.04444  23253850.383
  23253839.438          40.000          27.200
 -22813712.494 7 -15745390.08746  21397766.828
  21397754.535          47.200          36.100
 -24102780.806 8 -20600140.89147  20929401.914
  20929389.797          48.500          42.100
 16  2 13  3 50 30.0000000  0  9G01G07G11G19G28G30G15G13G17
 -14558643.010 6 -11055412.00944  23084248.438
  23084239.426          39.500          26.600
 -13511094.540 6  -9836109.99743  23330298.430
  23330288.070          39.200          23.900
 -13277912.935 6  -7796505.21544  22989075.445
  22989063.973          39.400          26.000
 -21811092.535 7 -16197158.32745  21808163.789
  21808150.852          45.800          35.800
 -20799664.874 7 -15162702.85146  20908560.195
  20908547.668          45.800          39.600
 -22073583.113 7 -16339706.85146  21242049.883
  21242039.875          47.200          39.400
 -12209767.057 6  -8902988.47144  23248406.461
  23248394.227          41.100          28.600
 -22788215.789 7 -15725522.53346  21402618.891
  21402606.480          47.600          36.100
 -24147014.759 8 -20634608.88346  20920984.297
  20920972.414          48.100          41.700
 16  2 13  3 51  0.0000000  0  9G01G07G11G19G28G30G15G13G17
 -14572657.334 6 -11066332.24844  23081581.352
  23081572.633          39.200          26.000
 -13413725.923 6  -9760238.42943  23348827.672
  23348816.023          38.900          22.800
 -13232764.559 6  -7761324.66244  22997668.273
  22997655.219          40.700          24.100
 -21905473.338 7 -16270701.78046  21790203.875
  21790190.996          45.700          36.500
 -20780511.010 7 -15147777.75546  20912205.047
  20912191.875          47.000          39.000
 -22009764.149 7 -16289977.79446  21254194.063
  21254184.348          47.600          38.900
 -12237833.339 6  -8924858.28544  23243065.125
  23243053.184          40.600          27.800
 -22762103.777 7 -15705175.51846  21407587.219
  21407575.219          47.100          36.000
 -24190767.983 8 -20668702.29447  20912658.234
  20912646.293          48.000          42.100
 16  2 13  3 51 30.0000000  0  9G01G07G11G19G28G30G15G13G17
 -14586098.873 6 -11076806.16444  23079023.406
  23079014.629          40.900          26.000
 -13316131.766 6  -9684191.08143  23367398.711
  23367387.531          38.100          22.500
 -13187050.925 6  -7725703.63744  23006366.289
  23006354.348          38.600          25.900
 -21999464.599 7 -16343941.70046  21772317.734
  21772304.680          45.600          36.800
 -20761177.468 7 -15132712.66246  20915883.805
  20915871.277          45.200          40.000
 -21945569.533 7 -16239956.02346  21266410.273
  21266400.031          47.800          39.100
 -12265353.835 6  -8946302.81844  23237828.219
  23237816.277          40.300          27.800
 -22735378.727 7 -15684350.80846  21412672.922
  21412660.863          46.300          36.500
 -24234040.446 7 -20702421.08847  20904423.969
  20904411.793          47.900          42.000
 16  2 13  3 52  0.0000000  0  9G01G07G11G19G28G30G15G13G17
 -14598964.640 6 -11086831.42444  23076575.117
  23076566.047          40.900          26.700
 -13218311.474 6  -9607967.49343  23386012.352
  23386002.051          36.500          21.700
 -13140771.805 6  -7689641.99544  23015172.414
  23015160.648          38.400          24.300
 -22093061.868 7 -16416874.61546  21754507.234
  21754493.887          45.800          36.400
 -20741662.685 7 -15117506.33146  20919597.164
  20919585.281          45.700          39.400
 -21880998.023 7 -16189640.56546  21278697.531
  21278687.934          47.300          38.700
 -12292326.051 6  -8967320.12944  23232696.109
  23232683.699          41.300          28.300
 -22708040.026 7 -15663047.92746  21417875.477
  21417863.066          47.000          37.000
 -24276829.879 8 -20735763.48746  20896281.219
  20896269.277          48.000          41.800
 16  2 13  3 52 30.0000000  0  9G01G07G11G19G28G30G15G13G17
 -14611255.477 6 -11096408.70944  23074235.977
  23074227.316          40.600          25.500
 -13120268.476 6  -9531570.38743  23404670.297
  23404659.469          38.300          22.600
 -13093930.512 6  -7653142.31643  23024086.055
  23024074.406          39.000          23.400
 -22186264.983 7 -16489500.39546  21736771.125
  21736757.777          45.300          36.400
 -20721969.498 7 -15102160.98946  20923344.945
  20923332.125          46.400          39.900
 -21816052.200 7 -16139033.44746  21291056.367
  21291046.652          47.400          39.000
 -12318751.177 6  -8987911.12244  23227667.258
  23227655.375          41.200          28.200
 -22680090.883 7 -15641269.38146  21423194.000
  21423181.824          47.200          36.600
 -24319137.705 7 -20768730.61146  20888230.602
  20888218.309          47.600          41.800
 16  2 13  3 53  0.0000000  0  9G01G07G11G19G28G30G15G13G17
 -14622969.370 6 -11105536.40344  23072007.555
  23071998.426          40.900          26.800
 -13022003.003 6  -9454999.96843  23423370.305
  23423359.125          38.300          22.600
 -13046527.732 6  -7616205.08943  23033107.164
  23033094.813          39.700          22.800
 -22279070.698 7 -16561816.51046  21719110.266
  21719097.035          45.200          36.300
 -20702097.132 7 -15086676.02446  20927126.688
  20927113.633          46.300          39.800
 -21750731.826 7 -16088134.46246  21303486.258
  21303476.719          47.800          39.000
 -12344627.492 6  -9008074.48444  23222743.070
  23222730.660          40.900          28.100
 -22651531.316 7 -15619015.17746  21428628.320
  21428616.379          47.100          36.000
 -24360962.154 7 -20801321.06947  20880271.281
  20880259.223          47.800          42.600
 16  2 13  3 53 30.0000000  0  9G01G07G11G19G28G30G15G13G17
 -14634105.692 6 -11114214.05044  23069887.938
  23069879.805          38.200          25.600
 -12923516.911 6  -9378257.60943  23442112.000
  23442100.762          37.600          22.800
 -12998564.916 6  -7578831.44043  23042235.234
  23042221.301          40.200          22.900
 -22371477.028 7 -16633821.41246  21701525.898
  21701512.492          45.300          36.200
 -20682046.732 7 -15071052.33946  20930942.086
  20930929.148          47.200          39.600
 -21685038.034 8 -16036944.51046  21315987.500
  21315978.078          48.000          39.300
 -12369954.728 6  -9027809.97644  23217924.250
  23217911.547          41.300          27.900
 -22622363.095 7 -15596286.69145  21434179.109
  21434166.816          46.700          35.800
 -24402303.008 8 -20833534.70347  20872404.406
  20872392.582          48.700          42.000
 16  2 13  3 54  0.0000000  0  9G01G07G11G19G28G30G15G13G17
 -14644663.675 6 -11122441.04344  23067879.016
  23067869.652          40.200          25.600
 -12824811.940 6  -9301344.68543  23460893.781
  23460883.422          37.100          21.700
 -12950043.985 6  -7541022.91044  23051467.898
  23051454.902          38.800          24.400
 -22463481.910 7 -16705513.49646  21684017.984
  21684004.695          44.500          36.300
 -20661818.849 7 -15055290.33946  20934791.328
  20934778.273          46.600          39.600
 -21618971.801 8 -15985464.34146  21328559.531
  21328549.641          48.000          38.600
 -12394732.590 6  -9047117.40244  23213208.367
  23213196.484          41.000          28.100
 -22592588.002 7 -15573085.32946  21439845.297
  21439832.945          47.000          36.000
 -24443159.692 8 -20865371.06147  20864629.594
  20864617.711          48.900          42.000
 16  2 13  3 54 30.0000000  0  9G01G07G11G19G28G30G15G13G17
 -14654641.636 6 -11130216.06144  23065980.203
  23065971.133          39.300          25.000
 -12725888.551 6  -9224261.55943  23479718.172
  23479707.988          39.400          22.800
 -12900965.718 6  -7502780.10444  23060806.758
  23060794.465          39.400          24.600
 -22555082.249 7 -16776890.36746  21666587.344
  21666573.879          45.200          36.300
 -20641413.289 7 -15039389.90546  20938674.578
  20938661.816          47.500          39.600
 -21552532.954 7 -15933693.81046  21341202.609
  21341192.777          47.800          39.300
 -12418959.715 6  -9065995.67444  23208598.164
  23208586.574          41.500          28.700
 -22562206.147 7 -15549411.15646  21445626.430
  21445614.781          47.000          36.200
 -24483531.340 8 -20896829.47547  20856947.273
  20856935.449          48.600          42.500
 16  2 13  3 55  0.0000000  0  9G01G07G11G19G28G30G15G13G17
 -14664039.304 6 -11137538.91843  23064191.727
  23064182.188          39.100          23.500
 -12626748.977 6  -9147009.99843  23498584.625
  23498573.621          39.000          22.300
 -12851332.372 6  -7464104.77444  23070251.766
  23070239.004          39.000          24.800
 -22646276.717 7 -16847950.95646  21649233.984
  21649220.285          45.600          36.600
 -20620831.290 7 -15023351.98746  20942591.680
  20942578.566          47.100          40.100
 -21485723.154 7 -15881634.25246  21353916.039
  21353906.559          47.600          39.200
 -12442636.171 6  -9084444.85944  23204092.547
  23204080.371          41.400          28.500
 -22531219.812 7 -15525265.97445  21451523.008
  21451510.832          46.200          35.900
 -24523417.742 8 -20927909.76447  20849357.438
  20849345.379          48.300          42.100
 16  2 13  3 55 30.0000000  0 10G24G01G07G11G19G28G30G15G13G17
    435145.102 5    430539.28253  25349559.008
  25349549.176          34.000          20.100
 -14672855.278 6 -11144408.48344  23062513.719
  23062505.527          39.000          25.900
 -12527393.693 6  -9069590.32844  23517491.266
  23517480.438          38.700          25.600
 -12801145.243 6  -7424997.93744  23079802.305
  23079789.895          38.800          24.700
 -22737062.221 7 -16918692.88546  21631957.602
  21631944.078          45.100          37.400
 -20600072.867 8 -15007176.58846  20946541.461
  20946528.699          48.200          40.400
 -21418542.550 7 -15829285.75546  21366700.234
  21366690.402          47.300          37.700
 -12465761.090 7  -9102464.26044  23199692.570
  23199680.160          42.200          29.200
 -22499629.861 7 -15500650.43445  21457535.016
  21457523.074          46.600          35.700
 -24562817.896 8 -20958611.16347  20841859.133
  20841847.250          48.800          42.200
 16  2 13  3 56  0.0000000  0 10G24G01G07G11G19G28G30G15G13G17
    330763.059 5    349202.72543  25329695.289
  25329686.980          33.000          18.300
 -14681093.363 6 -11150827.77844  23060946.398
  23060937.504          38.900          24.200
 -12427829.108 6  -8992007.59043  23536438.492
  23536426.961          39.700          22.600
 -12750410.374 6  -7385464.26344  23089457.117
  23089444.004          39.200          24.100
 -22827441.437 7 -16989118.21146  21614758.805
  21614745.398          45.400          36.900
 -20579143.209 7 -14990867.76546  20950524.375
  20950511.379          47.900          39.500
 -21350996.666 7 -15776652.60946  21379553.477
  21379543.762          47.000          38.500
 -12488338.639 6  -9120057.16444  23195395.539
  23195383.715          40.800          27.800
 -22467442.498 7 -15475569.38245  21463659.445
  21463647.504          46.300          35.700
 -24601736.097 8 -20988937.02547  20834453.984
  20834441.691          48.900          42.300
 16  2 13  3 56 30.0000000  0 10G24G01G07G11G19G28G30G15G13G17
    226387.803 5    267871.35642  25309833.508
  25309824.965          33.000          17.400
 -14688743.291 6 -11156788.74544  23059490.508
  23059482.141          39.900          26.200
 -12328047.456 6  -8914255.70343  23555426.000
  23555415.055          37.900          22.600
 -12699119.969 6  -7345497.72743  23099217.250
  23099204.605          39.100          22.900
 -22917402.531 7 -17059217.73346  21597639.102
  21597626.164          45.400          37.100
 -20558033.386 7 -14974418.55946  20954541.250
  20954528.313          47.200          39.800
 -21283076.785 7 -15723728.03846  21392478.805
  21392468.738          47.500          38.800
 -12510358.723 6  -9137215.67944  23191205.445
  23191193.504          41.300          27.600
 -22434649.322 7 -15450016.26445  21469899.953
  21469887.895          46.500          35.600
 -24640162.275 8 -21018879.48247  20827141.391
  20827129.156          48.400          42.800
 16  2 13  3 57  0.0000000  0 10G24G01G07G11G19G28G30G15G13G17
    122020.065 4    186545.96142  25289971.750
  25289964.672          29.900          16.300
 -14695804.919 6 -11162291.31144  23058146.227
  23058137.684          39.100          25.200
 -12228050.475 6  -8836335.98643  23574453.664
  23574442.953          37.700          21.800
 -12647276.444 6  -7305100.18543  23109082.859
  23109070.156          39.300          23.600
 -23006944.314 7 -17128990.52146  21580600.602
  21580587.488          45.200          37.700
 -20536744.537 7 -14957829.83746  20958592.008
  20958579.422          46.800          39.100
 -21214784.430 7 -15670513.21646  21405473.852
  21405464.137          47.300          38.600
 -12531821.467 6  -9153939.88144  23187121.250
  23187109.426          41.800          28.300
 -22401252.961 7 -15423993.12345  21476255.258
  21476243.199          46.800          35.900
 -24678096.725 7 -21048438.77847  20819922.781
  20819910.488          47.900          42.100
 16  2 13  3 57 30.0000000  0 10G24G01G07G11G19G28G30G15G13G17
  -1557767.497 5  -1122379.31242  25270111.203
  25270104.828          31.800          13.900
 -14702286.208 6 -11167341.66044  23056913.750
  23056903.859          38.700          24.800
 -12127848.542 6  -8758256.62044  23593522.383
  23593511.262          39.200          24.300
 -12594890.046 6  -7264279.62043  23119051.336
  23119038.340          39.100          22.600
 -23096072.910 7 -17198441.34446  21563639.797
  21563626.391          45.600          37.700
 -20515285.937 7 -14941108.84046  20962675.711
  20962662.832          47.000          39.800
 -21146129.205 7 -15617015.65046  21418538.875
  21418528.984          47.800          38.500
 -12552735.424 6  -9170236.47044  23183141.344
  23183129.520          41.600          28.100
 -22367263.532 7 -15397507.86545  21482722.930
  21482710.871          47.100          35.500
 -24715547.493 7 -21077621.18347  20812796.164
  20812784.047          47.800          42.300
 16  2 13  3 58  0.0000000  0 10G24G01G07G11G19G28G30G15G13G17
  -1662126.56814                  25250252.070
                        26.800
 -14708179.738 6 -11171934.01044  23055791.734
  23055782.488          38.600          24.700
 -12027436.430 6  -8680013.46143  23612630.391
  23612619.387          39.100          22.600
 -12541956.102 6  -7223032.37443  23129124.359
  23129111.363          38.800          22.800
 -23184779.907 7 -17267563.64846  21546759.305
  21546746.484          45.300          37.900
 -20493651.664 7 -14924250.96446  20966793.188
  20966779.605          46.600          39.600
 -21077105.290 7 -15563230.79546  21431673.500
  21431664.020          46.600          38.300
 -12573093.353 6  -9186099.79944  23179266.859
  23179255.270          41.200          28.200
 -22332675.880 7 -15370556.46345  21489305.133
  21489292.547          47.000          35.500
 -24752508.212 7 -21106421.72547  20805762.633
  20805750.457          47.900          42.900
 16  2 13  3 58 30.0000000  0 10G24G01G07G11G19G28G30G15G13G17
  -1766481.85015                  25230395.305
                        30.700
 -14713491.284 6 -11176072.86744  23054781.109
  23054772.332          39.600          26.700
 -11926822.147 6  -8601612.75643  23631776.930
  23631765.750          38.800          23.800
 -12488482.539 6  -7181364.65443  23139299.031
  23139287.207          39.200          23.900
 -23273069.275 7 -17336360.52346  21529958.203
  21529945.266          45.500          37.500
 -20471848.456 7 -14907261.44546  20970941.797
  20970928.391          46.300          39.700
 -21007720.060 7 -15509164.39946  21444876.945
  21444867.641          47.300          38.300
 -12592901.286 6  -9201534.54744  23175498.180
  23175486.121          41.700          28.400
 -22297497.931 7 -15343145.08646  21495999.094
  21495986.742          47.000          36.200
 -24788984.639 8 -21134844.90147  20798821.328
  20798809.270          49.100          43.100
 16  2 13  3 59  0.0000000  0 10G24G01G07G11G19G28G30G15G13G17
  -1870825.25014                  25210540.797
                        28.300
 -14718213.588 6 -11179752.57044  23053882.945
  23053873.816          40.100          25.300
 -11826000.471 6  -8523050.46543  23650962.422
  23650951.945          37.800          22.800
 -12434464.744 6  -7139272.88543  23149578.695
  23149566.695          39.700          22.600
 -23360932.611 7 -17404825.43146  21513238.773
  21513225.602          45.700          37.700
 -20449870.270 7 -14890135.58246  20975123.711
  20975110.832          45.900          39.800
 -20937967.800 7 -15454812.01546  21458150.117
  21458140.813          47.300          38.600
 -12612152.758 7  -9216535.68844  23171834.828
  23171822.945          42.400          29.100
 -22261724.712 7 -15315269.86745  21502806.586
  21502794.000          46.600          35.500
 -24824969.448 8 -21162884.99747  20791973.359
  20791961.418          48.100          42.400
 16  2 13  3 59 30.0000000  0 10G24G01G07G11G19G28G30G15G13G17
  -1975160.872 5                  25190685.734
                        31.000
 -14722351.456 6 -11182976.88844  23053094.781
  23053086.121          39.400          25.300
 -11724978.546 6  -8444332.14543  23670185.320
  23670175.898          36.900          21.800
 -12379909.712 6  -7096762.45844  23159961.289
  23159948.059          39.600          24.900
 -23448373.030 7 -17472960.80646  21496599.305
  21496585.898          46.300          37.300
 -20427722.967 7 -14872877.94446  20979338.719
  20979325.723          46.400          39.300
 -20867854.827 7 -15400178.53646  21471492.461
  21471483.039          47.000          38.900
 -12630852.617 7  -9231106.99144  23168276.281
  23168264.457          42.000          29.100
 -22225363.385 7 -15286936.36946  21509726.266
  21509713.738          47.000          36.000
 -24860467.863 8 -21190546.09147  20785218.484
  20785206.543          48.400          42.500
 16  2 13  4  0  0.0000000  0 10G24G01G07G11G19G28G30G15G13G17
  -2079479.137 5                  25170832.734
                        31.900
 -14725896.748 6 -11185739.43344  23052420.383
  23052411.371          39.400          24.800
 -11623750.521 6  -8365453.21643  23689449.680
  23689438.207          37.800          21.700
 -12324811.965 6  -7053829.14843  23170445.750
  23170432.754          39.700          22.000
 -23535381.080 7 -17540759.25946  21480042.352
  21480028.594          46.400          38.200
 -20405399.858 7 -14855483.31246  20983586.305
  20983573.133          47.000          39.900
 -20797374.602 7 -15345258.89246  21484904.719
  21484894.945          47.000          38.500
 -12648993.050 6  -9245242.42344  23164823.961
  23164812.254          41.400          28.700
 -22188408.015 7 -15258139.98545  21516758.055
  21516745.938          47.000          35.900
 -24895472.391 7 -21217822.32647  20778557.070
  20778545.012          46.700          42.800
 16  2 13  4  0 30.0000000  0 10G24G01G07G11G19G28G30G15G13G17
  -2183782.645 5                  25150984.789
                        34.300
 -14728852.860 6 -11188042.87644  23051857.500
  23051848.605          38.400          24.900
 -11522321.330 6  -8286417.53843  23708749.586
  23708739.461          36.100          22.000
 -12269177.489 6  -7010477.58443  23181032.867
  23181018.699          39.700          22.600
 -23621958.734 7 -17608222.33646  21463566.984
  21463553.988          45.700          37.900
 -20382905.355 7 -14837955.12946  20987866.898
  20987854.195          47.200          39.800
 -20726532.012 7 -15290056.88446  21498385.289
  21498375.984          46.800          37.700
 -12666578.005 6  -9258944.97144  23161478.172
  23161466.465          41.900          29.300
 -22150864.311 7 -15228885.16345  21523902.625
  21523890.273          46.800          35.900
 -24929986.479 8 -21244716.41147  20771989.445
  20771977.152          48.600          42.700
 16  2 13  4  1  0.0000000  0 10G24G01G07G11G19G28G30G15G13G17
  -2288069.699 5                  25131139.992
                        35.200
 -14731219.445 6 -11189886.95144  23051407.688
  23051398.617          40.300          25.300
 -11420693.154 6  -8207226.80543  23728088.617
  23728078.844          36.100          22.200
 -12213008.237 6  -6966709.34043  23191720.195
  23191707.902          39.500          22.600
 -23708104.303 7 -17675348.71746  21447174.633
  21447160.992          47.300          38.400
 -20360240.168 7 -14820293.95246  20992179.984
  20992166.930          46.600          39.700
 -20655328.235 7 -15234573.44646  21511934.906
  21511925.367          46.300          37.700
 -12683607.371 7  -9272214.59044  23158238.063
  23158225.828          42.400          29.000
 -22112734.408 7 -15199173.56345  21531158.367
  21531146.250          46.300          35.600
 -24964010.490 7 -21271228.61447  20765515.313
  20765502.668          47.800          42.800
 16  2 13  4  1 30.0000000  0 10G24G01G07G11G19G28G30G15G13G17
  -2392338.908 5   -782533.10153  25111298.625
  25111290.316          35.700          19.000
 -14732995.635 6 -11191270.98444  23051069.961
  23051060.891          39.500          25.800
 -11318867.134 5  -8127881.91943  23747466.547
  23747455.309          35.300          21.100
 -12156305.633 6  -6922525.47843  23202510.602
  23202497.957          39.800          22.500
 -23793814.887 7 -17742136.15346  21430864.094
  21430850.395          47.000          38.000
 -20337404.379 7 -14802499.83746  20996525.727
  20996512.848          47.000          39.800
 -20583763.899 7 -15178809.04646  21525553.469
  21525543.637          46.000          38.300
 -12700080.440 6  -9285050.74444  23155102.742
  23155090.918          41.400          29.200
 -22074019.456 7 -15169006.07645  21538525.758
  21538513.641          46.800          35.600
 -24997543.567 8 -21297358.26947  20759133.977
  20759121.566          48.600          42.400
 16  2 13  4  2  0.0000000  0 10G24G01G07G11G19G28G30G15G13G17
  -2496588.520 5   -863766.52142  25091459.805
  25091450.969          34.800          16.900
 -14734181.246 6 -11192194.84944  23050843.469
  23050835.336          39.100          27.100
 -11216845.075 5  -8048384.29443  23766879.063
  23766869.465          35.300          21.800
 -12099071.723 6  -6877927.60543  23213402.945
  23213389.480          40.600          23.200
 -23879088.988 7 -17808583.47846  21414637.156
  21414623.340          46.900          38.400
 -20314398.810 7 -14784573.42046  21000903.578
  21000890.230          47.100          40.100
 -20511840.255 7 -15122764.67346  21539239.898
  21539230.242          46.400          37.000
 -12715997.105 6  -9297453.33144  23152073.961
  23152062.020          41.900          29.800
 -22034721.638 7 -15138384.41445  21546003.563
  21545991.797          46.600          35.900
 -25030585.478 8 -21323105.19747  20752846.258
  20752833.613          48.000          43.100
 16  2 13  4  2 30.0000000  0 10G24G01G07G11G19G28G30G15G13G17
  -2600814.115 5   -944981.20542  25071626.813
  25071617.566          33.300          17.800
 -14734772.952 6 -11192655.90444  23050732.117
  23050722.461          39.000          27.600
 -11114625.560 6  -7968732.76543  23786332.234
  23786321.699          37.000          22.000
 -12041305.649 6  -6832915.07543  23224394.633
  23224382.223          38.700          21.800
 -23963921.586 7 -17874686.77646  21398493.492
  21398479.910          47.400          38.900
 -20291220.920 7 -14766512.72146  21005313.727
  21005300.789          47.800          39.100
 -20439555.452 7 -15066438.87046  21552994.813
  21552985.332          46.300          37.300
 -12731354.888 6  -9309420.42944  23149151.453
  23149139.453          41.300          28.600
 -21994839.868 7 -15107307.71745  21553592.484
  21553580.953          46.200          35.200
 -25063133.121 7 -21348466.98547  20746652.320
  20746640.320          47.700          42.500
 16  2 13  4  3  0.0000000  0 10G24G01G07G11G19G28G30G15G13G17
  -2705020.991 5  -1026181.27742  25051796.258
  25051787.773          30.800          16.900
 -14734777.158 6 -11192659.15744  23050731.273
  23050721.852          39.400          25.900
 -11012217.594 6  -7888934.39443  23805820.898
  23805809.309          37.400          20.400
 -11983016.108 6  -6787494.65643  23235486.250
  23235473.840          39.000          22.300
 -24048317.711 7 -17940449.96246  21382433.773
  21382420.016          47.000          38.400
 -20267878.327 7 -14748323.68646  21009755.852
  21009742.445          47.200          39.200
 -20366917.383 7 -15009837.80346  21566817.078
  21566808.301          45.700          37.000
 -12746160.249 6  -9320957.08144  23146333.594
  23146321.594          41.900          28.800
 -21954382.625 7 -15075782.61145  21561291.813
  21561279.578          46.500          35.700
 -25095193.603 8 -21373449.16047  20740551.648
  20740539.473          48.300          43.100
 16  2 13  4  3 30.0000000  0 10G24G01G07G11G19G28G30G15G13G17
  -2809197.83214  -1107357.87652  25031972.156
  25031964.258          29.400          15.600
 -14734184.636 6 -11192197.45544  23050843.758
  23050834.453          39.600          25.900
 -10909613.252 6  -7808982.94143  23825345.891
  23825333.715          37.500          20.900
 -11924196.674 6  -6741661.34443  23246680.734
  23246667.328          39.800          22.500
 -24132266.788 7 -18005864.80246  21366458.688
  21366445.164          46.900          38.300
 -20244362.547 7 -14729999.69246  21014230.250
  21014217.605          47.200          39.500
 -20293918.164 7 -14952955.30346  21580708.867
  21580699.387          46.200          37.600
 -12760404.273 6  -9332056.30844  23143623.938
  23143611.000          41.600          29.100
 -21913343.202 7 -15043803.83845  21569101.148
  21569089.383          45.900          34.900
 -25126757.576 7 -21398044.45947  20734545.438
  20734533.379          47.900          43.100
 16  2 13  4  4  0.0000000  0 10G24G01G07G11G19G28G30G15G13G17
  -2913353.334 5  -1188517.88042  25012152.445
  25012143.961          31.000          16.300
 -14733004.170 6 -11191277.59644  23051067.539
  23051059.348          38.400          27.700
 -10806823.499 6  -7728887.07343  23844905.586
  23844894.113          38.300          20.400
 -11864858.448 6  -6695423.76243  23257971.492
  23257958.965          38.600          22.600
 -24215775.982 7 -18070936.86846  21350567.156
  21350553.926          46.600          38.200
 -20220683.474 7 -14711548.46646  21018736.680
  21018723.391          47.400          39.100
 -20220568.082 7 -14895799.41946  21594667.063
  21594657.348          46.400          37.100
 -12774096.295 7  -9342725.42544  23141018.258
  23141006.023          42.300          29.700
 -21871732.690 7 -15011380.08145  21577020.164
  21577007.285          47.000          35.600
 -25157834.425 7 -21422260.17047  20728631.039
  20728619.098          47.800          42.900
 16  2 13  4  4 30.0000000  0 10G24G01G07G11G19G28G30G15G13G17
  -3017477.312 5  -1269653.32442  24992338.336
  24992329.324          32.300          17.400
 -14731227.351 6 -11189893.06644  23051406.148
  23051397.313          39.200          26.200
 -10703842.064 6  -7648641.85343  23864501.992
  23864491.047          38.300          20.900
 -11804995.021 6  -6648776.94643  23269362.609
  23269350.141          37.900          21.700
 -24298835.394 7 -18135658.48146  21334761.625
  21334748.160          47.000          38.600
 -20196833.387 7 -14692963.98546  21023274.914
  21023262.504          47.600          39.800
 -20146860.079 7 -14838364.64546  21608693.695
  21608683.922          46.300          37.600
 -12787228.178 6  -9352958.04344  23138518.906
  23138507.023          41.700          29.400
 -21829544.719 7 -14978506.35245  21585047.695
  21585035.637          46.700          34.600
 -25188415.713 8 -21446089.73847  20722811.727
  20722799.902          48.600          43.300
 16  2 13  4  5  0.0000000  0 10G24G01G07G11G19G28G30G15G13G17
  -3121571.134 5  -1350765.31242  24972529.469
  24972520.691          32.200          16.900
 -14728857.250 6 -11188046.22444  23051857.578
  23051848.391          40.100          27.000
 -10600673.838 6  -7568251.06843  23884134.781
  23884123.367          38.900          20.600
 -11744611.511 6  -6601724.85443  23280853.703
  23280840.707          38.800          22.300
 -24381446.141 7 -18200030.46246  21319041.227
  21319027.879          47.000          38.500
 -20172816.307 7 -14674249.37746  21027845.219
  21027832.281          47.300          39.600
 -20072798.592 7 -14780654.42346  21622786.875
  21622777.277          46.200          36.900
 -12799802.842 7  -9362756.48644  23136126.547
  23136114.078          42.600          29.100
 -21786784.737 7 -14945186.88645  21593183.914
  21593172.676          47.000          35.000
 -25218504.857 8 -21469535.80747  20717086.250
  20717074.016          48.800          43.200
 16  2 13  4  5 30.0000000  0 10G24G01G07G11G19G28G30G15G13G17
  -3225632.793 5  -1431852.23542  24952727.359
  24952718.348          33.700          17.800
 -14725892.682 6 -11185736.15944  23052421.797
  23052412.375          38.100          26.700
 -10497319.550 6  -7487715.26443  23903802.656
  23903791.535          38.500          21.500
 -11683709.835 6  -6554269.02243  23292442.758
  23292430.758          38.800          22.500
 -24463605.357 7 -18264050.60646  21303406.445
  21303393.391          46.300          38.500
 -20148631.785 7 -14655404.29346  21032447.375
  21032434.789          47.800          39.500
 -19998383.824 7 -14722668.89446  21636947.492
  21636938.305          46.000          37.500
 -12811819.710 7  -9372120.28044  23133839.188
  23133827.363          42.100          29.100
 -21743453.724 7 -14911422.47345  21601430.328
  21601417.977          47.000          34.700
 -25248100.739 8 -21492597.52747  20711454.383
  20711442.090          48.600          43.100
 16  2 13  4  6  0.0000000  0 10G24G01G07G11G19G28G30G15G13G17
  -3329660.256 5  -1512912.56942  24932931.031
  24932922.898          34.600          16.300
 -14722333.519 6 -11182962.77544  23053098.695
  23053089.801          39.800          27.000
 -10393780.897 6  -7407035.82243  23923505.195
  23923494.543          38.300          20.600
 -11622291.981 6  -6506410.95443  23304131.742
  23304117.926          39.200          22.000
 -24545311.439 7 -18327717.66146  21287858.859
  21287845.453          47.200          38.500
 -20124280.335 7 -14636429.13646  21037081.344
  21037068.348          47.600          39.100
 -19923616.999 7 -14664409.04646  21651175.266
  21651165.551          46.100          37.300
 -12823279.170 7  -9381049.71945  23131658.641
  23131646.758          42.100          30.000
 -21699553.725 7 -14877214.69145  21609784.281
  21609772.047          47.700          34.900
 -25277203.515 8 -21515275.00547  20705916.414
  20705904.004          48.600          43.400
 16  2 13  4  6 30.0000000  0 10G24G01G07G11G19G28G30G15G13G17
  -3433652.303 5  -1593945.27942  24913141.211
  24913134.016          35.200          16.300
 -14718179.688 6 -11179726.03944  23053888.914
  23053880.020          39.600          27.000
 -10290059.910 6  -7326214.31843  23943242.914
  23943231.324          37.200          20.400
 -11560359.889 6  -6458152.17443  23315915.164
  23315903.281          37.900          23.000
 -24626562.650 7 -18391030.26646  21272396.875
  21272383.059          46.700          38.800
 -20099762.813 8 -14617324.57146  21041747.195
  21041733.965          48.200          39.600
 -19848499.326 7 -14605875.80646  21665469.539
  21665459.883          46.400          37.100
 -12834181.279 7  -9389544.86545  23129584.641
  23129572.348          42.000          30.000
 -21655087.067 7 -14842565.35345  21618245.992
  21618233.875          47.600          34.600
 -25305813.435 7 -21537568.44147  20700471.859
  20700459.918          47.900          42.900
 16  2 13  4  7  0.0000000  0 10G24G01G07G11G19G28G30G15G13G17
  -3537603.822 6  -1674946.51942  24893359.938
  24893352.566          36.900          16.300
 -14713427.879 6 -11176023.29844  23054793.016
  23054783.828          40.100          26.700
 -10186155.228 5  -7245249.68843  23963013.984
  23963004.152          33.600          18.300
 -11497912.873 6  -6409492.13943  23327798.234
  23327786.586          36.800          21.700
 -24707354.271 7 -18453984.75646  21257022.914
  21257009.449          47.300          38.500
 -20075076.183 7 -14598088.24346  21046444.883
  21046432.355          47.800          40.100
 -19773028.799 7 -14547067.62346  21679831.102
  21679821.152          46.800          36.700
 -12844523.046 7  -9397603.38144  23127616.086
  23127604.027          42.200          29.000
 -21610052.574 7 -14807473.54245  21626815.344
  21626803.637          46.600          34.700
 -25333927.032 8 -21559475.13347  20695121.852
  20695109.617          48.700          43.500
 16  2 13  4  7 30.0000000  0 10G24G01G07G11G19G28G30G15G13G17
  -3641520.626 5  -1755920.65442  24873585.844
  24873577.594          35.800          14.800
 -14708085.230 6 -11171860.20044  23055810.125
  23055801.055          39.800          26.000
 -10082075.547 5  -7164148.70743  23982820.516
  23982810.098          33.700          19.000
 -11434960.299 6  -6360438.18743  23339778.203
  23339765.148          38.100          21.300
 -24787691.633 7 -18516585.26846  21241734.938
  21241721.707          47.200          39.100
 -20050228.693 7 -14578726.56446  21051173.250
  21051160.430          47.000          39.700
 -19697213.952 7 -14487991.14146  21694258.180
  21694248.699          46.700          36.600
 -12854311.740 6  -9405230.92244  23125753.664
  23125741.313          41.600          29.500
 -21564459.735 7 -14771946.65445  21635491.227
  21635479.695          47.300          34.500
 -25361551.915 8 -21581001.00647  20689865.500
  20689853.090          48.500          43.300
 16  2 13  4  8  0.0000000  0 10G24G01G07G11G19G28G30G15G13G17
  -3745394.591 5  -1836861.38442  24853818.578
  24853811.148          34.800          16.900
 -14702145.118 6 -11167231.53044  23056940.344
  23056931.215          39.900          26.900
  -9977815.701 5  -7082907.29543  24002661.070
  24002650.535          35.500          19.300
 -11371497.577 6  -6310986.72643  23351854.961
  23351842.434          37.400          21.500
 -24867566.397 7 -18578825.32146  21226535.320
  21226521.797          46.800          39.100
 -20025214.246 7 -14559234.78946  21055933.281
  21055920.695          47.500          39.800
 -19621049.445 7 -14428642.19246  21708751.891
  21708742.527          47.000          36.600
 -12863540.833 7  -9412422.41645  23123996.945
  23123985.531          42.100          30.200
 -21518304.256 7 -14735981.35945  21644274.875
  21644262.523          46.800          34.100
 -25388681.507 7 -21602140.94847  20684702.484
  20684690.484          47.400          43.700
 16  2 13  4  8 30.0000000  0 10G24G01G07G11G19G28G30G15G13G17
  -3849225.931 5  -1917768.88942  24834059.516
  24834052.613          34.100          16.900
 -14695609.490 6 -11162138.83444  23058184.023
  23058175.422          38.200          25.300
  -9873379.682 5  -7001528.64543  24022534.516
  24022524.508          35.500          19.900
 -11307529.194 6  -6261141.25543  23364027.602
  23364015.602          37.300          21.300
 -24946978.762 7 -18640705.05946  21211423.734
  21211410.152          47.200          38.500
 -20000035.083 7 -14539614.65546  21060724.891
  21060711.543          47.200          39.600
 -19544538.362 7 -14369023.18646  21723311.641
  21723301.867          46.800          36.600
 -12872212.859 6  -9419179.82844  23122346.859
  23122335.094          41.400          29.000
 -21471589.971 7 -14699580.63245  21653164.805
  21653151.926          47.400          34.700
 -25415317.991 8 -21622896.63747  20679634.039
  20679621.805          48.000          43.300
 16  2 13  4  9  0.0000000  0 10G24G01G07G11G19G28G30G15G13G17
  -3953010.84115  -1998640.15152  24814310.570
  24814302.730          32.000          16.300
 -14688476.096 6 -11156580.34844  23059541.422
  23059532.059          39.800          25.300
  -9768767.169 5  -6920012.43743  24042442.305
  24042431.652          35.900          20.400
 -11243055.304 6  -6210901.88043  23376295.695
  23376284.750          37.100          21.100
 -25025924.880 7 -18702221.48746  21196401.164
  21196387.699          47.000          39.300
 -19974689.609 7 -14519864.93346  21065547.594
  21065534.598          47.700          39.600
 -19467679.818 7 -14309133.42846  21737937.445
  21737927.672          46.400          36.600
 -12880325.893 7  -9425501.68144  23120803.727
  23120791.492          42.500          29.400
 -21424317.159 7 -14662744.68045  21662160.344
  21662147.934          46.900          34.600
 -25441459.194 8 -21643266.40347  20674659.320
  20674647.379          48.000          43.600
 16  2 13  4  9 30.0000000  0 10G24G01G07G11G19G28G30G15G13G17
  -4056752.223 5  -2079477.56442  24794570.352
  24794560.988          31.800          16.900
 -14680749.858 6 -11150559.87544  23061012.117
  23061002.461          39.600          25.500
  -9663984.782 5  -6838363.85643  24062380.594
  24062370.996          35.400          20.400
 -11178082.697 6  -6160273.86543  23388660.422
  23388647.953          37.600          21.100
 -25104407.823 7 -18763377.00146  21181466.297
  21181452.773          47.000          39.300
 -19949183.404 8 -14499989.96746  21070401.406
  21070388.703          48.000          40.500
 -19390479.898 7 -14248977.65846  21752628.195
  21752617.953          46.700          37.100
 -12887884.901 6  -9431391.80344  23119365.164
  23119353.047          41.300          28.900
 -21376492.733 7 -14625478.91245  21671260.320
  21671248.555          46.200          34.200
 -25467109.914 8 -21663253.96547  20669778.031
  20669765.621          48.600          43.300
 16  2 13  4 10  0.0000000  0 10G24G01G07G11G19G28G30G15G13G17
  -4160444.550 5  -2160276.67042  24774837.125
  24774829.344          31.500          16.900
 -14672426.455 6 -11144074.11544  23062596.195
  23062586.773          39.500          26.000
  -9559030.015 5  -6756580.98143  24082353.258
  24082343.250          35.700          21.700
 -11112609.468 6  -6109255.79643  23401119.867
  23401106.871          38.700          22.000
 -25182421.698 7 -18824167.00146  21166620.094
  21166607.039          47.500          39.900
 -19923512.805 8 -14479986.90246  21075286.719
  21075274.074          48.100          40.400
 -19312935.536 7 -14188553.50346  21767384.617
  21767374.844          46.200          36.500
 -12894886.145 6  -9436847.32844  23118032.188
  23118020.305          41.400          29.700
 -21328114.421 7 -14587781.55145  21680466.742
  21680454.684          46.600          34.200
 -25492266.287 8 -21682856.31447  20664991.180
  20664978.770          48.900          43.600
 16  2 13  4 10 30.0000000  0 10G24G01G07G11G19G28G30G15G13G17
  -4264085.442 5  -2241035.78642  24755115.438
  24755106.953          30.700          16.900
 -14663505.487 6 -11137122.68644  23064293.195
  23064283.656          39.500          25.800
  -9453904.247 6  -6674664.84743  24102357.906
  24102347.313          37.300          21.100
 -11046637.638 6  -6057849.17843  23413674.609
  23413660.676          38.500          22.500
 -25259964.323 7 -18884589.80146  21151864.328
  21151850.980          47.300          39.300
 -19897677.347 8 -14459855.36646  21080203.078
  21080190.258          48.200          40.000
 -19235047.564 7 -14127861.59946  21782205.867
  21782196.328          46.300          36.700
 -12901329.321 7  -9441867.97245  23116806.891
  23116794.188          42.100          30.100
 -21279184.485 7 -14549654.33345  21689777.250
  21689765.602          46.000          34.200
 -25516928.184 8 -21702073.36247  20660298.125
  20660285.480          48.800          43.500
 16  2 13  4 11  0.0000000  0 11G24G01G07G06G11G19G28G30G15G13G17
  -4367673.875 4  -2321753.96342  24735402.617
  24735394.191          29.100          17.400
 -14653987.975 6 -11129706.44344  23066104.125
  23066094.996          39.900          26.500
  -9348609.900 6  -6592617.35643  24122394.469
  24122383.816          36.800          21.300
   -653219.19615                  25169777.102
                        31.200
 -10980170.135 6  -6006056.29543  23426322.430
  23426309.316          39.300          22.200
 -25337035.072 8 -18944644.89646  21137198.703
  21137185.238          48.200          38.800
 -19871679.089 7 -14439596.98646  21085150.023
  21085137.086          47.400          39.600
 -19156818.119 7 -14066903.60546  21797092.672
  21797082.605          45.600          37.200
 -12907215.483 7  -9446454.58944  23115686.711
  23115674.184          42.000          28.900
 -21229705.869 7 -14511099.58345  21699192.875
  21699181.285          46.400          34.900
 -25541096.607 8 -21720905.88147  20655699.383
  20655686.680          48.900          44.000
 16  2 13  4 11 30.0000000  0 11G24G01G07G06G11G19G28G30G15G13G17
  -6046628.05914  -3630029.85952  24715699.352
  24715692.449          28.900          16.300
 -14643873.357 6 -11121824.92644  23068028.547
  23068020.063          39.400          27.300
  -9243148.081 6  -6510439.34343  24142463.953
  24142452.598          37.200          20.100
   -757928.795 5                  25149851.141
                        31.900
 -10913208.757 6  -5953878.60543  23439064.727
  23439051.672          39.900          22.000
 -25413631.653 7 -19004330.51746  21122622.305
  21122609.309          46.800          39.000
 -19845517.670 7 -14419211.46646  21090128.648
  21090115.652          47.900          39.900
 -19078247.844 7 -14005680.01846  21812043.680
  21812034.492          44.500          36.400
 -12912544.669 7  -9450607.18444  23114672.172
  23114660.230          42.200          29.200
 -21179680.044 7 -14472118.42145  21708712.906
  21708700.965          46.700          34.600
 -25564771.096 8 -21739353.50847  20651194.086
  20651181.852          49.500          43.800
 16  2 13  4 12  0.0000000  0 11G24G01G07G06G11G19G28G30G15G13G17
  -6150108.236 5  -3710663.65943  24696008.844
  24696000.652          32.400          18.300
 -14633163.936 6 -11113479.91444  23070066.875
  23070057.746          40.400          26.800
  -9137523.030 6  -6428134.15543  24162564.297
  24162552.824          37.700          20.400
   -862748.694 5                  25129905.336
                        32.400
 -10845758.228 6  -5901319.74043  23451901.133
  23451887.082          40.200          22.900
 -25489754.239 7 -19063646.78846  21108137.133
  21108123.492          47.400          39.700
 -19819195.704 7 -14398700.84946  21095137.500
  21095124.445          47.600          39.200
 -18999340.246 7 -13944193.60946  21827059.281
  21827050.328          45.600          37.100
 -12917319.442 6  -9454327.78945  23113763.852
  23113752.262          41.600          30.900
 -21129112.070 7 -14432714.81645  21718335.844
  21718323.609          46.100          34.300
 -25587953.958 8 -21757418.07047  20646782.469
  20646770.176          49.300          44.000
 16  2 13  4 12 30.0000000  0 11G24G01G07G06G11G19G28G30G15G13G17
  -6253529.094 5  -3791251.24743  24676328.891
  24676319.996          34.700          20.400
 -14621857.041 6 -11104669.32844  23072218.883
  23072209.344          39.900          25.700
  -9031733.303 6  -6345700.59143  24182696.133
  24182683.781          37.900          19.900
   -967673.387 5                  25109938.359
                        33.500
 -10777817.794 6  -5848379.12343  23464828.055
  23464815.703          39.000          22.900
 -25565398.659 7 -19122590.46246  21093742.273
  21093728.750          47.000          39.500
 -19792710.701 8 -14378063.18146  21100177.375
  21100164.379          48.500          39.400
 -18920093.626 7 -13882443.02345  21842139.336
  21842129.973          44.800          35.600
 -12921537.311 6  -9457614.42944  23112960.617
  23112948.734          41.800          28.600
 -21078001.035 7 -14392888.04745  21728061.875
  21728049.758          46.000          34.000
 -25610642.458 8 -21775097.41347  20642464.898
  20642452.781          49.200          43.900
 16  2 13  4 13  0.0000000  0 11G24G01G07G06G11G19G28G30G15G13G17
  -6356890.512 5  -3871792.59443  24656659.906
  24656650.836          35.200          20.600
 -14609953.477 6 -11095393.83544  23074483.883
  23074474.637          40.200          26.100
  -8925781.731 6  -6263141.04143  24202857.953
  24202846.246          37.900          21.100
  -1072701.351 5                  25089950.930
                        31.800
 -10709390.352 6  -5795059.03943  23477850.281
  23477836.699          38.300          21.700
 -25640563.968 7 -19181160.80246  21079438.852
  21079425.270          47.800          40.100
 -19766063.930 7 -14357299.47146  21105247.891
  21105235.070          47.000          39.300
 -18840510.118 7 -13820429.90945  21857283.500
  21857274.254          44.300          35.600
 -12925199.484 7  -9460468.07244  23112264.188
  23112252.363          42.500          29.900
 -21026349.913 7 -14352640.43345  21737890.047
  21737878.105          45.300          34.300
 -25632837.712 8 -21792392.41647  20638241.188
  20638229.012          49.100          44.100
 16  2 13  4 13 30.0000000  0 11G24G01G07G06G11G19G28G30G15G13G17
  -6460190.372 5  -3952285.93543  24637002.891
  24636993.176          34.800          19.300
 -14597453.661 6 -11085653.68544  23076862.609
  23076853.188          39.600          26.000
  -8819669.660 6  -6180456.35643  24223049.492
  24223038.957          38.000          19.000
  -1177830.15015                  25069946.984
                        31.900
 -10640478.521 6  -5741361.52043  23490962.859
  23490950.918          38.700          21.100
 -25715248.693 7 -19239356.65346  21065227.188
  21065213.254          47.800          39.700
 -19739255.995 7 -14336410.16246  21110349.102
  21110336.516          47.200          38.900
 -18760590.986 7 -13758155.28545  21872491.781
  21872482.711          45.300          35.200
 -12928306.440 7  -9462889.05744  23111672.594
  23111660.945          42.200          29.500
 -20974161.351 7 -14311974.04445  21747821.969
  21747809.793          46.200          34.000
 -25654539.849 8 -21809303.15547  20634111.313
  20634099.137          49.100          43.900
 16  2 13  4 14  0.0000000  0 11G24G01G07G06G11G19G28G30G15G13G17
  -6563424.921 5  -4032728.34743  24617357.945
  24617347.820          34.400          19.000
 -14584355.630 6 -11075447.43544  23079354.945
  23079345.582          39.700          26.200
  -8713397.400 6  -6097646.82542  24243270.938
  24243261.457          36.100          17.800
  -1283055.70515                  25049921.219
                        31.800
 -10571082.630 6  -5687286.80343  23504169.141
  23504156.262          38.600          21.700
 -25789449.203 7 -19297175.20846  21051106.453
  21051093.398          47.300          39.300
 -19712285.368 7 -14315394.08946  21115481.523
  21115468.762          47.600          39.300
 -18680335.608 7 -13695618.65145  21887763.922
  21887754.734          45.100          35.500
 -12930856.282 6  -9464875.95945  23111187.305
  23111175.363          41.900          30.400
 -20921435.547 7 -14270889.00145  21757854.938
  21757842.996          45.800          33.700
 -25675747.549 8 -21825828.63847  20630075.547
  20630063.430          49.500          43.900
 16  2 13  4 14 30.0000000  0 11G24G01G07G06G11G19G28G30G15G13G17
  -6666594.717 5  -4113120.29542  24597724.867
  24597715.914          34.200          17.800
 -14570661.726 6 -11064776.83244  23081960.680
  23081951.902          39.300          26.100
  -8606968.421 6  -6014715.20142  24263523.984
  24263513.566          36.700          17.800
  -1388377.272 5                  25029880.805
                        31.000
 -10501206.855 6  -5632838.15543  23517465.734
  23517453.324          38.400          21.100
 -25863165.776 7 -19354616.67146  21037079.180
  21037065.012          47.900          40.600
 -19685154.210 7 -14294252.92746  21120644.672
  21120631.617          47.500          38.900
 -18599747.218 7 -13632822.53045  21903099.617
  21903090.078          45.100          35.600
 -12932851.595 6  -9466430.73744  23110808.125
  23110795.949          41.100          29.600
 -20868177.072 7 -14229388.89745  21767990.008
  21767977.891          46.700          34.100
 -25696462.930 8 -21841970.49047  20626133.609
  20626121.316          49.300          44.300
 16  2 13  4 15  0.0000000  0 11G24G01G07G06G11G19G28G30G15G13G17
  -6769695.201 5  -4193458.31942  24578105.969
  24578096.840          35.100          16.300
 -14556369.762 6 -11053640.26244  23084680.281
  23084671.504          39.100          27.100
  -8500382.322 6  -5931661.11742  24283807.352
  24283797.285          36.500          17.400
  -1493790.038 5    -85256.23042  25009821.000
  25009814.391          31.900          17.800
 -10430851.651 6  -5578015.90743  23530853.383
  23530840.973          37.100          20.600
 -25936394.598 7 -19411678.08946  21023143.930
  21023130.406          47.700          40.200
 -19657861.092 7 -14272985.56646  21125838.063
  21125825.242          47.900          39.400
 -18518824.814 7 -13569766.13745  21918498.133
  21918488.770          45.200          35.700
 -12934290.757 6  -9467552.15445  23110533.180
  23110521.707          41.100          30.100
 -20814385.819 7 -14187473.65145  21778225.758
  21778214.168          46.500          34.100
 -25716683.848 8 -21857727.04047  20622285.852
  20622273.559          49.500          44.100
 16  2 13  4 15 30.0000000  0 11G24G01G07G06G11G19G28G30G15G13G17
  -6872730.740 5  -4273745.71042  24558499.719
  24558489.652          35.600          16.900
 -14541486.123 6 -11042042.58844  23087513.297
  23087503.699          40.700          26.800
  -8393646.576 6  -5848490.43642  24304118.789
  24304108.898          36.600          16.900
  -1599297.644 5   -167469.96242  24989743.313
  24989736.820          32.900          15.600
 -10360025.140 6  -5522826.42643  23544331.898
  23544319.078          36.500          19.900
 -26009140.061 7 -19468362.85346  21009301.070
  21009287.195          47.600          40.500
 -19630412.127 7 -14251596.76146  21131061.695
  21131048.523          46.700          39.000
 -18437575.681 7 -13506455.15245  21933959.875
  21933950.336          43.800          35.400
 -12935180.706 6  -9468245.63544  23110365.078
  23110352.844          41.100          29.600
 -20760070.351 7 -14145149.91045  21788562.398
  21788549.988          45.700          34.000
 -25736416.560 8 -21873103.17247  20618530.664
  20618518.430          49.900          44.000
 16  2 13  4 16  0.0000000  0 11G24G01G07G06G11G19G28G30G15G13G17
  -6975693.176 6  -4353976.20943  24538905.578
  24538896.039          36.100          18.600
 -14526004.824 6 -11029979.24244  23090457.477
  23090449.461          39.400          25.100
  -8286756.988 5  -5765199.84742  24324458.922
  24324449.324          33.900          16.300
  -1704891.255 5   -249750.70042  24969650.828
  24969642.695          33.800          17.400
 -10288723.539 6  -5467266.76043  23557900.164
  23557887.813          37.900          18.600
 -26081394.587 8 -19524665.04546  20995551.391
  20995537.809          48.000          40.400
 -19602801.453 7 -14230081.94746  21136315.625
  21136303.156          46.800          39.400
 -18355994.925 7 -13442885.75545  21949484.055
  21949474.867          45.100          35.100
 -12935515.354 6  -9468506.40144  23110300.227
  23110288.813          41.200          29.700
 -20705226.556 7 -14102414.50045  21798998.180
  21798986.238          46.300          34.500
 -25755655.217 8 -21888094.32847  20614870.039
  20614857.629          48.800          44.000
 16  2 13  4 16 30.0000000  0 11G24G01G07G06G11G19G28G30G15G13G17
  -7078581.886 5  -4434149.20243  24519326.688
  24519317.090          35.500          19.300
 -14509927.606 6 -11017451.54844  23093517.672
  23093508.895          39.400          25.300
  -8179716.702 5  -5681791.88342  24344828.102
  24344818.504          34.800          17.400
  -1810570.005 5   -332097.75642  24949540.219
  24949532.730          34.000          17.800
 -10216950.714 6  -5411339.89543  23571557.922
  23571545.102          37.900          19.300
 -26153157.689 7 -19580584.34346  20981894.969
  20981881.797          47.600          40.300
 -19575030.965 7 -14208442.60046  21141600.406
  21141587.410          46.800          38.900
 -18274085.313 7 -13379060.11145  21965070.789
  21965061.016          44.800          35.300
 -12935296.454 6  -9468335.82744  23110342.227
  23110330.754          40.600          29.100
 -20649858.579 7 -14059270.62945  21809533.922
  21809522.625          45.400          34.200
 -25774401.638 8 -21902701.91747  20611302.297
  20611290.121          49.800          44.700
 16  2 13  4 17  0.0000000  0 11G24G01G07G06G11G19G28G30G15G13G17
  -7181395.338 5  -4514263.48843  24499762.750
  24499751.805          33.500          19.600
 -14493254.865 6 -11004459.78044  23096690.688
  23096681.324          40.600          26.500
  -8072527.294 5  -5598267.68743  24365224.977
  24365215.906          34.000          18.300
  -1916331.186 5   -414509.04742  24929412.742
  24929407.129          33.300          16.900
 -10144709.189 6  -5355047.74543  23585304.297
  23585292.004          37.200          18.600
 -26224428.158 7 -19636119.75846  20968333.164
  20968319.348          47.700          39.600
 -19547100.851 7 -14186678.88346  21146915.414
  21146902.535          46.800          39.200
 -18191848.145 7 -13314979.22245  21980720.453
  21980710.621          44.500          35.100
 -12934524.675 6  -9467734.43345  23110489.766
  23110477.707          41.100          30.000
 -20593968.997 7 -14015720.31045  21820170.031
  21820157.914          45.600          33.600
 -25792656.110 8 -21916926.17047  20607828.945
  20607816.477          49.100          44.400
 16  2 13  4 17 30.0000000  0 11G24G01G07G06G11G19G28G30G15G13G17
  -7284130.968 5  -4594317.18442  24480211.961
  24480202.539          32.500          17.400
 -14475986.359 6 -10991003.78744  23099976.922
  23099967.969          39.600          27.400
  -7965189.917 5  -5514628.22242  24385651.742
  24385641.383          33.500          17.800
  -2022171.885 5   -496982.29743  24909273.227
  24909266.500          33.200          18.300
 -10072000.555 6  -5298391.68643  23599140.375
  23599128.258          37.100          19.300
 -26295203.792 7 -19691269.56846  20954864.625
  20954851.395          47.100          40.000
 -19519011.482 7 -14164791.05946  21152260.461
  21152247.172          46.500          39.100
 -18109284.181 7 -13250643.68845  21996431.383
  21996421.902          44.600          34.300
 -12933200.190 6  -9466702.36344  23110741.203
  23110729.438          41.100          28.800
 -20537559.599 7 -13971764.95645  21830905.047
  21830892.344          45.200          33.800
 -25810418.543 8 -21930767.01747  20604448.484
  20604436.309          49.500          44.000
 16  2 13  4 18  0.0000000  0 11G24G01G07G06G11G19G28G30G15G13G17
  -7386788.442 5  -4674309.99842  24460677.555
  24460667.664          32.000          15.600
 -14458123.694 6 -10977084.85044  23103376.453
  23103366.973          40.000          26.900
  -7857708.146 5  -5430876.16842  24406105.703
  24406094.641          34.600          17.800
  -2128090.662 5   -579516.38842  24889117.594
  24889109.520          35.000          17.400
  -9998828.453 6  -5241374.45243  23613065.484
  23613052.371          37.800          19.000
 -26365484.259 7 -19746033.52946  20941490.680
  20941477.215          47.000          40.800
 -19490764.062 7 -14142780.08446  21157635.563
  21157622.625          47.000          39.100
 -18026396.071 7 -13186055.58145  22012205.023
  22012195.016          44.000          35.000
 -12931324.733 6  -9465240.96844  23111098.078
  23111086.605          40.900          29.300
 -20480634.045 7 -13927407.38945  21841737.258
  21841725.258          45.400          33.700
 -25827690.313 8 -21944225.53147  20601161.891
  20601149.891          49.200          44.100
 16  2 13  4 18 30.0000000  0 11G24G01G07G06G11G19G28G30G15G13G17
  -7489365.004 5  -4754239.73942  24441157.602
  24441148.180          33.600          14.800
 -14439666.825 6 -10962702.86944  23106888.047
  23106879.797          39.700          26.700
  -7750082.568 5  -5347012.12643  24426585.836
  24426575.184          34.300          19.000
  -2234084.414 6   -662108.88643  24868949.102
  24868940.324          36.600          18.600
  -9925194.867 6  -5183997.65843  23627077.703
  23627064.824          38.100          19.000
 -26435267.612 7 -19800410.13546  20928211.195
  20928197.613          47.900          40.400
 -19462358.567 7 -14120645.93846  21163040.953
  21163028.074          47.300          39.400
 -17943184.544 7 -13121215.45645  22028038.961
  22028029.773          44.700          34.500
 -12928898.295 7  -9463350.25044  23111560.563
  23111548.152          42.300          28.500
 -20423194.019 7 -13882648.94445  21852667.648
  21852655.590          45.600          33.400
 -25844471.833 8 -21957302.02247  20597968.648
  20597956.238          49.400          44.400
 16  2 13  4 19  0.0000000  0 11G24G01G07G06G11G19G28G30G15G13G17
  -7591858.138 5  -4834104.52042  24421654.773
  24421644.473          33.100          17.800
 -14420615.647 6 -10947857.80444  23110513.945
  23110504.875          40.700          27.600
  -7642314.655 6  -5263037.15743  24447093.453
  24447082.391          36.100          20.100
  -2340150.220 5   -744757.58842  24848764.016
  24848755.414          35.900          17.800
  -9851102.055 6  -5126263.00643  23641177.039
  23641164.629          37.400          19.600
 -26504551.944 7 -19854397.90546  20915026.797
  20915013.684          47.500          40.900
 -19433794.913 7 -14098388.52946  21168476.180
  21168464.004          46.800          38.800
 -17859650.510 7 -13056124.02945  22043934.875
  22043925.922          44.400          34.400
 -12925921.149 7  -9461030.38644  23112126.078
  23112114.664          42.000          28.900
 -20365242.291 7 -13837491.75245  21863695.578
  21863683.285          45.800          33.600
 -25860762.410 8 -21969995.96647  20594868.523
  20594856.348          49.600          44.500
 16  2 13  4 19 30.0000000  0 11G24G01G07G06G11G19G28G30G15G13G17
  -7694265.743 5  -4913902.59442  24402165.898
  24402156.242          33.700          17.800
 -14400969.949 6 -10932549.44244  23114252.125
  23114242.879          40.000          26.500
  -7534405.742 5  -5178952.35543  24467628.008
  24467616.125          35.300          18.300
  -2446284.904 5   -827459.94142  24828566.617
  24828558.777          35.200          17.400
  -9776551.525 6  -5068171.71043  23655362.648
  23655350.414          37.300          19.900
 -26573335.194 7 -19907995.21746  20901938.195
  20901924.438          47.200          40.300
 -19405072.672 7 -14076007.56846  21173942.063
  21173929.359          47.300          38.900
 -17775794.678 7 -12990781.84345  22059892.172
  22059883.277          44.500          35.300
 -12922393.471 7  -9458281.55844  23112797.938
  23112785.703          42.200          29.800
 -20306780.412 7 -13791937.06545  21874820.414
  21874808.414          46.000          33.200
 -25876561.990 8 -21982307.32347  20591862.039
  20591849.688          49.300          44.200
 16  2 13  4 20  0.0000000  0 11G24G01G07G06G11G19G28G30G15G13G17
  -7796585.753 5  -4993632.42442  24382693.648
  24382684.813          33.800          17.800
 -14380730.259 6 -10916778.26444  23118103.977
  23118094.438          40.300          28.200
  -7426357.745 6  -5094759.13343  24488188.719
  24488176.836          36.000          19.300
  -2552485.865 5   -910213.91843  24808357.750
  24808349.734          34.400          19.000
  -9701545.952 6  -5009725.82343  23669634.836
  23669623.832          36.100          20.600
 -26641615.905 7 -19961200.96246  20888944.852
  20888931.211          46.900          41.200
 -19376191.907 7 -14053503.07046  21179437.953
  21179425.016          47.200          38.200
 -17691618.359 7 -12925189.91845  22075911.016
  22075901.594          44.100          35.300
 -12918315.880 7  -9455104.22144  23113573.719
  23113561.484          42.200          29.400
 -20247810.766 7 -13745986.69645  21886041.617
  21886029.617          46.100          32.900
 -25891871.043 8 -21994236.44947  20588948.539
  20588936.129          49.400          44.000
 16  2 13  4 20 30.0000000  0 11G24G01G07G06G11G19G28G30G15G13G17
  -7898816.067 5  -5073292.37043  24363241.594
  24363231.176          35.100          19.000
 -14359897.101 6 -10900544.61744  23122067.742
  23122058.848          39.300          27.100
  -7318172.092 5  -5010458.66943  24508774.289
  24508764.340          35.500          18.600
  -2658750.401 5   -993017.40943  24788134.992
  24788128.441          33.600          18.600
  -9626087.613 6  -4950927.11343  23683995.094
  23683982.801          36.900          21.500
 -26709392.490 7 -20014013.86846  20876047.344
  20876033.645          47.500          41.000
 -19347153.242 7 -14030875.54546  21184964.148
  21184950.684          47.000          38.600
 -17607122.905 7 -12859349.32945  22091990.039
  22091980.266          44.200          35.200
 -12913689.171 7  -9451498.99444  23114453.898
  23114442.309          43.200          28.800
 -20188336.008 7 -13699642.74645  21897359.523
  21897347.465          45.700          33.300
 -25906689.819 8 -22005783.53747  20586128.789
  20586116.379          49.500          44.200
 16  2 13  4 21  0.0000000  0 11G24G01G07G06G11G19G28G30G15G13G17
  -8000955.256 6  -5152881.28943  24343804.219
  24343794.973          36.100          20.400
 -14338471.210 6 -10883849.10944  23126145.852
  23126135.609          40.200          25.800
  -7209850.961 5  -4926052.60442  24529386.422
  24529376.590          33.600          17.400
  -2765076.285 5  -1075868.77543  24767903.258
  24767895.535          34.900          19.000
  -9550179.099 6  -4891777.63443  23698440.852
  23698427.797          38.600          20.600
 -26776663.928 7 -20066433.14646  20863245.891
  20863232.191          47.200          40.700
 -19317957.319 7 -14008125.48146  21190519.938
  21190506.941          47.200          38.800
 -17522310.108 7 -12793261.45545  22108129.211
  22108119.730          43.900          33.900
 -12908514.182 7  -9447466.53044  23115439.125
  23115426.363          42.600          29.600
 -20128359.180 7 -13652907.56745  21908772.656
  21908760.246          45.000          32.700
 -25921019.267 8 -22016949.32847  20583401.586
  20583389.820          49.200          44.200
 16  2 13  4 21 30.0000000  0 11G24G01G07G06G11G19G28G30G15G13G17
  -8103001.386 5  -5232397.73743  24324385.523
  24324375.516          34.500          20.600
 -14316453.324 6 -10866692.29944  23130334.961
  23130325.246          39.400          26.000
  -7101395.958 5  -4841542.25843  24550024.891
  24550015.234          33.500          19.000
  -2871461.073 5  -1158766.01043  24747659.148
  24747650.898          34.500          18.600
  -9473823.481 6  -4832279.76343  23712971.742
  23712957.398          39.200          21.700
 -26843428.994 7 -20118457.84446  20850540.453
  20850527.457          47.600          40.600
 -19288604.598 7 -13985253.23446  21196105.570
  21196092.340          47.300          39.000
 -17437181.413 7 -12726927.43345  22124328.719
  22124318.828          43.600          34.100
 -12902791.959 7  -9443007.64944  23116527.859
  23116515.801          42.500          29.100
 -20067883.038 7 -13605783.31145  21920280.805
  21920268.980          45.300          32.700
 -25934860.114 8 -22027734.40447  20580768.055
  20580755.703          49.500          44.100
 16  2 13  4 22  0.0000000  0 11G24G01G07G06G11G19G28G30G15G13G17
  -8204952.368 6  -5311840.02143  24304985.680
  24304975.848          37.200          22.200
 -14293844.157 6 -10849074.75044  23134637.914
  23134627.789          40.100          27.000
 -62132509.401 5 -47722929.40142  24570688.898
  24570678.832          35.200          16.900
  -2977902.250 5  -1241707.17442  24727403.641
  24727396.035          35.000          17.800
  -9397023.184 6  -4772435.38043  23727586.055
  23727572.531          39.200          21.100
 -26909686.589 7 -20170087.12646  20837932.117
  20837918.887          47.600          40.500
 -19259095.607 7 -13962259.21346  21201720.594
  21201707.832          46.700          39.300
 -17351738.407 7 -12660348.49345  22140587.758
  22140578.570          44.700          34.100
 -12896523.258 7  -9438122.96645  23117721.047
  23117709.340          42.100          30.400
 -20006909.980 7 -13558271.84345  21931883.641
  21931871.406          45.000          33.200
 -25948212.809 8 -22038139.10247  20578226.883
  20578215.117          49.100          44.700
 16  2 13  4 22 30.0000000  0 11G24G01G07G06G11G19G28G30G15G13G17
  -8306805.754 5  -5391206.30643  24285603.125
  24285594.406          35.500          20.900
 -14270643.763 6 -10830996.52744  23139051.563
  23139043.488          39.300          27.300
 -62023792.216 5 -47638214.69642  24591378.039
  24591366.508          33.800          16.900
  -3084396.784 6  -1324689.88643  24707139.641
  24707130.629          36.000          19.300
  -9319780.245 6  -4712246.07643  23742284.734
  23742271.797          38.900          20.900
 -26975434.831 8 -20221319.51246  20825421.156
  20825407.457          48.100          41.200
 -19229429.966 7 -13939143.11946  21207366.070
  21207353.133          47.400          39.100
 -17265981.919 7 -12593525.30245  22156906.758
  22156897.277          43.400          34.000
 -12889708.408 7  -9432812.68344  23119017.258
  23119005.727          42.000          28.600
 -19945442.261 7 -13510374.92845  21943580.719
  21943568.484          44.400          33.500
 -25961077.488 8 -22048163.51847  20575779.109
  20575767.109          49.700          44.200
 16  2 13  4 23  0.0000000  0 11G24G01G07G06G11G19G28G30G15G13G17
  -9983977.29315  -6698093.13753  24266240.234
  24266230.871          33.900          19.000
 -14246850.785 6 -10812456.55444  23143579.430
  23143571.414          39.000          27.000
 -61914944.545 5 -47553398.37442  24612090.359
  24612079.531          35.200          17.800
  -3190939.912 5  -1407710.45943  24686864.539
  24686856.113          35.300          19.600
  -9242095.328 6  -4651712.35843  23757066.711
  23757054.828          38.900          20.400
 -27040670.040 7 -20272152.11746  20813007.352
  20812993.359          47.300          40.800
 -19199605.963 7 -13915903.63046  21213041.281
  21213028.109          47.400          39.500
 -17179911.363 7 -12526457.37145  22173285.594
  22173275.879          43.200          34.200
 -12882346.174 7  -9427075.88144  23120418.391
  23120406.508          42.800          29.400
 -19883480.509 7 -13462093.05645  21955371.930
  21955359.461          45.500          32.600
 -25973452.481 8 -22057806.35947  20573424.180
  20573412.004          49.600          44.500
 16  2 13  4 23 30.0000000  0 11G24G01G07G06G11G19G28G30G15G13G17
 -10085630.61715  -6777303.46953  24246895.898
  24246887.473          35.600          19.600
 -14222470.739 6 -10793459.12244  23148219.031
  23148210.137          38.600          26.800
 -61805972.897 5 -47468485.44342  24632826.906
  24632816.898          34.300          17.400
  -3297533.912 5  -1490770.69343  24666579.461
  24666571.914          34.400          18.300
  -9163975.474 6  -4590839.75143  23771931.180
  23771919.824          36.800          19.900
 -27105395.837 7 -20322587.79346  20800690.258
  20800676.441          47.400          40.900
 -19169628.613 7 -13892544.66546  21218745.820
  21218732.707          47.400          39.100
 -17093533.018 7 -12459149.59845  22189722.961
  22189713.656          43.300          33.500
 -12874442.242 6  -9420916.98745  23121922.555
  23121910.672          41.800          30.100
 -19821032.047 7 -13413431.94045  21967255.023
  21967243.258          44.700          32.600
 -25985343.269 8 -22067071.90147  20571161.430
  20571149.313          49.800          44.400
 16  2 13  4 24  0.0000000  0 11G24G01G07G06G11G19G28G30G15G13G17
 -10187178.969 5  -6856432.04443  24227572.039
  24227563.145          34.600          20.400
 -14197500.081 6 -10774001.45444  23152971.547
  23152962.066          38.900          26.100
 -61696874.973 5 -47383474.10342  24653588.016
  24653577.480          34.600          16.300
  -3404171.946 5  -1573865.25643  24646286.273
  24646279.195          34.600          18.300
  -9085419.368 6  -4529627.23543  23786881.914
  23786868.859          39.700          21.300
 -27169606.799 8 -20372622.29246  20788471.133
  20788457.668          48.300          40.900
 -19139494.384 7 -13869063.44746  21224480.008
  21224467.012          47.300          38.700
 -17006844.064 7 -12391599.80345  22206219.203
  22206209.957          42.700          34.000
 -12865993.378 7  -9414333.47344  23123530.422
  23123518.891          42.900          28.300
 -19758096.301 7 -13364391.11845  21979231.578
  21979219.168          45.700          33.100
 -25996746.186 8 -22075957.26947  20568991.289
  20568978.938          49.900          44.300
 16  2 13  4 24 30.0000000  0 11G24G01G07G06G11G19G28G30G15G13G17
 -10288621.921 5  -6935478.48743  24208267.531
  24208259.340          34.100          19.000
 -14171940.937 6 -10754085.23844  23157834.398
  23157825.621          38.400          25.100
 -61587653.804 6 -47298366.71443  24674374.188
  24674361.953          36.300          18.300
  -3510852.809 5  -1656993.19542  24625986.867
  24625978.617          34.600          17.800
  -9006430.709 6  -4468077.62343  23801912.961
  23801899.789          38.400          20.600
 -27233303.103 7 -20422255.75746  20776350.016
  20776336.609          47.000          40.600
 -19109204.817 7 -13845461.19146  21230244.195
  21230230.789          46.700          38.100
 -16919847.445 7 -12323810.28345  22222774.016
  22222764.594          43.000          32.700
 -12857002.083 7  -9407327.26244  23125241.688
  23125228.750          42.300          29.100
 -19694676.484 7 -13314973.08745  21991300.195
  21991287.902          44.600          33.200
 -26007663.161 8 -22084463.99447  20566914.203
  20566902.086          49.700          44.500
 16  2 13  4 25  0.0000000  0 11G24G01G07G06G11G19G28G30G15G13G17
 -10389956.607 5  -7014440.53443  24188985.695
  24188975.980          34.300          18.300
 -14145792.772 6 -10733710.04744  23162810.258
  23162801.773          39.200          26.000
 -61478310.206 6 -47213163.96342  24695179.844
  24695169.719          36.000          16.900
  -3617572.645 5  -1740151.50642  24605678.055
  24605670.215          33.900          16.300
  -8927010.885 6  -4406192.06943  23817024.969
  23817012.793          36.800          20.100
 -27296482.078 7 -20471486.10046  20764327.719
  20764314.020          47.500          40.900
 -19078758.759 7 -13821736.99246  21236037.875
  21236024.820          47.200          38.700
 -16832543.281 7 -12255781.08545  22239387.281
  22239378.270          43.600          33.000
 -12847467.955 7  -9399898.09344  23127056.891
  23127043.719          43.000          29.500
 -19630774.200 7 -13265179.10545  22003460.055
  22003448.055          45.500          32.500
 -26018093.553 8 -22092591.55847  20564928.883
  20564916.883          49.900          44.700
 16  2 13  4 25 30.0000000  0 11G24G01G07G06G11G19G28G30G15G13G17
 -10491181.498 5  -7093317.04543  24169722.492
  24169713.246          35.200          19.300
 -14119057.012 6 -10712876.99544  23167897.188
  23167889.816          39.000          28.100
 -61368846.336 6 -47127867.39542  24716010.555
  24715999.844          36.000          17.400
  -3724329.236 5  -1823338.39942  24585363.000
  24585355.160          34.500          17.800
  -8847163.253 6  -4343973.10943  23832219.805
  23832207.629          37.300          20.100
 -27359143.445 7 -20520313.11346  20752403.242
  20752389.836          46.700          41.200
 -19048157.401 7 -13797891.77046  21241861.094
  21241848.156          46.400          39.200
 -16744933.751 7 -12187513.95545  22256059.086
  22256050.309          43.400          33.300
 -12837392.508 7  -9392047.10544  23128973.305
  23128961.012          43.100          29.300
 -19566393.071 7 -13215012.00445  22015711.297
  22015699.590          45.100          32.700
 -26028038.508 8 -22100340.86547  20563036.961
  20563024.434          50.700          44.400
 16  2 13  4 26  0.0000000  0 11G24G01G07G06G11G19G28G30G15G13G17
 -10592294.057 5  -7172105.99342  24150481.125
  24150471.996          33.300          17.800
 -14091734.442 6 -10691586.67244  23173097.258
  23173088.949          38.600          25.000
 -61259264.107 5 -47042478.63542  24736862.430
  24736853.184          33.400          16.900
  -3831120.187 5  -1906552.06042  24565041.367
  24565034.582          33.700          17.800
  -8766890.260 5  -4281422.77843  23847494.789
  23847482.965          35.700          19.600
 -27421285.787 7 -20568735.69846  20740578.273
  20740564.750          46.400          41.200
 -19017400.938 7 -13773925.68746  21247713.305
  21247700.777          46.900          39.600
 -16657020.214 7 -12119009.94045  22272788.680
  22272779.492          43.700          33.300
 -12826776.485 7  -9383774.88244  23130993.336
  23130981.160          43.100          29.300
 -19501535.748 7 -13164473.85145  22028052.938
  22028040.996          45.200          33.100
 -26037498.899 8 -22107712.59347  20561236.359
  20561224.301          49.400          44.400
 16  2 13  4 26 30.0000000  0 11G24G01G07G06G11G19G28G30G15G13G17
 -10693291.809 5  -7250805.56243  24131261.570
  24131252.441          32.500          19.300
 -14063824.966 6 -10669839.04344  23178407.922
  23178399.848          38.000          25.400
 -61149564.327 5 -46956998.30142  24757736.969
  24757728.074          32.200          14.800
  -3937941.833 5  -1989789.72043  24544713.289
  24544706.973          33.700          18.300
  -8686193.827 6  -4218542.45143  23862850.742
  23862839.387          36.700          20.100
 -27482906.826 7 -20616752.07846  20728852.328
  20728838.570          47.200          40.800
 -18986488.644 7 -13749838.18646  21253596.109
  21253583.055          46.700          39.200
 -16568803.369 7 -12050269.58345  22289575.930
  22289566.508          42.500          33.300
 -12815620.307 7  -9375081.77444  23133116.539
  23133103.719          42.600          28.900
 -19436203.918 7 -13113565.94145  22040486.305
  22040473.777          45.800          32.600
 -26046474.350 8 -22114706.45647  20559528.672
  20559516.379          49.900          44.500
 16  2 13  4 27  0.0000000  0 11G24G01G07G06G11G19G28G30G15G13G17
 -10794174.002 5  -7329414.99643  24112064.805
  24112055.793          34.400          19.000
 -14035330.740 6 -10647635.75944  23183829.820
  23183821.922          38.900          26.500
 -61039750.338 5 -46871428.93442  24778635.383
  24778626.254          31.900          14.800
  -4044792.776 5  -2073050.16743  24524381.367
  24524373.527          34.100          18.300
  -8605077.887 5  -4155335.22443  23878286.766
  23878275.352          35.000          19.000
 -27544006.886 7 -20664362.50046  20717225.180
  20717211.598          46.400          41.300
 -18955422.027 7 -13725630.44146  21259507.945
  21259494.832          46.800          38.300
 -16480285.944 7 -11981295.00145  22306420.344
  22306410.980          43.200          33.300
 -12803926.221 7  -9365969.50344  23135341.086
  23135329.027          42.300          29.700
 -19370401.907 7 -13062291.64745  22053007.031
  22052995.676          45.700          33.000
 -26054966.881 8 -22121324.01147  20557912.250
  20557900.133          49.700          44.900
 16  2 13  4 27 30.0000000  0 11G24G01G07G06G11G19G28G30G15G13G17
 -10894937.524 5  -7407932.02943  24092889.984
  24092880.563          33.900          19.000
 -14006251.495 6 -10624976.59244  23189364.156
  23189355.496          36.800          27.000
 -60929822.837 5 -46785771.23242  24799553.508
  24799545.258          31.500          13.900
  -4151669.309 5  -2156330.57742  24504043.305
  24504035.641          34.100          17.400
  -8523543.671 5  -4091802.10542  23893802.602
  23893790.543          33.500          17.800
 -27604583.635 7 -20711565.15446  20705697.508
  20705684.453          47.600          41.400
 -18924200.254 7 -13701301.78446  21265448.859
  21265436.332          46.900          38.900
 -16391468.367 7 -11912086.53545  22323321.539
  22323311.941          42.800          32.400
 -12791693.887 7  -9356437.81844  23137669.445
  23137657.387          42.700          29.000
 -19304131.392 7 -13010652.30145  22065617.805
  22065606.098          45.100          32.300
 -26062976.003 8 -22127564.88747  20556388.273
  20556376.273          49.900          45.100
 16  2 13  4 28  0.0000000  0 11G24G01G07G06G11G19G28G30G15G13G17
 -10995575.300 5  -7486351.04243  24073739.375
  24073729.543          35.900          19.600
 -13976583.595 6 -10601858.75244  23195010.563
  23195001.375          39.900          26.200
 -60819779.13814                  24820493.008
                        29.100
  -4258564.139 5  -2239625.22042  24483702.000
  24483693.633          34.600          17.400
 -35223729.336 5 -24897141.67742  23909397.336
  23909386.566          33.700          15.600
 -27664631.358 7 -20758355.59446  20694271.273
  20694257.223          47.300          41.200
 -18892819.254 7 -13676849.06746  21271421.172
  21271407.766          46.700          39.200
 -16302347.514 7 -11842641.73945  22340280.750
  22340271.328          42.600          32.400
 -12778920.073 7  -9346484.21144  23140100.141
  23140088.375          42.200          29.700
 -19237390.517 7 -12958646.44745  22078318.516
  22078306.398          45.500          32.400
 -26070498.052 8 -22133426.21847  20554957.039
  20554944.805          49.800          44.800
 16  2 13  4 28 30.0000000  0 11G24G01G07G06G11G19G28G30G15G13G17
 -11096096.130 5  -7564678.92943  24054611.359
  24054601.469          35.700          19.000
 -13946338.376 6 -10578291.03444  23200764.797
  23200756.547          39.300          25.300
 -60709631.246 4                  24841454.039
                        29.400
  -4365485.030 6  -2322940.18943  24463356.133
  24463347.941          36.100          18.300
 -35141368.001 5 -24832963.97942  23925070.711
  23925059.473          33.900          16.300
 -27724159.292 7 -20804740.98246  20682943.398
  20682929.523          47.900          41.600
 -18861289.599 7 -13652280.50646  21277420.820
  21277408.000          47.800          38.600
 -16212935.438 7 -11772970.03745  22357294.469
  22357286.160          42.700          33.100
 -12765616.495 7  -9336117.79044  23142631.875
  23142619.875          42.000          29.300
 -19170192.688 7 -12906284.52245  22091105.781
  22091094.191          44.900          32.000
 -26077544.016 8 -22138916.57347  20553616.234
  20553604.176          50.000          44.800
 16  2 13  4 29  0.0000000  0 11G24G01G07G06G11G19G28G30G15G13G17
 -11196491.414 6  -7642908.97343  24035506.578
  24035496.805          37.000          20.900
 -13915510.127 6 -10554269.01744  23206631.930
  23206622.742          39.800          25.600
 -60599374.19814                  24862433.359
                        26.800
  -4472422.707 5  -2406268.24143  24443005.594
  24442999.043          35.900          18.300
 -35058595.737 5 -24768466.09242  23940821.141
  23940810.313          33.700          15.600
 -27783159.920 7 -20850715.47446  20671716.117
  20671702.242          47.600          41.600
 -18829604.806 7 -13627591.05546  21283449.898
  21283436.902          47.200          38.200
 -16123227.004 7 -11703067.39145  22374366.164
  22374357.035          43.100          32.700
 -12751777.187 7  -9325333.92744  23145265.563
  23145253.328          43.000          29.600
 -19102534.021 7 -12853563.50545  22103981.023
  22103968.906          45.500          31.400
 -26084107.688 8 -22144031.10647  20552367.352
  20552354.824          50.500          44.700
 16  2 13  4 29 30.0000000  0 10G24G01G06G11G19G28G30G15G13G17
 -11296759.432 6  -7721039.89643  24016425.266
  24016416.195          36.200          19.900
 -13884100.310 6 -10529793.85044  23212608.250
  23212600.234          37.900          26.200
  -4579374.856 5  -2489607.63043  24422652.148
  24422645.480          35.700          19.300
 -34975415.505 5 -24703650.39742  23956648.422
  23956639.234          32.900          16.300
 -27841632.518 8 -20896278.51546  20660588.984
  20660574.699          48.300          41.100
 -18797765.483 7 -13602781.18746  21289509.359
  21289495.777          47.300          38.500
 -16033224.183 7 -11632935.35545  22391492.781
  22391484.180          42.200          32.100
 -12737403.932 6  -9314133.99544  23148000.266
  23147988.559          41.800          29.400
 -19034417.819 7 -12800485.96645  22116942.867
  22116931.219          45.600          31.300
 -26090190.576 8 -22148771.01847  20551209.594
  20551197.301          49.800          44.800
 16  2 13  4 30  0.0000000  0 10G24G01G06G11G19G28G30G15G13G17
 -11396897.847 6  -7799069.81943  23997370.398
  23997360.684          36.400          20.100
 -13852109.960 6 -10504866.31544  23218696.500
  23218687.664          38.600          27.500
  -4686339.042 6  -2572956.30243  24402298.836
  24402290.996          36.500          19.300
 -34891830.264 5 -24638519.08842  23972556.219
  23972545.273          35.200          17.400
 -27899575.989 7 -20941429.24646  20649562.820
  20649548.711          47.800          41.500
 -18765772.205 7 -13577851.35646  21295596.938
  21295584.293          47.500          38.200
 -15942928.674 7 -11562575.25245  22408675.172
  22408666.336          42.500          32.300
 -12722497.957 7  -9302518.96144  23150836.594
  23150825.473          42.900          29.700
 -18965847.035 7 -12747054.20445  22129991.672
  22129979.906          45.200          32.100
 -26095793.514 8 -22153136.94647  20550143.531
  20550131.063          49.400          44.800
 16  2 13  4 30 30.0000000  0 10G24G01G06G11G19G28G30G15G13G17
 -11496906.192 6  -7876998.37243  23978339.094
  23978329.262          36.900          19.900
 -13819541.159 6 -10479488.01344  23224893.672
  23224885.480          38.600          26.200
  -4793313.376 6  -2656312.91443  24381942.711
  24381934.051          37.200          19.300
 -34807843.556 6 -24573074.78242  23988538.594
  23988527.590          37.000          17.800
 -27956990.470 7 -20986167.78947  20638636.719
  20638623.078          47.600          42.100
 -18733626.110 7 -13552802.45846  21301714.375
  21301701.555          46.600          38.900
 -15852343.005 7 -11491989.06545  22425913.828
  22425904.465          42.700          32.700
 -12707061.417 7  -9290490.49644  23153774.266
  23153762.617          42.900          29.300
 -18896825.451 7 -12693271.15145  22143125.898
  22143113.723          45.000          30.900
 -26100918.398 8 -22157130.36547  20549168.406
  20549155.820          50.800          44.800
 16  2 13  4 31  0.0000000  0 10G24G01G06G11G19G28G30G15G13G17
 -11596780.948 6  -7954822.82643  23959333.164
  23959324.270          37.200          21.300
 -13786393.700 6 -10453658.83944  23231201.414
  23231193.164          38.700          26.900
  -4900293.953 6  -2739674.41743  24361585.766
  24361576.344          37.100          19.900
 -34723456.974 6 -24507319.00942  24004596.664
  24004584.781          37.500          17.800
 -28013873.617 7 -21030492.28446  20627812.367
  20627798.844          47.100          41.600
 -18701326.279 7 -13527633.75246  21307860.727
  21307848.023          46.800          38.500
 -15761467.505 7 -11421177.02145  22443206.906
  22443197.660          43.100          31.700
 -12691094.372 7  -9278048.64344  23156812.992
  23156800.641          42.200          29.400
 -18827355.029 7 -12639138.39445  22156346.695
  22156334.051          45.600          30.900
 -26105564.715 8 -22160750.86547  20548284.070
  20548271.777          50.300          44.800
 16  2 13  4 31 30.0000000  0 10G24G01G06G11G19G28G30G15G13G17
 -11696519.469 6  -8032541.13343  23940353.938
  23940344.633          37.000          21.500
 -13752668.101 6 -10427379.17244  23237619.359
  23237611.227          39.200          26.000
  -5007277.595 6  -2823038.26643  24341225.828
  24341218.105          36.900          20.400
 -34638672.709 6 -24441253.36043  24020730.492
  24020718.023          37.600          19.000
 -28070224.143 7 -21074401.76247  20617089.148
  20617075.625          47.000          42.100
 -18668872.470 7 -13502345.07746  21314036.445
  21314023.449          46.900          38.100
 -15670303.196 6 -11350139.92945  22460554.977
  22460545.496          41.800          31.400
 -12674597.498 6  -9265193.94944  23159951.461
  23159940.223          41.800          29.700
 -18757438.040 7 -12584657.63245  22169650.398
  22169638.984          44.700          31.500
 -26109732.566 8 -22163998.53547  20547490.844
  20547478.434          49.800          45.300
 16  2 13  4 32  0.0000000  0 10G24G01G06G11G19G28G30G15G13G17
 -11796117.885 6  -8110150.27143  23921401.867
  23921391.215          37.100          21.300
 -13718363.574 6 -10400648.37244  23244147.016
  23244139.059          36.900          25.200
  -5114259.663 6  -2906400.90343  24320868.664
  24320859.945          37.300          20.900
 -34553491.347 6 -24374878.28543  24036940.445
  24036927.098          38.800          19.600
 -28126038.699 7 -21117893.62347  20606468.680
  20606454.453          47.600          42.200
 -18636262.717 7 -13476934.88846  21320242.102
  21320229.164          46.900          39.100
 -15578849.792 7 -11278877.57845  22477957.797
  22477948.902          42.000          30.900
 -12657570.287 6  -9251926.00544  23163191.555
  23163179.965          41.700          29.500
 -18687075.558 7 -12529829.75245  22183040.273
  22183028.332          45.300          32.000
 -26113420.947 8 -22166872.59247  20546788.914
  20546776.563          49.800          44.700
