     2.11           OBSERVATION DATA    G (GPS)             RINEX VERSION / TYPE
teqc  2016Nov7      root                20180417 16:17:35UTCPGM / RUN BY / DATE
Linux 2.4.21-27.ELsmp|Opteron|gcc|Linux x86_64|=+           COMMENT
     2.11           OBSERVATION DATA    G (GPS)             COMMENT
teqc  2015Nov6      CORS-ADM Account    20160214 00:53:28UTCCOMMENT
Solaris x86 5.10|AMD64|cc SC5.8 -xarch=amd64|=+|=+          COMMENT
teqc  2015Nov6      CORS-ADM Account    20160214 00:53:08UTCCOMMENT
teqc  2015Nov6      NOAA/NOS/NGS/CORS   20160213 01:14:44UTCCOMMENT
Spider V5.3.1.6235  MIDOT               2016 02 13 01:00    COMMENT
BIT 2 OF LLI FLAGS DATA COLLECTED UNDER A/S CONDITION       COMMENT
SNR is mapped to RINEX snr flag value [1-9]                 COMMENT
LX:    >= 25dBHz -> 1; 26-27dBHz -> 2; 28-31dBHz -> 3       COMMENT
       32-35dBHz -> 4; 36-38dBHz -> 5; 39-41dBHz -> 6       COMMENT
       42-44dBHz -> 7; 45-48dBHz -> 8; >= 49dBHz -> 9       COMMENT
teqc edited: all SBAS satellites excluded                   COMMENT
teqc edited: all Compass satellites excluded                COMMENT
teqc edited: all QZSS satellites excluded                   COMMENT
Forced Modulo Decimation to 30 seconds                      COMMENT
BRIG                                                        MARKER NAME
49613S001                                                   MARKER NUMBER
Shawn Roy           MIDT                                    OBSERVER / AGENCY
458402              LEICA GRX1200PRO    9.20/6.404          REC # / TYPE / VERS
659                 LEIAT504GG      LEIS                    ANT # / TYPE
   512039.3140 -4680416.2930  4288537.5030                  APPROX POSITION XYZ
        0.0000        0.0000        0.0000                  ANTENNA: DELTA H/E/N
     1     1                                                WAVELENGTH FACT L1/2
     8    L1    L2    C1    C2    P1    P2    S1    S2      # / TYPES OF OBSERV
    30.0000                                                 INTERVAL
teqc.w windowed: start @ 2016 Feb 13 00:00:00.000           COMMENT
teqc.w windowed:  end  @ 2016 Feb 13 05:00:00.000           COMMENT
teqc.w edited: all GLONASS satellites excluded              COMMENT
  2016     2    13     1    30    0.0000000     GPS         TIME OF FIRST OBS
                                                            END OF HEADER
 16  2 13  1 31  0.0000000  0  1G01
 130263359.659 5 101503912.27743  24788293.740
  24788290.880          37.600          31.250
 16  2 13  1 31 30.0000000  0  1G01
 130158481.405 6 101422189.04044  24768336.060
  24768334.880          39.000          35.700
 16  2 13  1 32  0.0000000  0  1G01
 130053551.758 5 101340425.75644  24748368.540
  24748366.940          38.100          32.100
 16  2 13  1 32 30.0000000  0  1G01
 129948573.522 6 101258624.55844  24728391.680
  24728390.100          39.400          35.500
 16  2 13  1 33  0.0000000  0  1G01
 129843550.588 6 101176788.66144  24708406.320
  24708405.420          39.550          32.000
 16  2 13  1 33 30.0000000  0  1G01
 129738484.378 5 101094918.95444  24688412.760
  24688412.100          37.350          35.600
 16  2 13  1 34  0.0000000  0  1G01
 129633377.278 6 101013017.39244  24668411.160
  24668410.480          39.000          35.500
 16  2 13  1 34 30.0000000  0  1G01
 129528232.177 6 100931086.20844  24648402.560
  24648402.080          40.750          35.650
 16  2 13  1 35  0.0000000  0  1G01
 129423053.283 6 100849128.71444  24628387.760
  24628387.620          40.200          34.600
 16  2 13  1 35 30.0000000  0  1G01
 129317842.131 6 100767146.06446  24608366.720
  24608366.500          41.100          39.000
 16  2 13  1 36  0.0000000  0  1G01
 129212603.251 6 100685141.77345  24588340.400
  24588339.700          39.600          37.100
 16  2 13  1 36 30.0000000  0  1G01
 129107339.833 6 100603118.43645  24568309.420
  24568308.560          40.550          36.650
 16  2 13  1 37  0.0000000  0  1G01
 129002055.886 6 100521079.08545  24548274.520
  24548273.880          40.500          37.200
 16  2 13  1 37 30.0000000  0  1G01
 128896747.623 6 100439020.74044  24528235.080
  24528234.320          41.700          35.950
 16  2 13  1 38  0.0000000  0  1G01
 128791425.425 6 100356951.54345  24508192.980
  24508191.980          41.300          36.500
 16  2 13  1 38 30.0000000  0  1G01
 128686088.333 6 100274870.75445  24488148.000
  24488147.060          41.200          37.200
 16  2 13  1 39  0.0000000  0  1G01
 128580740.361 6 100192781.50146  24468100.760
  24468100.080          41.250          39.400
 16  2 13  1 39 30.0000000  0  1G01
 128475384.565 6 100110686.12245  24448052.260
  24448051.360          40.600          37.750
 16  2 13  1 40  0.0000000  0  1G01
 128370027.036 6 100028589.39645  24428003.300
  24428002.620          41.700          38.050
 16  2 13  1 40 30.0000000  0  1G01
 128264663.095 6  99946487.69145  24407953.220
  24407952.340          40.550          38.650
 16  2 13  1 41  0.0000000  0  1G01
 128159301.953 6  99864388.15845  24387903.480
  24387902.600          41.100          38.000
 16  2 13  1 41 30.0000000  0  1G01
 128053941.992 6  99782289.52545  24367854.140
  24367853.000          41.100          38.550
 16  2 13  1 42  0.0000000  0  1G01
 127948590.547 6  99700197.56445  24347806.520
  24347805.160          41.050          36.450
 16  2 13  1 42 30.0000000  0  1G01
 127843250.891 6  99618114.78145  24327760.940
  24327759.680          40.300          38.900
 16  2 13  1 43  0.0000000  0  1G01
 127737922.962 6  99536041.10445  24307717.720
  24307716.380          40.550          38.050
 16  2 13  1 43 30.0000000  0  1G01
 127632613.304 6  99453981.68045  24287677.920
  24287676.740          40.300          36.750
 16  2 13  1 44  0.0000000  0  1G01
 127527324.388 6  99371938.44145  24267641.900
  24267640.960          40.050          38.050
 16  2 13  1 44 30.0000000  0  1G01
 127422055.896 6  99289911.07345  24247609.740
  24247608.980          40.700          37.850
 16  2 13  1 45  0.0000000  0  1G01
 127316811.270 6  99207902.34344  24227582.260
  24227581.480          40.300          34.500
 16  2 13  1 45 30.0000000  0  1G01
 127211595.436 6  99125916.02345  24207560.320
  24207559.180          40.000          37.000
 16  2 13  1 46  0.0000000  0  1G01
 127106410.409 6  99043953.75145  24187544.360
  24187543.260          40.350          37.800
 16  2 13  1 46 30.0000000  0  1G01
 127001260.568 6  98962018.84744  24167535.280
  24167534.100          40.650          35.800
 16  2 13  1 47  0.0000000  0  1G01
 126896148.639 6  98880113.48544  24147533.260
  24147531.740          40.650          35.900
 16  2 13  1 47 30.0000000  0  1G01
 126791076.625 6  98798239.24545  24127538.660
  24127537.100          41.950          37.500
 16  2 13  1 48  0.0000000  0  1G01
 126686046.995 6  98716398.04745  24107552.100
  24107550.820          41.050          36.250
 16  2 13  1 48 30.0000000  0  1G01
 126581063.263 6  98634592.59445  24087574.020
  24087573.440          41.700          37.150
 16  2 13  1 49  0.0000000  0  1G01
 126476132.641 7  98552828.51045  24067606.260
  24067605.560          42.000          37.750
 16  2 13  1 49 30.0000000  0  1G01
 126371253.560 6  98471104.59844  24047648.540
  24047647.800          41.950          34.750
 16  2 13  1 50  0.0000000  0  1G01
 126266430.863 6  98389424.61545  24027701.300
  24027700.620          41.700          37.550
 16  2 13  1 50 30.0000000  0  1G01
 126161663.262 7  98307787.57545  24007764.720
  24007763.480          42.050          38.700
 16  2 13  1 51  0.0000000  0  1G01
 126056963.115 7  98226203.09845  23987840.840
  23987839.500          42.250          37.950
 16  2 13  1 51 30.0000000  0  1G01
 125952329.539 7  98144670.48045  23967929.760
  23967928.240          42.500          37.550
 16  2 13  1 52  0.0000000  0  1G01
 125847760.529 7  98063188.16145  23948030.840
  23948029.760          42.300          38.300
 16  2 13  1 52 30.0000000  0  1G01
 125743262.081 7  97981760.85045  23928145.380
  23928144.440          43.150          37.700
 16  2 13  1 53  0.0000000  0  1G01
 125638840.474 7  97900393.40045  23908274.820
  23908273.660          42.650          38.300
 16  2 13  1 53 30.0000000  0  1G01
 125534494.425 7  97819084.85746  23888418.480
  23888417.280          42.100          39.950
 16  2 13  1 54  0.0000000  0  1G01
 125430232.159 6  97737841.60345  23868578.040
  23868576.740          41.950          37.800
 16  2 13  1 54 30.0000000  0  1G01
 125326054.234 6  97656664.05046  23848753.380
  23848752.180          41.500          39.750
 16  2 13  1 55  0.0000000  0  1G01
 125221963.795 7  97575554.66446  23828945.440
  23828944.180          42.500          39.150
 16  2 13  1 55 30.0000000  0  1G01
 125117962.746 7  97494514.96245  23809154.800
  23809153.420          42.600          38.200
 16  2 13  1 56  0.0000000  0  1G01
 125014054.110 6  97413547.25545  23789381.480
  23789380.280          41.750          38.400
 16  2 13  1 56 30.0000000  0  1G01
 124910242.839 7  97332655.40645  23769626.820
  23769625.680          42.150          37.650
 16  2 13  1 57  0.0000000  0  1G01
 124806531.057 6  97251841.08245  23749891.120
  23749890.000          41.350          37.750
 16  2 13  1 57 30.0000000  0  1G01
 124702922.365 7  97171107.09345  23730175.000
  23730174.200          42.350          38.750
 16  2 13  1 58  0.0000000  0  1G01
 124599419.904 6  97090455.88245  23710479.200
  23710478.320          41.950          38.350
 16  2 13  1 58 30.0000000  0  1G01
 124496028.802 7  97009891.44346  23690804.500
  23690803.240          42.250          39.100
 16  2 13  1 59  0.0000000  0  1G01
 124392749.995 7  96929414.49946  23671151.220
  23671149.580          42.300          39.250
 16  2 13  1 59 30.0000000  0  1G01
 124289586.373 7  96849027.31945  23651519.780
  23651518.060          42.800          38.700
 16  2 13  2  0  0.0000000  0  1G01
 130852582.994 6 101963070.47444  24900416.100
  24900421.200          39.750          32.500
 16  2 13  2  0 30.0000000  0  1G01
 130777525.989 6 101904584.60644  24886133.300
  24886137.840          40.500          34.500
 16  2 13  2  1  0.0000000  0  1G01
 130702509.331 6 101846130.10144  24871858.140
  24871862.460          41.500          35.250
 16  2 13  2  1 30.0000000  0  1G01
 130627545.948 6 101787717.15545  24857592.980
  24857597.780          40.000          36.000
 16  2 13  2  2  0.0000000  0  1G01
 130552617.066 6 101729331.04144  24843334.440
  24843339.260          40.500          35.500
 16  2 13  2  2 30.0000000  0  1G01
 130477742.265 6 101670987.10744  24829085.980
  24829090.500          40.000          34.000
 16  2 13  2  3  0.0000000  0  1G01
 130402913.954 6 101612679.38443  24814846.540
  24814850.480          40.500          29.750
 16  2 13  2  3 30.0000000  0  1G01
 130328150.583 6 101554422.26144  24800619.780
  24800624.180          40.250          35.750
 16  2 13  2  4  0.0000000  0  1G01
 130253448.938 6 101496213.22544  24786404.500
  24786409.060          39.500          33.750
 16  2 13  2  4 30.0000000  0  1G01
 130178806.088 6 101438050.03144  24772200.320
  24772204.860          39.500          34.250
 16  2 13  2  5  0.0000000  0  1G01
 130104228.382 6 101379937.52144  24758008.660
  24758012.840          40.750          35.000
 16  2 13  2  5 30.0000000  0  1G01
 130029722.503 6 101321881.05745  24743830.600
  24743834.680          39.000          36.750
 16  2 13  2  6  0.0000000  0  1G01
 129955290.233 5 101263881.94545  24729666.240
  24729671.160          37.250          38.750
 16  2 13  2  6 30.0000000  0  1G01
 129880931.576 5 101205940.16545  24715516.460
  24715521.040          38.000          38.250
 16  2 13  2  7  0.0000000  0  1G01
 129806650.848 6 101148059.09744  24701381.620
  24701385.520          39.500          35.000
 16  2 13  2  7 30.0000000  0  1G01
 129732451.161 5 101090241.25144  24687261.760
  24687265.580          38.250          35.500
 16  2 13  2  8  0.0000000  0  1G01
 129658337.866 6 101032490.67545  24673158.380
  24673162.940          39.500          37.500
 16  2 13  2  8 30.0000000  0  1G01
 129584309.619 6 100974806.36544  24659071.320
  24659075.840          40.250          35.250
 16  2 13  2  9  0.0000000  0  1G01
 129510374.158 6 100917194.38345  24645002.080
  24645006.560          39.750          36.750
 16  2 13  2  9 30.0000000  0  1G01
 129436532.063 6 100859655.12345  24630950.580
  24630954.660          41.250          36.750
 16  2 13  2 10  0.0000000  0  1G01
 129362784.450 6 100802189.45144  24616917.340
  24616920.840          40.750          35.000
 16  2 13  2 10 30.0000000  0  1G01
 129289138.339 6 100744802.93245  24602902.640
  24602906.160          40.750          38.000
 16  2 13  2 11  0.0000000  0  1G01
 129215597.586 6 100687498.50144  24588907.760
  24588911.780          41.000          35.500
 16  2 13  2 11 30.0000000  0  1G01
 129142161.642 6 100630275.70145  24574933.300
  24574937.440          41.500          37.250
 16  2 13  2 12  0.0000000  0  1G01
 129068837.362 6 100573139.94645  24560980.200
  24560984.280          41.500          37.750
 16  2 13  2 12 30.0000000  0  1G01
 128995625.036 6 100516091.43145  24547048.240
  24547052.900          40.750          36.500
 16  2 13  2 13  0.0000000  0  1G01
 128922526.762 6 100459131.75245  24533137.720
  24533142.660          41.000          36.500
 16  2 13  2 13 30.0000000  0  1G01
 128849551.346 6 100402267.82844  24519250.880
  24519255.380          41.250          34.500
 16  2 13  2 14  0.0000000  0  1G01
 128776697.202 7 100345498.41544  24505387.280
  24505391.360          42.250          35.250
 16  2 13  2 14 30.0000000  0  1G01
 128703964.537 7 100288823.63345  24491546.720
  24491550.900          43.000          36.000
 16  2 13  2 15  0.0000000  0  1G01
 128631361.797 7 100232250.06745  24477730.900
  24477735.280          43.500          36.750
 16  2 13  2 15 30.0000000  0  1G01
 128558888.991 7 100175777.78845  24463939.920
  24463944.180          42.500          38.000
 16  2 13  2 16  0.0000000  0  1G01
 128486552.569 6 100119411.76745  24450174.620
  24450179.060          41.750          38.000
 16  2 13  2 16 30.0000000  0  1G01
 128414352.672 7 100063152.17746  24436435.100
  24436440.040          42.750          39.000
 16  2 13  2 17  0.0000000  0  1G01
 128342292.935 7 100007001.77145  24422722.600
  24422727.320          42.500          36.000
 16  2 13  2 17 30.0000000  0  1G01
 128270374.871 6  99950961.75245  24409036.960
  24409041.480          41.500          38.250
 16  2 13  2 18  0.0000000  0  1G01
 128198609.351 6  99895040.60444  24395380.420
  24395384.740          40.250          35.000
 16  2 13  2 18 30.0000000  0  1G01
 128126994.534 6  99839236.88445  24381752.460
  24381756.980          39.750          36.500
 16  2 13  2 19  0.0000000  0  1G01
 128055532.802 6  99783552.46444  24368153.640
  24368158.600          39.750          35.500
 16  2 13  2 19 30.0000000  0  1G01
 127984228.768 5  99727990.92045  24354585.060
  24354589.740          38.750          37.500