     2.11           OBSERVATION DATA    G (GPS)             RINEX VERSION / TYPE
teqc  2016Nov7      root                20180417 16:17:35UTCPGM / RUN BY / DATE
Linux 2.4.21-27.ELsmp|Opteron|gcc|Linux x86_64|=+           COMMENT
     2.11           OBSERVATION DATA    G (GPS)             COMMENT
teqc  2015Nov6      CORS-ADM Account    20160214 00:53:28UTCCOMMENT
Solaris x86 5.10|AMD64|cc SC5.8 -xarch=amd64|=+|=+          COMMENT
teqc  2015Nov6      CORS-ADM Account    20160214 00:53:08UTCCOMMENT
teqc  2015Nov6      NOAA/NOS/NGS/CORS   20160213 01:14:44UTCCOMMENT
Spider V5.3.1.6235  MIDOT               2016 02 13 01:00    COMMENT
BIT 2 OF LLI FLAGS DATA COLLECTED UNDER A/S CONDITION       COMMENT
SNR is mapped to RINEX snr flag value [1-9]                 COMMENT
LX:    >= 25dBHz -> 1; 26-27dBHz -> 2; 28-31dBHz -> 3       COMMENT
       32-35dBHz -> 4; 36-38dBHz -> 5; 39-41dBHz -> 6       COMMENT
       42-44dBHz -> 7; 45-48dBHz -> 8; >= 49dBHz -> 9       COMMENT
teqc edited: all SBAS satellites excluded                   COMMENT
teqc edited: all Compass satellites excluded                COMMENT
teqc edited: all QZSS satellites excluded                   COMMENT
Forced Modulo Decimation to 30 seconds                      COMMENT
BRIG                                                        MARKER NAME
49613S001                                                   MARKER NUMBER
Shawn Roy           MIDT                                    OBSERVER / AGENCY
458402              LEICA GRX1200PRO    9.20/6.404          REC # / TYPE / VERS
659                 LEIAT504GG      LEIS                    ANT # / TYPE
   512039.3140 -4680416.2930  4288537.5030                  APPROX POSITION XYZ
        0.0000        0.0000        0.0000                  ANTENNA: DELTA H/E/N
     1     1                                                WAVELENGTH FACT L1/2
     8    L1    L2    C1    C2    P1    P2    S1    S2      # / TYPES OF OBSERV
    30.0000                                                 INTERVAL
teqc.w windowed: start @ 2016 Feb 13 00:00:00.000           COMMENT
teqc.w windowed:  end  @ 2016 Feb 13 05:00:00.000           COMMENT
teqc.w edited: all GLONASS satellites excluded              COMMENT
  2016     2    13     1    30    0.0000000     GPS         TIME OF FIRST OBS
                                                            END OF HEADER
 16  2 13  1 30  0.0000000  0 10G01G07G08G09G11G16G23G27G28G30
                                  24828175.860
  24828175.100          36.650          33.050
 106753939.578 9  83184876.82249  20314593.420
  20314587.240          51.000          51.100
 107514709.778 9  83777742.42849  20459350.660
  20459347.160          51.750          50.650
 117879509.185 8  91854166.73047  22431714.760
  22431711.460          47.950          44.950
 120461292.740 8  93865942.22145  22923016.460
  22923010.760          46.000          38.750
 128977539.679 7 100501953.73843  24543611.420
  24543604.840          42.100          31.700
 126765988.970 7  98778675.33844  24122759.040
  24122752.940          43.050          32.250
 114717077.197 9  89389974.76348  21829912.120
  21829908.260          49.600          47.050
 126812636.367 7  98815022.38044  24131637.960
  24131632.740          43.550          34.500
 115726077.424 9  90176173.48948  22021930.780
  22021927.060          49.750          45.850
 16  2 13  1 30 30.0000000  0 10G01G07G08G09G11G16G23G27G28G30
 130368182.187 5 101585592.10443  24808241.220
  24808239.720          37.550          29.500
 106715865.143 9  83155208.44249  20307348.100
  20307341.860          51.000          51.000
 107531090.588 9  83790506.67949  20462467.780
  20462464.340          51.650          50.850
 117965249.839 8  91920977.57647  22448030.600
  22448027.540          47.450          44.800
 120361355.279 8  93788068.91945  22903999.040
  22903993.100          46.400          38.750
 129067928.336 6 100572386.40344  24560811.620
  24560805.280          40.950          35.100
 126876846.836 7  98865058.09744  24143854.720
  24143848.540          44.550          32.900
 114793330.463 9  89449392.89948  21844422.720
  21844418.740          50.050          48.050
 126741945.099 7  98759938.35144  24118185.900
  24118180.320          43.050          35.100
 115645077.150 9  90113056.41148  22006517.060
  22006513.200          49.150          45.350
 16  2 13  1 31  0.0000000  0 10G01G07G08G09G11G16G23G27G28G30
 130263359.659 5 101503912.27743  24788293.740
  24788290.880          37.600          31.250
 106678211.627 9  83125868.04849  20300182.820
  20300176.540          51.100          51.100
 107548007.635 9  83803688.82249  20465687.040
  20465683.460          51.800          50.150
 118051311.109 8  91988038.26247  22464407.500
  22464404.620          47.800          44.350
 120261641.228 8  93710369.67545  22885024.160
  22885018.160          47.000          38.500
 129158311.375 6 100642814.73544  24578010.800
  24578004.920          41.200          32.850
 126987741.866 8  98951469.73444  24164957.680
  24164951.100          45.600          33.350
 114869949.689 9  89509096.18648  21859002.960
  21858998.760          49.650          47.400
 126671357.558 7  98704935.14444  24104753.220
  24104747.700          43.200          35.400
 115564302.741 9  90050115.33148  21991146.220
  21991142.280          49.700          45.900
 16  2 13  1 31 30.0000000  0 10G01G07G08G09G11G16G23G27G28G30
 130158481.405 6 101422189.04044  24768336.060
  24768334.880          39.000          35.700
 106640978.873 9  83096855.51849  20293097.680
  20293091.360          51.450          51.400
 107565458.270 9  83817286.72249  20469007.780
  20469004.200          51.700          51.000
 118137688.182 8  92055345.04447  22480844.540
  22480841.420          47.600          44.350
 120162151.451 8  93632845.19746  22866091.980
  22866085.920          46.900          39.600
 129248686.185 7 100713236.61344  24595208.620
  24595202.300          43.500          33.900
 127098669.301 8  99037906.64545  24186066.700
  24186059.900          45.350          37.350
 114946930.528 9  89569081.28848  21873651.920
  21873647.720          49.950          48.500
 126600871.854 7  98650011.25345  24091340.180
  24091334.640          43.150          37.400
 115483754.354 9  89987350.37548  21975818.320
  21975814.460          49.750          45.600
 16  2 13  1 32  0.0000000  0 10G01G07G08G09G11G16G23G27G28G30
 130053551.758 5 101340425.75644  24748368.540
  24748366.940          38.100          32.100
 106604170.484 9  83068173.67149  20286093.300
  20286086.980          51.050          51.100
 107583442.363 9  83831300.31549  20472430.040
  20472426.500          51.850          50.300
 118224379.574 8  92122896.74847  22497341.360
  22497338.260          48.050          44.800
 120062890.592 8  93555499.10546  22847203.180
  22847197.320          46.400          39.600
 129339053.922 6 100783653.06443  24612405.260
  24612398.740          41.650          30.600
 127209627.622 8  99124367.70044  24207181.560
  24207174.640          45.450          35.500
 115024271.799 9  89629347.18048  21888369.580
  21888365.300          49.900          46.650
 126530489.380 7  98595167.84745  24077946.780
  24077941.080          43.300          37.050
 115403435.645 9  89924764.39148  21960533.980
  21960530.280          49.550          46.300
 16  2 13  1 32 30.0000000  0 10G01G07G08G09G11G16G23G27G28G30
 129948573.522 6 101258624.55844  24728391.680
  24728390.100          39.400          35.500
 106567788.039 9  83039823.73349  20279169.900
  20279163.660          51.250          51.250
 107601958.601 9  83845728.55249  20475953.580
  20475950.020          51.750          50.750
 118311382.207 8  92190690.97647  22513897.440
  22513894.360          47.650          43.800
 119963861.393 8  93478333.54146  22828358.520
  22828352.860          46.750          39.550
 129429414.467 6 100854063.79544  24629600.280
  24629593.800          40.450          34.050
 127320614.252 6  99210850.77045  24228301.480
  24228295.100          41.900          37.900
 115101970.914 9  89689891.95448  21903155.240
  21903151.020          50.000          48.050
 126460209.757 7  98540404.57244  24064573.000
  24064567.320          42.950          34.150
 115323348.537 9  89862358.87248  21945293.800
  21945290.220          49.150          45.700
 16  2 13  1 33  0.0000000  0 10G01G07G08G09G11G16G23G27G28G30
 129843550.588 6 101176788.66144  24708406.320
  24708405.420          39.550          32.000
 106531834.521 9  83011808.00049  20272328.200
  20272321.920          51.450          51.450
 107621007.159 9  83860571.58449  20479578.300
  20479574.880          51.650          50.750
 118398694.293 8  92258726.33747  22530512.560
  22530509.360          48.400          44.550
 119865068.555 8  93401352.14346  22809558.900
  22809553.160          46.550          39.050
 129519768.474 6 100924469.48844  24646793.820
  24646787.660          41.550          35.350
 127431627.194 5  99297354.25945  24249426.020
  24249420.280          38.950          36.900
 115180026.396 9  89750714.41848  21918008.760
  21918004.580          49.800          48.400
 126390034.315 7  98485722.49445  24051218.920
  24051213.680          42.300          37.350
 115243496.287 9  89800136.35048  21930098.360
  21930094.920          49.600          46.400
 16  2 13  1 33 30.0000000  0 10G01G07G08G09G11G16G23G27G28G30
 129738484.378 5 101094918.95444  24688412.760
  24688412.100          37.350          35.600
 106496310.524 9  82984126.97349  20265568.240
  20265561.920          51.450          51.400
 107640584.983 9  83875827.04049  20483303.740
  20483300.440          51.250          50.650
 118486311.257 8  92326999.27047  22547185.560
  22547182.480          46.550          44.400
 119766513.470 8  93324556.03746  22790804.380
  22790798.580          46.150          39.750
 129610113.296 6 100994868.08844  24663985.900
  24663979.820          39.100          35.300
 127542662.213 6  99383874.91945  24270554.740
  24270549.040          40.300          38.200
 115258434.174 9  89811811.39048  21932929.160
  21932925.120          49.750          46.750
 126319961.250 7  98431120.19144  24037884.420
  24037879.760          42.450          35.550
 115163879.446 9  89738097.28648  21914947.740
  21914944.180          49.850          47.250
 16  2 13  1 34  0.0000000  0 10G01G07G08G09G11G16G23G27G28G30
 129633377.278 6 101013017.39244  24668411.160
  24668410.480          39.000          35.500
 106461217.533 9  82956781.80249  20258890.220
  20258883.960          51.250          51.250
 107660690.291 9  83891493.51849  20487129.600
  20487126.360          51.450          50.900
 118574229.622 8  92395507.03947  22563915.500
  22563912.820          46.700          44.850
 119668198.333 8  93247946.89746  22772095.520
  22772089.540          46.100          39.850
 129700448.150 7 101065258.86844  24681176.060
  24681170.020          42.050          33.000
 127653715.687 6  99470410.03145  24291687.740
  24291682.080          41.200          36.100
 115337191.149 9  89873180.46148  21947916.060
  21947912.020          49.450          48.650
 126249990.345 7  98376597.45744  24024569.640
  24024564.500          43.600          35.800
 115084499.616 9  89676242.90148  21899842.300
  21899838.600          49.750          46.450
 16  2 13  1 34 30.0000000  0 10G01G07G08G09G11G16G23G27G28G30
 129528232.177 6 100931086.20844  24648402.560
  24648402.080          40.750          35.650
 106426557.248 9  82929773.79049  20252294.500
  20252288.260          51.400          51.400
 107681321.839 9  83907570.05749  20491055.640
  20491052.420          51.500          50.650
 118662446.441 8  92464247.36647  22580702.440
  22580699.700          47.250          44.600
 119570126.360 8  93171527.18546  22753432.960
  22753426.920          46.600          39.250
 129790772.795 5 101135641.70744  24698364.240
  24698358.360          38.100          34.050
 127764784.898 7  99556957.43744  24312824.000
  24312818.120          44.050          34.700
 115416294.785 9  89934819.65448  21962968.900
  21962965.020          49.250          47.500
 126180121.419 7  98322154.17145  24011273.960
  24011268.320          44.000          36.100
 115005359.010 9  89614574.91548  21884782.440
  21884778.600          49.900          46.450
 16  2 13  1 35  0.0000000  0 10G01G07G08G09G11G16G23G27G28G30
 129423053.283 6 100849128.71444  24628387.760
  24628387.620          40.200          34.600
 106392332.482 9  82903105.15749  20245781.700
  20245775.520          51.550          51.500
 107702479.836 9  83924056.81049  20495081.820
  20495078.640          51.350          50.700
 118750959.852 8  92533218.81247  22597546.060
  22597543.020          46.900          43.450
 119472302.004 8  93095300.44146  22734817.600
  22734811.800          46.850          39.300
 129881087.542 5 101206016.76744  24715550.380
  24715544.680          38.300          34.200
 127875868.242 8  99643515.90145  24333963.040
  24333956.340          45.100          36.800
 115495743.691 9  89996727.88848  21978087.620
  21978083.680          50.150          47.550
 126110355.432 7  98267791.10744  23997997.900
  23997992.200          43.700          35.750
 114926460.819 9  89553095.83048  21869768.620
  21869764.820          50.050          46.900
 16  2 13  1 35 30.0000000  0 10G01G07G08G09G11G16G23G27G28G30
 129317842.131 6 100767146.06446  24608366.720
  24608366.500          41.100          39.000
 106358544.138 9  82876776.58449  20239351.960
  20239345.860          51.150          51.150
 107724161.521 9  83940951.62949  20499207.700
  20499204.440          51.600          50.900
 118839765.689 8  92602418.12147  22614445.600
  22614442.400          47.550          44.200
 119374726.999 8  93019268.00146  22716249.760
  22716244.060          47.250          40.000
 129971391.112 6 101276383.19145  24732734.760
  24732729.120          40.600          36.550
 127986961.531 8  99730082.12145  24355103.880
  24355096.640          45.100          36.600
 115575534.103 9  90058902.22448  21993271.340
  21993267.200          49.950          47.750
 126040691.331 7  98213507.44245  23984741.340
  23984735.400          44.200          37.050
 114847805.984 9  89491806.37148  21854801.060
  21854797.300          49.700          46.000
 16  2 13  1 36  0.0000000  0 10G01G07G08G09G11G16G23G27G28G30
 129212603.251 6 100685141.77345  24588340.400
  24588339.700          39.600          37.100
 106325195.599 9  82850790.71749  20233006.020
  20232999.740          51.300          51.300
 107746366.918 9  83958254.53249  20503433.340
  20503429.920          51.800          50.200
 118928862.464 8  92671844.15347  22631400.360
  22631397.120          47.350          43.500
 119277405.973 8  92943433.48445  22697730.220
  22697724.280          47.200          38.850
 130061684.327 6 101346741.45944  24749917.180
  24749911.420          40.900          32.750
 128098063.514 7  99816655.05244  24376245.960
  24376238.620          44.650          33.750
 115655664.909 9  90121341.81048  22008519.800
  22008515.580          49.750          47.500
 125971130.374 7  98159304.16845  23971504.200
  23971498.240          43.450          36.100
 114769398.217 9  89430709.43848  21839880.520
  21839876.860          49.900          46.700
 16  2 13  1 36 30.0000000  0 11G01G07G08G09G11G13G16G23G27G28G30
 129107339.833 6 100603118.43645  24568309.420
  24568308.560          40.550          36.650
 106292288.824 9  82825149.07949  20226744.120
  20226737.800          51.650          51.650
 107769094.962 9  83975964.71949  20507758.340
  20507755.000          51.600          50.250
 119018247.396 8  92741494.71847  22648409.860
  22648406.640          47.050          43.700
 119180341.952 8  92867799.21946  22679259.560
  22679253.420          47.200          39.250
 134510041.672 6                  25596409.600
                        39.050
 130151966.943 6 101417091.60043  24767097.540
  24767091.400          39.600          31.950
 128209171.407 5  99903232.61844  24397388.660
  24397381.940          36.850          35.250
 115736133.825 9  90184044.86548  22023832.480
  22023828.200          49.650          45.450
 125901672.918 7  98105181.52245  23958286.940
  23958280.700          44.350          36.000
 114691239.764 9  89369806.77248  21825007.460
  21825003.840          50.350          47.150
 16  2 13  1 37  0.0000000  0 10G01G07G08G09G11G13G16G27G28G30
 129002055.886 6 100521079.08545  24548274.520
  24548273.880          40.500          37.200
 106259826.712 9  82799853.94149  20220566.820
  20220560.500          51.350          51.350
 107792345.630 9  83994082.12249  20512182.780
  20512179.500          51.300          50.850
 119107918.667 8  92811368.40948  22665473.720
  22665470.760          47.000          45.000
 119083539.593 8  92792368.83646  22660838.660
  22660832.540          46.650          40.300
 134413354.243 5                  25578010.140
                        38.400
 130242240.433 5 101487434.52445  24784275.780
  24784270.180          38.500          36.900
 115816939.475 9  90247010.33848  22039209.220
  22039205.000          49.400          47.550
 125832319.963 7  98051140.34645  23945089.220
  23945083.320          43.100          37.500
 114613334.029 9  89309101.02748  21810182.520
  21810178.820          49.850          47.200
 16  2 13  1 37 30.0000000  0 11G01G07G08G09G11G13G16G23G27G28G30
 128896747.623 6 100439020.74044  24528235.080
  24528234.320          41.700          35.950
 106227804.392 9  82774901.49449  20214473.200
  20214466.840          51.600          51.600
 107816110.511 9  84012600.21649  20516705.140
  20516701.800          51.450          50.550
 119197866.327 8  92881457.46447  22682590.080
  22682587.320          46.000          43.250
 118986994.507 8  92717138.92946  22642466.720
  22642460.680          46.850          39.200
 134316933.383 5 104662506.82443  25559662.200
  25559655.560          36.650          30.900
 130332496.800 6 101557764.10744  24801451.160
  24801445.140          39.200          34.150
 128431358.802 6 100076366.02645  24439675.760
  24439669.820          41.800          36.550
 115898072.333 9  90310230.73448  22054648.260
  22054644.280          49.150          46.800
 125763064.376 7  97997175.02145  23931909.980
  23931904.600          43.600          37.150
 114535676.223 9  89248588.47648  21795404.700
  21795401.000          50.350          47.100
 16  2 13  1 38  0.0000000  0 10G01G07G08G09G11G16G23G27G28G30
 128791425.425 6 100356951.54345  24508192.980
  24508191.980          41.300          36.500
 106196231.053 9  82750298.89349  20208465.020
  20208458.600          51.500          51.550
 107840395.612 9  84031523.66749  20521326.500
  20521323.080          51.500          50.600
 119288094.978 8  92951765.44347  22699759.740
  22699756.960          46.150          42.700
 118890717.678 8  92642118.05646  22624145.900
  22624139.940          47.400          40.050
 130422742.533 6 101628085.50744  24818624.240
  24818618.420          41.300          33.400
 128542465.594 7 100162942.76345  24460818.880
  24460812.660          44.200          36.950
 115979537.414 9  90373709.99848  22070150.440
  22070146.640          49.450          47.000
 125693913.911 7  97943291.61445  23918750.760
  23918745.520          42.950          36.450
 114458276.025 9  89188276.65148  21780676.000
  21780672.140          50.250          46.650
 16  2 13  1 38 30.0000000  0 10G01G07G08G09G11G16G23G27G28G30
 128686088.333 6 100274870.75445  24488148.000
  24488147.060          41.200          37.200
 106165104.440 9  82726044.39949  20202541.840
  20202535.400          51.300          51.350
 107865195.706 9  84050848.43249  20526045.820
  20526042.420          51.750          50.200
 119378597.583 8  93022286.91647  22716981.840
  22716978.800          47.000          44.050
 118794707.843 8  92567305.24146  22605875.880
  22605869.820          47.150          39.800
 130512974.174 6 101698395.81144  24835795.020
  24835789.180          40.350          32.300
 128653565.316 7 100249513.99145  24481960.240
  24481954.240          44.950          36.900
 116061328.176 9  90437443.05348  22085714.700
  22085710.860          49.350          47.600
 125624864.597 7  97889487.02544  23905610.940
  23905605.640          43.700          35.900
 114381131.676 9  89128164.19648  21765995.860
  21765992.000          50.050          47.500
 16  2 13  1 39  0.0000000  0 10G01G07G08G09G11G16G23G27G28G30
 128580740.361 6 100192781.50146  24468100.760
  24468100.080          41.250          39.400
 106134427.761 9  82702140.50349  20196704.260
  20196697.800          51.500          51.600
 107890510.389 9  84070574.15749  20530863.040
  20530859.620          51.450          50.700
 119469372.227 8  93093020.36447  22734256.000
  22734252.840          47.350          44.650
 118698969.516 8  92492703.97946  22587657.280
  22587651.180          47.100          40.300
 130603192.221 6 101768695.54144  24852962.920
  24852956.620          40.750          33.600
 128764655.917 7 100336078.13545  24503099.960
  24503094.260          43.150          36.950
 116143443.200 9  90501428.79448  22101340.680
  22101336.820          49.300          47.150
 125555917.552 7  97835762.10445  23892490.760
  23892485.240          43.800          37.700
 114304246.361 9  89068253.57748  21751365.040
  21751361.260          50.150          47.200
 16  2 13  1 39 30.0000000  0 10G01G07G08G09G11G16G23G27G28G30
 128475384.565 6 100110686.12245  24448052.260
  24448051.360          40.600          37.750
 106104202.169 9  82678588.10449  20190952.560
  20190946.000          51.600          51.550
 107916338.066 9  84090699.63349  20535777.860
  20535774.500          51.350          50.350
 119560415.830 8  93163963.41347  22751581.300
  22751578.120          47.550          43.850
 118603505.574 8  92418316.53646  22569490.900
  22569484.880          47.400          39.400
 130693395.993 5 101838984.18844  24870128.340
  24870121.940          37.500          33.850
 128875734.865 6 100422633.12744  24524237.520
  24524231.940          40.750          35.000
 116225879.801 9  90565665.08848  22117027.840
  22117023.980          49.900          46.150
 125487072.160 7  97782116.42845  23879390.120
  23879384.300          44.000          36.650
 114227622.226 9  89008546.49448  21736783.840
  21736780.200          50.100          47.500
 16  2 13  1 40  0.0000000  0  9G01G07G08G09G11G23G27G28G30
 128370027.036 6 100028589.39645  24428003.300
  24428002.620          41.700          38.050
 106074433.283 9  82655391.57649  20185287.700
  20185281.160          51.550          51.450
 107942680.739 9  84111226.39449  20540790.680
  20540787.380          51.450          50.200
 119651728.566 8  93235116.16847  22768957.680
  22768954.520          47.250          43.300
 118508322.257 8  92344147.75446  22551378.260
  22551372.060          47.750          40.050
 128986802.168 5 100509178.98145  24545372.680
  24545367.360          36.650          36.600
 116308638.624 9  90630152.45648  22132776.440
  22132772.400          49.650          46.250
 125418331.892 7  97728552.63445  23866309.480
  23866303.480          44.350          37.900
 114151264.640 9  88949047.09748  21722253.380
  21722249.760          50.250          46.700
 16  2 13  1 40 30.0000000  0  9G01G07G08G09G11G23G27G28G30
 128264663.095 6  99946487.69145  24407953.220
  24407952.340          40.550          38.650
 106045114.734 9  82632545.96349  20179708.540
  20179702.040          51.650          51.700
 107969528.894 9  84132147.04049  20545899.740
  20545896.340          51.550          50.000
 119743299.706 8  93306470.26246  22786382.300
  22786379.820          45.950          41.600
 118413414.816 8  92270193.93746  22533318.080
  22533311.880          47.600          39.800
 129097847.759 5 100595707.95444  24566503.900
  24566498.160          37.550          35.550
 116391709.395 9  90694882.93948  22148584.300
  22148580.260          49.650          45.250
 125349688.971 7  97675064.72644  23853247.180
  23853241.380          43.150          35.550
 114075168.012 9  88889751.04348  21707772.640
  21707768.880          50.550          47.050
 16  2 13  1 41  0.0000000  0 10G01G07G08G09G11G16G23G27G28G30
 128159301.953 6  99864388.15845  24387903.480
  24387902.600          41.100          38.000
 106016254.644 9  82610057.59449  20174216.640
  20174210.180          51.600          51.650
 107996887.562 9  84153465.47149  20551105.940
  20551102.480          51.750          50.050
 119835132.441 8  93378028.19046  22803857.580
  22803855.000          46.150          41.500
 118318792.585 8  92196462.35046  22515311.900
  22515305.940          47.500          40.800
 130963922.452 5 102049793.07044  24921607.000
  24921602.540          36.550          33.850
 129208878.091 6 100682215.69745  24587631.660
  24587625.980          41.250          36.650
 116475095.832 9  90759859.36347  22164452.300
  22164448.080          49.350          44.950
 125281149.690 7  97621657.53544  23840204.520
  23840198.720          44.050          35.700
 113999340.850 9  88830664.95648  21693343.260
  21693339.420          50.650          47.600
 16  2 13  1 41 30.0000000  0 10G01G07G08G09G11G16G23G27G28G30
 128053941.992 6  99782289.52545  24367854.140
  24367853.000          41.100          38.550
 105987850.145 9  82587924.22049  20168811.360
  20168804.920          51.350          51.350
 108024750.659 9  84175176.97549  20556408.140
  20556404.640          51.800          50.300
 119927219.108 8  93449783.99147  22821381.180
  22821378.520          46.700          42.550
 118224453.928 8  92122951.73146  22497359.660
  22497353.880          47.650          40.100
 131054063.347 6 102120032.82043  24938760.640
  24938753.380          40.800          28.950
 129319879.537 7 100768710.29645  24608755.880
  24608749.140          43.100          36.250
 116558790.665 9  90825076.10348  22180378.860
  22180374.640          49.250          47.000
 125212709.104 7  97568327.24945  23827180.780
  23827175.080          43.600          36.850
 113923780.561 9  88771786.83148  21678964.700
  21678960.840          50.300          47.600
 16  2 13  1 42  0.0000000  0 10G01G07G08G09G11G16G23G27G28G30
 127948590.547 6  99700197.56445  24347806.520
  24347805.160          41.050          36.450
 105959907.177 9  82566150.48749  20163493.980
  20163487.520          51.450          51.450
 108053120.877 9  84197283.64049  20561806.800
  20561803.320          51.800          50.300
 120019560.951 8  93521738.65447  22838953.460
  22838950.500          45.700          42.850
 118130406.292 8  92049667.89446  22479463.060
  22479456.960          47.850          39.350
 131144189.717 6 102190261.1384   24955911.620
  24955902.120          40.050          20.700
 129430856.751 7 100855186.02245  24629873.980
  24629867.440          43.650          36.100
 116642795.673 9  90890534.55948  22196364.400
  22196360.220          49.200          45.850
 125144371.333 7  97515077.10145  23814176.480
  23814170.700          44.350          36.650
 113848493.691 9  88713121.75848  21664638.160
  21664634.300          50.450          47.800
 16  2 13  1 42 30.0000000  0 10G01G07G08G09G11G16G23G27G28G30
 127843250.891 6  99618114.78145  24327760.940
  24327759.680          40.300          38.900
 105932427.976 9  82544738.13549  20158264.880
  20158258.320          51.550          51.600
 108081996.942 9  84219784.48249  20567301.700
  20567298.260          51.500          50.300
 120112155.222 8  93593889.99347  22856573.820
  22856570.560          47.250          43.100
 118036653.036 8  91976613.47246  22461622.520
  22461616.200          47.600          40.300
 131234300.861 6 102260477.59144  24973059.240
  24973051.240          40.100          32.650
 129541807.124 7 100941640.78745  24650987.200
  24650980.420          42.650          36.800
 116727108.584 9  90956232.93848  22212408.620
  22212404.440          49.450          45.650
 125076136.855 7  97461907.42345  23801192.000
  23801185.580          43.700          37.650
 113773482.713 9  88654671.66548  21650364.060
  21650360.240          50.550          48.200
 16  2 13  1 43  0.0000000  0 11G01G07G08G09G11G13G16G23G27G28G30
 127737922.962 6  99536041.10445  24307717.720
  24307716.380          40.550          38.050
 105905411.271 9  82523686.17149  20153123.760
  20153117.160          51.350          51.350
 108111373.789 9  84242675.51149  20572891.960
  20572888.420          51.750          50.550
 120204995.771 8  93666233.24147  22874241.100
  22874237.860          45.900          43.800
 117943193.772 8  91903788.12546  22443837.860
  22443831.560          47.550          40.700
 133275007.908 5 103850633.07744  25361391.260
  25361385.980          36.800          33.300
 131324393.801 6 102330679.8564   24990203.360
  24990195.760          39.850          22.750
 129652724.797 7 101028070.05944  24672094.040
  24672087.480          42.300          34.500
 116811723.733 9  91022166.82448  22228510.360
  22228506.180          49.650          47.050
 125008002.637 7  97408815.89444  23788226.340
  23788219.720          43.850          35.550
 113698746.655 9  88596435.78648  21636142.280
  21636138.440          50.100          47.650
 16  2 13  1 43 30.0000000  0 11G01G07G08G09G11G13G16G23G27G28G30
 127632613.304 6  99453981.68045  24287677.920
  24287676.740          40.300          36.750
 105878861.505 9  82502998.04449  20148071.500
  20148064.900          51.600          51.650
 108141253.807 9  84265958.67749  20578577.940
  20578574.360          51.450          50.000
 120298083.054 8  93738768.76247  22891955.040
  22891952.100          46.250          43.700
 117850035.220 8  91831197.07446  22426110.220
  22426104.180          47.450          40.700
 133182058.086 4 103778204.51144  25343702.420
  25343696.080          35.950          33.450
 131414471.636 5 102400870.25444  25007344.400
  25007337.640          37.600          33.550
 129763610.583 6 101114474.61144  24693195.060
  24693188.240          40.850          35.750
 116896642.045 9  91088336.90347  22244669.720
  22244665.600          49.050          44.950
 124939971.765 7  97355804.87245  23775280.380
  23775273.800          44.000          37.700
 113624291.239 9  88538418.59648  21621973.760
  21621970.060          50.350          48.150
 16  2 13  1 44  0.0000000  0 11G01G07G08G09G11G13G16G23G27G28G30
 127527324.388 6  99371938.44145  24267641.900
  24267640.960          40.050          38.050
 105852780.323 9  82482675.05749  20143108.340
  20143101.860          51.300          51.250
 108171635.043 9  84289632.35149  20584359.280
  20584355.700          51.600          50.400
 120391413.493 8  93811493.71447  22909714.820
  22909712.460          45.450          42.550
 117757179.950 8  91758842.35946  22408440.420
  22408434.440          48.100          40.800
 133089416.459 3 103706016.3864   25326071.860
  25326068.500          30.900          20.650
 131504533.482 5 102471048.30143  25024482.560
  25024476.620          37.750          28.900
 129874461.468 7 101200851.83343  24714289.060
  24714282.340          43.200          31.500
 116981860.409 9  91154740.85148  22260886.160
  22260882.220          49.500          46.050
 124872043.463 7  97302873.76744  23762353.960
  23762347.540          43.800          35.550
 113550118.082 9  88480621.34048  21607859.040
  21607855.280          50.450          47.250
 16  2 13  1 44 30.0000000  0 11G01G07G08G09G11G13G16G23G27G28G30
 127422055.896 6  99289911.07345  24247609.740
  24247608.980          40.700          37.850
 105827166.179 9  82462715.98849  20138234.100
  20138227.620          51.650          51.650
 108202512.197 9  84313692.48349  20590234.940
  20590231.460          51.450          49.800
 120484980.569 8  93884403.09346  22927519.860
  22927517.520          45.650          41.700
 117664627.403 8  91686723.52846  22390828.200
  22390822.140          47.800          40.150
 132997082.640 6 103634067.03444  25308500.400
  25308497.400          39.000          33.400
 131594591.330 5 102541212.62544  25041617.740
  25041611.160          36.350          33.050
 129985271.069 5 101287197.00244  24735375.180
  24735368.880          37.950          34.250
 117067372.890 9  91221373.91248  22277158.600
  22277154.760          49.100          45.000
 124804214.719 7  97250020.24945  23749446.420
  23749440.300          43.200          37.350
 113476226.019 9  88423043.11848  21593797.780
  21593794.020          50.600          48.250
 16  2 13  1 45  0.0000000  0 11G01G07G08G09G11G13G16G23G27G28G30
 127316811.270 6  99207902.34344  24227582.260
  24227581.480          40.300          34.500
 105802021.076 9  82443122.40149  20133449.120
  20133442.640          51.700          51.700
 108233883.960 9  84338138.01549  20596204.760
  20596201.320          51.500          49.800
 120578781.717 8  93957494.86246  22945369.640
  22945366.980          46.200          41.150
 117572381.007 8  91614843.26346  22373274.180
  22373268.000          47.700          40.250
 132905059.746 6 103562360.87943  25290989.260
  25290985.500          39.800          29.500
 131684609.546 5 102611373.78643  25058748.540
  25058740.440          38.700          29.550
 130096037.135 5 101373508.23244  24756453.040
  24756446.860          38.000          35.100
 117153177.361 9  91288234.54547  22293486.720
  22293482.840          49.350          44.000
 124736485.748 7  97197244.47745  23736557.920
  23736551.840          44.300          36.100
 113402617.584 9  88365685.90448  21579790.580
  21579786.780          50.850          48.050
 16  2 13  1 45 30.0000000  0 11G01G07G08G09G11G13G16G23G27G28G30
 127211595.436 6  99125916.02345  24207560.320
  24207559.180          40.000          37.000
 105777348.093 9  82423896.72749  20128753.980
  20128747.500          51.550          51.600
 108265750.850 9  84362969.36649  20602268.780
  20602265.280          51.450          49.900
 120672815.682 8  94030768.04046  22963263.740
  22963261.240          46.150          41.950
 117480445.541 8  91543205.26646  22355779.340
  22355773.100          47.700          39.900
 132813352.351 6 103490900.66343  25273538.280
  25273534.600          39.800          31.250
 131774613.608 5 102681506.91142  25075875.200
  25075868.640          38.300          26.850
 130206758.581 5 101459784.76344  24777522.360
  24777516.340          37.850          34.750
 117239273.085 9  91355322.13747  22309870.260
  22309866.320          49.100          44.800
 124668858.255 7  97144547.76045  23723688.880
  23723682.340          44.000          36.250
 113329296.883 9  88308552.90648  21565838.180
  21565834.360          50.650          47.950
 16  2 13  1 46  0.0000000  0 11G01G07G08G09G11G13G16G23G27G28G30
 127106410.409 6  99043953.75145  24187544.360
  24187543.260          40.350          37.800
 105753148.148 9  82405039.62749  20124148.940
  20124142.340          51.600          51.600
 108298110.139 9  84388184.39749  20608426.500
  20608423.020          51.400          50.050
 120767078.348 8  94104219.45046  22981201.780
  22981198.320          47.050          41.100
 117388823.317 8  91471811.34546  22338344.100
  22338337.980          47.600          40.200
 132721962.173 6 103419687.62243  25256147.660
  25256143.280          39.650          30.300
 131864598.084 5 102751624.64244  25092998.260
  25092991.620          36.850          33.650
 130317432.292 6 101546023.98844  24798583.040
  24798577.640          39.750          35.850
 117325656.495 8  91422633.87347  22326308.400
  22326304.460          48.800          44.950
 124601331.176 7  97091929.32245  23710838.720
  23710832.580          44.100          36.350
 113256265.022 9  88251644.97148  21551940.640
  21551936.840          50.700          48.450
 16  2 13  1 46 30.0000000  0 11G01G07G08G09G11G13G16G23G27G28G30
 127001260.568 6  98962018.84744  24167535.280
  24167534.100          40.650          35.800
 105729424.416 9  82386553.60649  20119634.500
  20119627.860          51.450          51.450
 108330961.442 9  84413782.81049  20614677.900
  20614674.420          51.400          49.950
 120861568.069 8  94177847.81646  22999182.840
  22999179.080          46.600          41.800
 117297518.534 8  91400664.76946  22320969.420
  22320963.260          47.650          39.800
 132630893.370 6 103348724.8734   25238818.380
  25238812.520          40.800          23.350
 131954563.238 4 102821727.37344  25110117.020
  25110112.000          34.700          32.250
 130428056.475 5 101632224.60745  24819634.540
  24819628.760          38.050          37.700
 117412326.400 8  91490168.85247  22342801.060
  22342796.860          48.850          44.450
 124533905.765 7  97039390.05745  23698007.920
  23698001.800          43.600          38.000
 113183525.615 9  88194964.92448  21538098.780
  21538094.920          50.550          48.050
 16  2 13  1 47  0.0000000  0 11G01G07G08G09G11G13G16G23G27G28G30
 126896148.639 6  98880113.48544  24147533.260
  24147531.740          40.650          35.900
 105706177.792 9  82368439.37049  20115210.780
  20115204.260          51.300          51.350
 108364302.695 9  84439762.98949  20621022.540
  20621019.080          51.400          50.750
 120956281.373 7  94251650.31947  23017205.820
  23017202.800          44.150          43.300
 117206533.733 8  91329767.53846  22303655.560
  22303649.420          47.600          40.850
 132540148.380 5 103278014.44642  25221549.820
  25221543.860          38.550          27.900
 132044509.045 4 102891814.81943  25127233.120
  25127228.120          35.500          30.300
 130538628.109 6 101718384.22645  24840675.760
  24840669.840          40.400          37.050
 117499279.859 9  91557924.79348  22359347.760
  22359343.440          49.000          45.600
 124466581.795 7  96986929.83745  23685196.500
  23685190.940          44.000          36.950
 113111080.379 9  88138514.11948  21524312.880
  21524308.960          50.400          48.250
 16  2 13  1 47 30.0000000  0 11G01G07G08G09G11G13G16G23G27G28G30
 126791076.625 6  98798239.24545  24127538.660
  24127537.100          41.950          37.500
 105683409.153 9  82350697.57349  20110878.020
  20110871.560          51.500          51.600
 108398131.197 9  84466122.89449  20627459.900
  20627456.400          51.450          49.850
 121051214.091 8  94325623.84347  23035270.720
  23035268.160          46.050          42.850
 117115870.921 8  91259121.23646  22286402.940
  22286396.620          47.400          40.300
 132449728.585 6 103207557.55344  25204343.700
  25204337.320          41.800          32.250
 132134434.610 5 102961886.68143  25144345.600
  25144340.220          37.950          30.950
 130649143.098 7 101804499.84244  24861706.060
  24861699.920          42.250          35.850
 117586513.227 8  91625898.86347  22375947.760
  22375943.480          48.950          44.500
 124399357.716 7  96934547.48344  23672404.300
  23672398.620          44.400          35.600
 113038930.505 9  88082293.44448  21510583.180
  21510579.280          50.600          48.100
 16  2 13  1 48  0.0000000  0 11G01G07G08G09G11G13G16G23G27G28G30
 126686046.995 6  98716398.04745  24107552.100
  24107550.820          41.050          36.250
 105661119.441 9  82333328.97749  20106636.380
  20106629.940          51.650          51.600
 108432444.674 9  84492860.66849  20633989.500
  20633985.960          51.450          49.600
 121146362.575 8  94399765.47347  23053376.680
  23053374.500          45.450          42.800
 117025532.534 8  91188727.73546  22269212.080
  22269205.880          47.700          40.700
 132359636.099 7 103137355.64743  25187199.740
  25187193.880          42.050          30.500
 132224338.285 5 103031941.45244  25161454.120
  25161448.560          36.750          32.050
 130759598.396 7 101890568.87944  24882724.880
  24882718.760          42.550          35.850
 117674023.367 8  91694088.54648  22392600.440
  22392596.340          48.750          45.050
 124332232.888 7  96882242.49045  23659631.180
  23659625.460          44.600          37.800
 112967077.583 9  88026304.17148  21496909.960
  21496906.120          50.650          48.400
 16  2 13  1 48 30.0000000  0 11G01G07G08G09G11G13G16G23G27G28G30
 126581063.263 6  98634592.59445  24087574.020
  24087573.440          41.700          37.150
 105639310.222 9  82316334.78449  20102486.220
  20102479.820          51.650          51.650
 108467241.761 9  84519975.28149  20640611.160
  20640607.620          51.500          49.750
 121241724.214 8  94474073.19747  23071523.380
  23071521.440          46.100          42.700
 116935521.798 8  91118589.56046  22252083.580
  22252077.600          47.750          41.800
 132269874.105 6 103067411.32043  25170118.640
  25170112.760          41.950          30.750
 132314220.372 4 103101979.30144  25178558.800
  25178552.960          35.250          33.800
 130869992.117 6 101976589.98745  24903732.140
  24903726.080          41.700          38.800
 117761808.212 8  91762492.31948  22409305.380
  22409301.420          48.950          45.300
 124265208.006 7  96830015.35845  23646876.800
  23646871.220          44.400          37.600
 112895524.237 9  87970548.32948  21483293.740
  21483289.940          50.900          48.500
 16  2 13  1 49  0.0000000  0 11G01G07G08G09G11G13G16G23G27G28G30
 126476132.641 7  98552828.51045  24067606.260
  24067605.560          42.000          37.750
 105617987.400 9  82299719.60149  20098428.620
  20098422.220          51.450          51.500
 108502524.894 9  84547468.63149  20647325.360
  20647321.800          51.450          49.850
 121337299.974 8  94548547.76247  23089711.020
  23089709.080          46.100          42.250
 116845845.895 8  91048712.28646  22235018.820
  22235013.020          48.000          41.650
 132180449.437 6 102997729.85244  25153101.880
  25153095.980          41.300          33.300
 132404084.405 5 103172003.16842  25195659.340
  25195653.780          37.550          27.950
 130980325.244 6 102062563.82145  24924727.820
  24924721.620          41.050          38.550
 117849869.216 8  91831111.28147  22426062.860
  22426059.000          48.900          44.800
 124198286.632 7  96777868.85445  23634141.980
  23634136.320          43.650          37.850
 112824276.694 9  87915030.77448  21469735.840
  21469732.000          50.850          48.100
 16  2 13  1 49 30.0000000  0 11G01G07G08G09G11G13G16G23G27G28G30
 126371253.560 6  98471104.59844  24047648.540
  24047647.800          41.950          34.750
 105597148.063 9  82283481.16249  20094462.960
  20094456.620          51.450          51.400
 108538287.912 9  84575335.91049  20654130.820
  20654127.240          51.450          50.500
 121433082.131 7  94623183.19146  23107937.920
  23107935.720          44.950          40.700
 116756503.063 8  90979094.54347  22218017.440
  22218011.520          48.050          42.100
 132091360.734 6 102928310.07443  25136148.900
  25136142.940          40.800          31.150
 132493925.464 5 103242009.09343  25212756.040
  25212750.080          38.350          30.250
 131090590.944 6 102148485.11545  24945710.340
  24945704.340          40.700          36.400
 117938199.329 8  91899939.90948  22442871.660
  22442867.700          48.750          46.050
 124131464.458 7  96725799.68245  23621425.840
  23621420.240          43.550          36.650
 112753332.688 9  87859749.73848  21456235.740
  21456231.880          50.700          48.500
 16  2 13  1 50  0.0000000  0 10G01G07G08G09G11G13G23G27G28G30
 126266430.863 6  98389424.61545  24027701.300
  24027700.620          41.700          37.550
 105576795.340 9  82267621.90849  20090590.000
  20090583.580          51.650          51.650
 108574530.431 9  84603576.82349  20661027.640
  20661024.000          51.600          49.900
 121529069.364 8  94697978.40846  23126203.620
  23126201.060          45.850          40.600
 116667497.976 8  90909739.96646  22201080.320
  22201074.080          48.250          41.600
 132002611.688 6 102859155.04641  25119260.660
  25119254.380          40.350          25.300
 131200787.897 6 102234352.88345  24966679.900
  24966674.200          40.300          36.600
 118026797.621 8  91968977.54848  22459731.420
  22459727.500          48.800          45.200
 124064743.093 7  96673809.05345  23608729.120
  23608723.280          44.400          36.650
 112682695.960 9  87804708.14848  21442794.000
  21442790.180          51.000          48.800
 16  2 13  1 50 30.0000000  0 11G01G07G08G09G11G13G16G23G27G28G30
 126161663.262 7  98307787.57545  24007764.720
  24007763.480          42.050          38.700
 105556926.358 9  82252139.58249  20086809.060
  20086802.620          51.400          51.400
 108611246.378 9  84632186.66549  20668014.380
  20668010.880          51.350          50.000
 121625254.204 8  94772927.60046  23144507.360
  23144503.900          46.750          40.250
 116578829.526 8  90840647.70446  22184207.380
  22184200.920          48.350          41.550
 131914201.142 5 102790263.6734   25102436.740
  25102430.700          38.900          24.850
 132673541.410 5                  25246936.280
                        37.850
 131310909.049 6 102320161.60044  24987635.560
  24987629.960          40.100          32.900
 118115657.234 8  92038218.78048  22476640.860
  22476636.680          48.550          45.650
 123998117.602 7  96621893.11944  23596050.620
  23596044.540          43.850          35.900
 112612364.410 9  87749904.34948  21429410.360
  21429406.520          50.850          48.750
 16  2 13  1 51  0.0000000  0 11G01G07G08G09G11G13G16G23G27G28G30
 126056963.115 7  98226203.09845  23987840.840
  23987839.500          42.250          37.950
 105537552.154 9  82237042.81449  20083122.240
  20083115.840          51.450          51.400
 108648443.482 9  84661171.42749  20675092.700
  20675089.300          51.500          50.050
 121721642.826 8  94848035.59346  23162849.780
  23162846.340          46.650          41.450
 116490509.548 8  90771826.99546  22167400.720
  22167394.200          48.650          41.100
 131826140.631 5 102721645.14243  25085678.920
  25085673.500          38.350          31.900
                                  25264020.120
                        38.500
 131420961.505 5 102405916.75044  25008578.000
  25008571.840          38.650          32.950
 118204784.861 8  92107668.91447  22493601.280
  22493596.980          48.400          44.200
 123931597.473 7  96570059.30644  23583392.200
  23583386.160          44.750          35.750
 112542349.486 9  87695347.28248  21416086.940
  21416083.040          50.900          48.450
 16  2 13  1 51 30.0000000  0 11G01G07G08G09G11G13G16G23G27G28G30
 125952329.539 7  98144670.48045  23967929.760
  23967928.240          42.500          37.550
 105518669.747 9  82222329.25749  20079529.040
  20079522.600          51.350          51.250
 108686115.822 9  84690526.48949  20682261.560
  20682258.280          51.650          50.450
 121818228.221 8  94923296.89247  23181229.140
  23181226.320          45.600          43.050
 116402537.093 8  90703277.06646  22150660.080
  22150653.620          48.350          40.950
 131738429.089 5 102653290.56744  25068987.180
  25068982.600          38.000          32.150
 132853072.434 6 103521870.59743  25281098.020
  25281093.980          39.050          29.950
 131530937.970 4 102491612.73643  25029505.860
  25029499.600          35.950          30.300
 118294174.057 8  92177322.82747  22510611.320
  22510607.040          47.700          44.500
 123865178.660 7  96518304.41745  23570753.100
  23570747.100          44.800          36.050
 112472649.417 9  87641035.56148  21402823.460
  21402819.520          50.850          48.300
 16  2 13  1 52  0.0000000  0 10G01G07G08G09G11G13G23G27G28G30
 125847760.529 7  98063188.16145  23948030.840
  23948029.760          42.300          38.300
 105500275.628 9  82207996.17949  20076028.780
  20076022.300          51.400          51.400
 108724256.520 9  84720246.51449  20689519.480
  20689516.280          51.500          50.650
 121915002.083 7  94998705.03847  23199644.320
  23199641.960          44.800          43.800
 116314910.073 8  90634996.31846  22133984.960
  22133978.840          48.400          41.950
 131651063.930 6 102585213.85642  25052362.240
  25052357.080          41.500          26.300
 131640831.062 5 102577243.78843  25050417.440
  25050411.980          36.450          31.950
 118383817.030 8  92247174.48447  22527669.760
  22527665.460          48.450          44.300
 123798855.995 7  96466624.44745  23558132.380
  23558126.420          44.150          36.300
 112403261.172 9  87586966.81348  21389619.340
  21389615.380          50.950          48.400
 16  2 13  1 52 30.0000000  0 11G01G07G08G09G11G13G16G23G27G28G30
 125743262.081 7  97981760.85045  23928145.380
  23928144.440          43.150          37.700
 105482374.429 9  82194047.19649  20072622.320
  20072615.800          51.300          51.300
 108762866.509 9  84750332.21749  20696866.880
  20696863.560          51.750          50.300
 122011964.332 8  95074259.96047  23218095.580
  23218093.420          45.750          42.800
 116227634.066 8  90566989.04546  22117376.840
  22117370.680          48.550          41.000
 131564050.850 6 102517411.46043  25035804.500
  25035798.260          41.350          28.600
 133032502.880 5 103661671.12344  25315243.920
  25315236.460          38.850          32.550
 131750640.985 5 102662810.00544  25071313.820
  25071308.400          37.150          32.600
 118473714.283 8  92317224.29647  22544776.760
  22544772.380          48.300          44.400
 123732632.390 7  96415021.66444  23545530.540
  23545524.240          44.250          35.600
 112334189.971 9  87533145.11848  21376475.480
  21376471.500          50.850          47.850
 16  2 13  1 53  0.0000000  0 11G01G07G08G09G11G13G16G23G27G28G30
 125638840.474 7  97900393.40045  23908274.820
  23908273.660          42.650          38.300
 105464970.736 9  82180485.88649  20069310.560
  20069303.940          51.700          51.650
 108801947.301 9  84780784.78449  20704303.840
  20704300.420          51.500          49.900
 122109114.813 8  95149961.59946  23236583.080
  23236580.600          46.600          41.650
 116140715.080 8  90499259.99046  22100836.720
  22100830.520          48.700          41.350
 131477395.570 7 102449887.88643  25019315.080
  25019308.960          42.850          31.250
 133122184.789 5 103731553.06143  25332309.020
  25332303.840          36.800          28.650
 131860368.264 4 102748311.63544  25092194.600
  25092188.600          34.850          32.650
 118563866.319 8  92387472.60747  22561932.160
  22561927.940          48.850          44.800
 123666510.318 7  96363498.03345  23532948.120
  23532941.500          44.900          36.350
 112265441.046 9  87479574.54348  21363392.940
  21363389.000          50.950          48.700
 16  2 13  1 53 30.0000000  0 10G01G07G08G09G11G13G16G27G28G30
 125534494.425 7  97819084.85746  23888418.480
  23888417.280          42.100          39.950
 105448061.286 9  82167309.69049  20066092.800
  20066086.160          51.400          51.400
 108841492.554 9  84811599.25749  20711829.100
  20711825.620          51.500          50.100
 122206446.197 8  95225804.16447  23255104.940
  23255102.320          45.750          42.300
 116054151.965 8  90431808.23147  22084364.320
  22084358.120          48.250          42.300
 131391096.629 6 102382641.98244  25002892.880
  25002887.160          40.600          33.050
 133211840.697 5 103801414.66243  25349370.260
  25349365.260          37.900          29.550
 118654266.203 8  92457914.09347  22579134.660
  22579130.700          48.500          44.650
 123600485.844 8  96312050.44945  23520384.040
  23520377.600          45.100          38.100
 112197012.223 9  87426253.40148  21350371.260
  21350367.380          50.800          48.400
 16  2 13  1 54  0.0000000  0 10G01G07G08G09G11G13G16G27G28G30
 125430232.159 6  97737841.60345  23868578.040
  23868576.740          41.950          37.800
 105431652.611 9  82154523.71649  20062970.280
  20062963.720          51.600          51.550
 108881505.616 9  84842778.26049  20719443.260
  20719439.740          51.500          49.850
 122303960.443 7  95301789.24445  23273660.960
  23273658.420          44.650          38.900
 115967952.531 8  90364639.88646  22067961.080
  22067954.940          48.600          41.450
 131305161.276 6 102315679.43144  24986540.100
  24986533.920          40.250          35.550
 133301474.773 5 103871255.3745   25366426.980
  25366421.660          36.750          23.950
 118744916.634 8  92528550.76648  22596384.840
  22596380.960          48.350          45.350
 123534563.571 7  96260682.48345  23507839.500
  23507833.140          44.550          37.900
 112128910.855 9  87373187.40848  21337412.000
  21337408.100          51.100          48.900
 16  2 13  1 54 30.0000000  0 10G01G07G08G09G11G13G16G27G28G30
 125326054.234 6  97656664.05046  23848753.380
  23848752.180          41.500          39.750
 105415743.637 9  82142127.12249  20059942.860
  20059936.380          51.500          51.500
 108921981.909 9  84874318.23749  20727145.520
  20727142.140          51.450          49.900
 122401651.926 8  95377912.47145  23292250.860
  23292247.860          45.400          38.800
 115882117.228 8  90297755.27546  22051627.180
  22051621.000          48.400          41.750
 131219589.975 5 102249000.55144  24970256.060
  24970250.100          36.950          33.250
 133391071.727 4 103941081.40944  25383479.480
  25383474.620          34.950          32.750
 118835812.421 8  92599378.64847  22613681.700
  22613677.860          48.050          44.100
 123468741.094 8  96209392.28645  23495313.760
  23495307.720          45.000          38.250
 112061136.431 9  87320376.19349  21324514.960
  21324511.160          51.100          49.000
 16  2 13  1 55  0.0000000  0 10G01G07G08G09G11G13G16G27G28G30
 125221963.795 7  97575554.66446  23828945.440
  23828944.180          42.500          39.150
 105400335.963 9  82130121.13749  20057010.840
  20057004.420          51.450          51.450
 108962919.576 9  84906217.71649  20734935.700
  20734932.400          51.500          50.200
 122499517.565 8  95454171.33146  23310874.000
  23310870.860          45.750          40.100
 115796649.058 8  90231156.70546  22035363.040
  22035356.720          48.600          41.300
 131134385.130 4 102182607.26744  24954041.720
  24954035.940          35.200          32.900
 133480656.876 4                  25400526.840
                        34.800
 118926951.060 8  92670395.75547  22631024.700
  22631020.880          48.700          44.700
 123403018.420 7  96158179.83945  23482807.200
  23482801.440          44.900          37.700
 111993691.238 9  87267821.50448  21311680.520
  21311676.840          51.100          48.900
 16  2 13  1 55 30.0000000  0 10G01G07G08G09G11G13G16G27G28G30
 125117962.746 7  97494514.96245  23809154.800
  23809153.420          42.600          38.200
 105385429.645 9  82118505.83349  20054174.260
  20054167.800          51.400          51.400
 109004315.522 9  84938474.29549  20742813.080
  20742809.760          51.400          50.250
 122597553.013 8  95530562.58546  23329529.740
  23329526.720          45.800          41.350
 115711549.639 8  90164845.47446  22019169.120
  22019162.760          48.350          41.800
 131049548.476 4 102116500.81844  24937896.820
  24937892.360          33.950          32.850
 133570216.126 5                  25417570.340
                        36.700
 119018328.841 8  92741599.22747  22648413.200
  22648409.400          48.250          44.900
 123337394.351 7  96107044.24645  23470319.260
  23470313.500          44.900          37.200
 111926576.232 9  87215524.11348  21298908.920
  21298905.280          50.950          48.800
 16  2 13  1 56  0.0000000  0 10G01G07G08G09G11G13G16G27G28G30
 125014054.110 6  97413547.25545  23789381.480
  23789380.280          41.750          38.400
 105371025.692 9  82107281.97849  20051433.320
  20051426.760          51.500          51.550
 109046168.009 9  84971086.62049  20750777.280
  20750773.960          51.450          50.100
 122695755.041 8  95607083.60747  23348217.160
  23348214.420          45.700          43.750
 115626821.373 8  90098823.46047  22003045.760
  22003039.520          48.650          42.100
 130965082.236 5 102050683.04144  24921823.120
  24921818.540          37.200          33.900
 133659749.081 5                  25434608.420
                        37.850
 119109943.125 8  92812986.95648  22665846.900
  22665842.920          48.750          45.100
 123271868.384 7  96055985.08045  23457849.980
  23457844.160          44.100          38.350
 111859793.444 9  87163485.58749  21286200.580
  21286196.940          51.100          49.200
 16  2 13  1 56 30.0000000  0 10G01G07G08G09G11G13G16G27G28G30
 124910242.839 7  97332655.40645  23769626.820
  23769625.680          42.150          37.650
 105357127.400 9  82096452.14249  20048788.560
  20048782.040          51.500          51.500
 109088476.549 9  85004054.31049  20758828.340
  20758824.980          51.350          49.900
 122794122.384 8  95683733.42947  23366936.000
  23366933.380          45.050          42.100
 115542469.104 8  90033094.43646  21986994.120
  21986987.740          48.800          41.500
 130880990.885 6 101985157.35243  24905821.280
  24905816.820          39.450          29.100
 133749256.892 5 104220173.5205   25451640.960
  25451631.040          38.000          15.200
 119201793.212 8  92884558.41347  22683325.460
  22683321.360          48.800          44.050
 123206442.060 7  96005003.57645  23445399.460
  23445393.420          44.100          37.900
 111793346.892 9  87111709.06349  21273556.240
  21273552.560          51.050          49.200
 16  2 13  1 57  0.0000000  0 10G01G07G08G09G11G13G16G27G28G30
 124806531.057 6  97251841.08245  23749891.120
  23749890.000          41.350          37.750
 105343735.381 9  82086016.80749  20046240.100
  20046233.680          51.500          51.500
 109131238.278 9  85037375.13849  20766965.580
  20766962.240          51.350          49.900
 122892650.912 7  95760508.83846  23385685.220
  23385682.860          44.550          41.100
 115458494.620 8  89967659.78546  21971014.320
  21971007.960          48.550          41.650
 130797275.863 7 101919924.92443  24889891.160
  24889886.480          42.250          31.650
 133838738.125 5                  25468668.680
                        36.000
 119293875.606 8  92956310.93147  22700848.200
  22700844.100          47.950          44.800
 123141114.278 7  95954098.82945  23432967.980
  23432961.740          44.100          37.300
 111727237.752 9  87060195.46649  21260976.100
  21260972.460          51.100          49.650
 16  2 13  1 57 30.0000000  0 10G01G07G08G09G11G13G16G27G28G30
 124702922.365 7  97171107.09345  23730175.000
  23730174.200          42.350          38.750
 105330851.098 9  82075977.10849  20043788.300
  20043781.880          51.300          51.300
 109174451.998 9  85071048.16749  20775188.780
  20775185.420          51.050          49.900
 122991338.014 8  95837407.79447  23404464.800
  23404462.600          45.750          42.550
 115374901.150 8  89902522.05347  21955107.000
  21955100.720          48.800          42.000
 130713940.646 7 101854988.38443  24874033.480
  24874028.300          42.100          31.550
 133928193.038 5 104359657.20144  25485690.880
  25485686.720          37.550          33.750
 119386188.174 9  93028242.80147  22718414.920
  22718410.600          49.100          43.750
 123075885.517 8  95903271.29545  23420555.460
  23420549.140          45.100          37.950
 111661468.632 9  87008946.81349  21248460.660
  21248456.920          51.050          49.000
 16  2 13  1 58  0.0000000  0 10G01G07G08G09G11G13G16G27G28G30
 124599419.904 6  97090455.88245  23710479.200
  23710478.320          41.950          38.350
 105318475.613 9  82066333.87949  20041433.360
  20041426.900          51.500          51.450
 109218115.773 9  85105071.88749  20783497.660
  20783494.240          51.400          50.100
 123090180.517 8  95914427.85946  23423273.960
  23423271.800          45.350          39.800
 115291692.009 8  89837683.79447  21939272.860
  21939266.440          48.750          42.850
 130630987.636 7 101790349.67842  24858248.200
  24858242.080          42.200          27.250
 134017621.721 4 104429341.84242  25502708.480
  25502702.060          34.600          27.700
 119478728.516 8  93100352.16247  22736024.980
  22736020.660          47.600          44.900
 123010755.738 7  95852520.84845  23408162.000
  23408155.320          44.900          37.800
 111596041.735 9  86957964.83049  21236010.320
  21236006.500          51.100          49.650
 16  2 13  1 58 30.0000000  0 10G01G07G08G09G11G13G16G27G28G30
 124496028.802 7  97009891.44346  23690804.500
  23690803.240          42.250          39.100
 105306612.284 9  82057089.73649  20039175.840
  20039169.380          51.100          51.000
 109262229.160 9  85139445.96149  20791892.220
  20791888.740          51.050          50.150
 123189177.427 7  95991568.24146  23442112.160
  23442110.220          44.150          40.500
 115208871.693 8  89773148.52347  21923512.740
  21923506.200          48.800          42.800
 130548421.236 6 101726012.20545  24842536.440
  24842530.360          40.800          36.750
 134107025.944 5 104499007.40144  25519721.280
  25519715.960          36.700          32.350
 119571496.025 8  93172638.56248  22753677.980
  22753673.700          47.800          45.700
 122945726.760 8  95801848.95844  23395787.620
  23395780.720          45.000          35.150
 111530961.161 9  86907252.71448  21223625.900
  21223622.060          50.850          48.850
 16  2 13  1 59  0.0000000  0  9G01G07G08G09G11G13G27G28G30
 124392749.995 7  96929414.49946  23671151.220
  23671149.580          42.300          39.250
 105295260.706 9  82048244.35149  20037015.760
  20037009.260          51.550          51.600
 109306788.327 9  85174167.39049  20800371.580
  20800368.060          51.300          49.900
 123288323.364 8  96068824.81746  23460979.140
  23460976.580          45.150          39.050
 115126440.705 8  89708916.61247  21907826.600
  21907820.180          48.550          42.900
 130466241.835 6 101661976.28843  24826898.100
  24826892.320          39.000          30.900
 119664486.153 8  93245098.36348  22771373.240
  22771369.200          47.550          45.450
 122880796.419 7  95751253.93045  23383431.580
  23383425.100          44.950          38.500
 111466226.972 9  86856810.49649  21211307.360
  21211303.500          51.250          49.650
 16  2 13  1 59 30.0000000  0  9G01G07G08G09G11G13G27G28G30
 124289586.373 7  96849027.31945  23651519.780
  23651518.060          42.800          38.700
 105284421.386 9  82039798.13649  20034953.080
  20034946.580          51.600          51.600
 109351790.793 9  85209234.25049  20808935.280
  20808931.700          51.150          49.700
 123387615.004 8  96146194.89245  23479873.860
  23479871.020          45.550          38.950
 115044401.577 8  89644990.07447  21892214.960
  21892208.740          48.700          43.300
 130384451.995 5 101598243.96044  24811333.940
  24811328.440          37.200          33.650
 119757695.970 8  93317729.40248  22789110.220
  22789106.580          48.300          45.600
 122815964.138 7  95700735.30246  23371094.200
  23371087.840          44.400          39.650
 111401840.977 9  86806639.60349  21199055.120
  21199051.260          51.300          49.800
                            4  1
RINEX FILE SPLICE; other post-header comments skipped       COMMENT
 16  2 13  2  0  0.0000000  0  8G01G07G08G09G11G27G28G30
 124186542.540 7  96768733.48046  23631910.960
  23631909.460          42.800          39.000
 105274096.970 9  82031753.12849  20032988.320
  20032981.880          51.500          51.550
 109397236.426 9  85244646.43049  20817583.340
  20817579.660          51.350          49.850
 123487050.565 8  96223677.13646  23498796.040
  23498793.140          45.700          40.450
 114962758.679 8  89581372.29947  21876678.700
  21876672.580          48.550          43.250
 119851124.473 8  93390530.82348  22806889.060
  22806885.520          47.300          46.000
 122751231.326 7  95650294.19145  23358775.640
  23358769.540          44.250          38.200
 111337806.785 9  86756742.84449  21186869.800
  21186866.040          51.350          49.750
 16  2 13  2  0 30.0000000  0  9G01G07G08G09G11G13G27G28G30
 124083618.064 7  96688532.63345  23612325.140
  23612323.720          43.250          37.850
 105264285.049 9  82024107.48649  20031121.120
  20031114.800          51.450          51.450
 109443119.536 9  85280399.50749  20826314.560
  20826310.960          51.050          49.650
 123586623.513 8  96301266.36946  23517744.260
  23517741.620          45.200          41.150
 114881510.883 8  89518062.40247  21861217.660
  21861211.580          48.750          42.750
 130222035.852 4 101471702.91945  24780429.720
  24780425.700          35.850          36.400
 119944765.608 8  93463497.91848  22824708.480
  22824704.880          47.850          45.400
 122686594.305 7  95599927.74345  23346475.520
  23346469.300          44.150          37.900
 111274122.997 9  86707119.12549  21174751.180
  21174747.380          51.250          49.700
 16  2 13  2  1  0.0000000  0 10G01G07G08G09G11G13G16G27G28G30
 123980818.661 7  96608429.24546  23592763.100
  23592761.820          43.350          39.750
 105254989.606 9  82016864.28349  20029352.260
  20029345.940          51.250          51.250
 109489440.424 9  85316493.70649  20835129.120
  20835125.520          51.250          49.950
 123686333.205 7  96378962.15147  23536718.580
  23536715.920          44.950          43.600
 114800663.904 9  89455064.80147  21845833.000
  21845826.820          49.050          43.300
 130141432.956 5 101408891.35144  24765091.920
  24765084.580          38.750          35.550
 134553640.436 4 104846991.56143  25604706.180
  25604706.740          34.300          30.150
 120038619.446 8  93536630.79748  22842568.220
  22842564.500          48.150          45.050
 122622055.525 7  95549637.81144  23334194.100
  23334187.820          44.350          35.650
 111210794.328 9  86657772.11949  21162700.180
  21162696.220          51.100          49.100
 16  2 13  2  1 30.0000000  0 10G01G07G08G09G11G13G16G27G28G30
 123878150.557 7  96528428.16046  23573225.860
  23573224.600          42.700          39.300
 105246214.680 9  82010026.68249  20027682.480
  20027676.060          51.500          51.500
 109536200.463 9  85352930.10649  20844027.260
  20844023.660          51.150          49.600
 123786179.693 8  96456764.53047  23555718.980
  23555716.140          45.300          42.050
 114720223.368 9  89392383.90947  21830525.800
  21830519.400          49.000          42.650
 130061229.013 7 101346394.82544  24749829.640
  24749823.420          42.300          34.750
 134642879.015 5                  25621689.640
                        36.400
 120132686.649 8  93609929.87547  22860468.640
  22860464.720          48.050          44.050
 122557617.597 7  95499426.49845  23321931.900
  23321925.720          44.650          37.300
 111147826.000 9  86608705.89749  21150717.700
  21150713.680          51.300          49.550
 16  2 13  2  2  0.0000000  0 10G01G07G08G09G11G13G16G27G28G30
 123775611.796 7  96448527.90245  23553713.400
  23553711.900          43.600          37.850
 105237956.231 9  82003591.52949  20026110.940
  20026104.480          51.350          51.300
 109583392.234 9  85389702.91249  20853007.560
  20853004.000          51.150          49.600
 123886154.694 8  96534667.06047  23574743.780
  23574740.980          45.650          42.200
 114640186.884 9  89330017.85147  21815295.400
  21815288.880          49.200          43.000
 129981425.432 6 101284210.23944  24734643.940
  24734636.180          41.950          33.850
 134732096.104 5                  25638665.880
                        37.400
 120226959.502 8  93683389.24147  22878408.180
  22878404.040          48.450          43.800
 122493275.821 8  95449290.06345  23309688.060
  23309681.780          45.050          37.550
 111085215.019 9  86559918.13649  21138803.220
  21138799.260          51.350          49.600
 16  2 13  2  2 30.0000000  0  9G01G07G08G09G11G13G27G28G30
 123673210.157 7  96368734.44245  23534226.900
  23534225.360          42.850          37.550
 105230220.270 9  81997563.51049  20024638.860
  20024632.360          51.400          51.400
 109631018.366 9  85426814.18649  20862070.520
  20862067.000          51.100          49.750
 123986259.790 8  96612670.99446  23593793.280
  23593790.200          45.750          39.300
 114560561.912 9  89267972.46447  21800143.320
  21800136.480          49.350          42.900
 129902029.135 7 101222342.97843  24719535.360
  24719527.440          42.450          30.550
 120321440.279 8  93757010.62447  22896387.440
  22896383.200          48.600          43.750
 122429034.294 8  95399231.74145  23297463.420
  23297456.860          45.500          36.900
 111022968.220 9  86511414.14549  21126958.060
  21126954.080          51.300          49.350
 16  2 13  2  3  0.0000000  0  9G01G07G08G09G11G13G27G28G30
 123570946.084 7  96289048.19045  23514766.720
  23514765.120          43.200          38.850
 105223005.043 9  81991941.25149  20023265.880
  20023259.340          51.050          51.100
 109679074.320 9  85464260.37849  20871215.260
  20871211.900          51.100          50.000
 124086489.142 7  96690771.76946  23612866.260
  23612862.680          44.150          39.100
 114481348.621 9  89206247.87147  21785069.440
  21785062.680          49.150          43.000
 129823040.200 7 101160793.17743  24704504.340
  24704495.720          43.750          30.900
 120416123.705 8  93830789.94047  22914405.220
  22914401.000          47.900          44.850
 122364890.283 8  95349249.40945  23285257.440
  23285250.480          45.350          37.050
 110961084.964 9  86463193.43449  21115181.980
  21115178.040          50.950          49.000
 16  2 13  2  3 30.0000000  0  9G01G07G08G09G11G13G27G28G30
 123468825.684 7  96209473.92046  23495333.800
  23495332.140          42.550          39.000
 105216314.442 9  81986727.80249  20021992.700
  20021986.180          51.600          51.500
 109727560.759 9  85502042.02649  20880441.940
  20880438.660          51.250          49.750
 124186842.605 7  96768969.25045  23631962.500
  23631959.040          43.950          38.350
 114402552.459 9  89144848.33347  21770074.940
  21770068.320          49.150          42.850
 129744463.896 7 101099564.83944  24689551.300
  24689543.480          42.600          32.700
 120511010.357 8  93904727.56447  22932461.580
  22932457.480          47.600          44.900
 122300846.835 7  95299345.47245  23273070.520
  23273063.320          44.900          37.700
 110899570.354 9  86415259.98549  21103476.120
  21103472.220          51.400          50.100
 16  2 13  2  4  0.0000000  0  9G01G07G08G09G11G13G27G28G30
 123366849.280 7  96130011.83846  23475928.220
  23475926.560          43.000          39.600
 105210147.185 9  81981922.14749  20020819.200
  20020812.560          51.350          51.350
 109776472.813 9  85540155.31249  20889749.600
  20889746.320          50.850          49.850
 124287314.235 7  96847258.83246  23651081.200
  23651077.960          43.750          40.050
 114324173.340 9  89083773.73347  21755159.780
  21755153.400          49.100          43.300
 129666299.931 7 101038657.85544  24674677.020
  24674669.940          42.350          32.150
 120606094.824 8  93978819.33447  22950555.380
  22950551.540          47.700          44.200
 122236900.872 7  95249517.46845  23260901.860
  23260895.080          44.650          36.700
 110838423.645 9  86367613.20649  21091840.300
  21091836.520          51.350          49.750
 16  2 13  2  4 30.0000000  0  9G01G07G08G09G11G13G27G28G30
 123265021.632 7  96050665.69146  23456551.000
  23456549.680          42.750          40.100
 105204505.429 9  81977525.97849  20019745.600
  20019739.040          51.450          51.450
 109825810.069 9  85578599.92249  20899138.140
  20899134.880          51.100          49.700
 124387902.474 7  96925639.21746  23670222.280
  23670219.920          44.500          41.850
 114246215.522 9  89023027.42647  21740324.720
  21740318.600          49.150          43.550
 129588552.285 6 100978075.26644  24659881.540
  24659875.020          39.250          35.200
 120701376.303 8  94053064.64647  22968686.680
  22968683.080          47.900          44.150
 122173053.857 7  95199766.60145  23248752.000
  23248745.660          44.000          37.650
 110777648.608 9  86320256.04549  21080275.160
  21080271.460          51.500          49.650
 16  2 13  2  5  0.0000000  0  9G01G07G08G09G11G13G27G28G30
 123163343.015 7  95971435.67446  23437202.000
  23437200.860          42.650          39.050
 105199388.175 9  81973538.50749  20018771.780
  20018765.320          51.250          51.150
 109875567.414 9  85617371.87549  20908606.680
  20908603.440          51.000          50.000
 124488601.340 7  97004105.82347  23689384.940
  23689382.820          44.750          43.200
 114168678.906 9  88962609.31047  21725569.900
  21725563.820          49.350          43.700
 129511220.403 6 100917816.75145  24645165.240
  24645159.420          39.250          36.050
 120796849.383 8  94127459.26647  22986854.720
  22986850.980          48.050          44.850
 122109302.949 7  95150090.61145  23236620.460
  23236614.580          44.900          38.900
 110717244.416 9  86273187.85349  21068780.580
  21068776.920          51.250          49.650
 16  2 13  2  5 30.0000000  0  9G01G07G08G09G11G13G27G28G30
 123061819.114 7  95892326.20646  23417882.620
  23417881.500          43.050          39.400
 105194797.991 9  81969961.74649  20017898.280
  20017891.840          51.250          51.250
 109925745.498 9  85656471.69049  20918155.360
  20918152.000          50.950          49.750
 124589410.288 7  97082658.19047  23708568.660
  23708566.580          44.150          43.250
 114091568.665 9  88902523.43547  21710896.340
  21710890.080          49.350          43.850
 129434309.377 6 100857886.12444  24630529.420
  24630523.360          41.050          33.200
 120892514.229 8  94202003.29047  23005059.220
  23005055.360          47.750          44.200
 122045650.457 7  95100491.32245  23224507.740
  23224501.920          44.900          38.100
 110657215.770 9  86226412.29749  21057357.580
  21057353.800          51.350          49.600
 16  2 13  2  6  0.0000000  0  9G01G07G08G09G11G13G27G28G30
 122960453.729 7  95813340.25146  23398593.540
  23398592.020          42.850          40.300
 105190737.191 9  81966797.48549  20017125.540
  20017119.080          51.300          51.300
 109976342.622 9  85695898.02449  20927783.780
  20927780.300          51.000          49.750
 124690326.933 7  97161294.48047  23727772.700
  23727770.580          44.800          42.100
 114014888.209 9  88842772.44747  21696304.580
  21696298.000          49.200          43.800
 129357822.252 6 100798285.82044  24615973.880
  24615968.560          40.350          35.950
 120988369.077 8  94276695.35947  23023299.780
  23023295.800          47.550          43.100
 121982097.337 8  95050969.44145  23212414.220
  23212408.100          45.550          38.900
 110597565.408 9  86179931.50049  21046006.540
  21046002.700          51.400          50.150
 16  2 13  2  6 30.0000000  0 10G01G07G08G09G11G13G17G27G28G30
 122859246.767 7  95734477.73846  23379334.520
  23379332.660          43.400          39.250
 105187202.731 9  81964043.35649  20016452.960
  20016446.480          51.500          51.450
 110027353.530 9  85735646.77749  20937490.840
  20937487.360          51.250          50.000
 124791344.721 7  97240009.56446  23746995.760
  23746993.600          44.250          40.300
 113938636.441 9  88783355.49947  21681794.500
  21681787.820          49.550          44.050
 129281758.128 7 100739015.11944  24601499.500
  24601493.980          42.300          34.400
 133843952.802 5                  25469654.580
                        38.350
 121084408.056 8  94351530.93947  23041575.380
  23041571.320          46.100          43.600
 121918639.329 8  95001521.67145  23200338.700
  23200332.180          45.850          38.050
 110538292.084 9  86133744.50249  21034727.160
  21034723.240          51.500          50.350
 16  2 13  2  7  0.0000000  0 10G01G07G08G09G11G13G17G27G28G30
 122758206.986 7  95655745.49245  23360107.180
  23360105.500          43.650          38.300
 105184201.730 9  81961704.91549  20015881.880
  20015875.420          51.250          51.350
 110078781.984 9  85775720.89549  20947277.280
  20947273.860          50.900          49.550
 124892466.539 7  97318805.72446  23766238.200
  23766236.080          42.750          39.400
 113862822.115 9  88724279.40947  21667367.660
  21667361.000          49.750          43.900
 129206125.143 7 100680080.33643  24587107.200
  24587101.420          42.700          31.400
 133740301.972 5                  25449929.160
                        37.200
 121180634.555 8  94426512.59847  23059886.600
  23059882.700          47.550          43.900
 121855282.401 8  94952152.66345  23188282.260
  23188275.660          46.200          37.650
 110479403.707 9  86087857.45849  21023521.020
  21023517.060          51.300          49.800
 16  2 13  2  7 30.0000000  0 10G01G07G08G09G11G13G17G27G28G30
 122657331.717 7  95577141.44246  23340911.060
  23340909.640          43.300          40.150
 105181729.138 9  81959778.22149  20015411.340
  20015404.920          51.300          51.300
 110130619.591 9  85816113.84249  20957141.620
  20957138.200          51.000          49.250
 124993683.112 7  97397675.76445  23785499.080
  23785496.320          43.400          38.650
 113787441.616 9  88665541.37547  21653023.200
  21653016.660          49.400          44.300
 129130919.716 6 100621478.71544  24572796.380
  24572790.100          41.850          32.950
 133636727.646 5 104132475.63442  25430219.800
  25430222.300          37.800          27.600
 121277040.151 8  94501633.84247  23078231.940
  23078228.220          47.900          43.850
 121792020.490 8  94902857.66945  23176243.900
  23176237.000          45.150          37.550
 110420896.381 9  86042267.34449  21012387.460
  21012383.400          51.450          49.700
 16  2 13  2  8  0.0000000  0 10G01G07G08G09G11G13G17G27G28G30
 122556627.294 7  95498670.51846  23321747.660
  23321746.340          44.150          39.450
 105179789.032 9  81958266.45549  20015042.140
  20015035.680          51.050          51.050
 110182867.636 9  85856826.61349  20967084.000
  20967080.540          50.600          49.450
 125094994.581 7  97476619.80745  23804778.180
  23804774.960          43.200          38.700
 113712500.462 9  88607145.68847  21638762.120
  21638755.700          49.200          43.900
 129056147.337 6 100563214.63643  24558567.680
  24558561.520          41.550          31.950
 133533234.507 4 104051833.61043  25410525.260
  25410506.260          35.150          30.800
 121373625.601 8  94576895.24847  23096611.640
  23096607.860          47.050          44.250
 121728856.553 7  94853639.03645  23164223.940
  23164216.960          44.550          37.400
 110362775.368 9  85996978.25949  21001327.280
  21001323.340          51.050          49.750
 16  2 13  2  8 30.0000000  0  9G01G07G08G09G11G13G27G28G30
 122456092.863 7  95420332.05645  23302616.700
  23302615.360          43.700          38.850
 105178378.417 9  81957167.28049  20014773.740
  20014767.220          51.250          51.150
 110235520.131 9  85897854.53649  20977103.340
  20977099.860          50.750          49.100
 125196393.972 7  97555632.30346  23824073.820
  23824070.820          43.600          40.700
 113637998.019 9  88549091.84347  21624584.560
  21624578.240          49.150          44.100
 128981806.387 7 100505286.61343  24544421.080
  24544414.060          43.100          29.450
 121470384.583 8  94652291.83647  23115024.340
  23115020.620          47.450          43.200
 121665786.416 7  94804493.47945  23152221.860
  23152214.860          44.950          37.350
 110305038.814 9  85951988.74249  20990340.340
  20990336.480          51.300          49.900
 16  2 13  2  9  0.0000000  0  9G01G07G08G09G11G13G27G28G30
 122355739.335 7  95342134.56746  23283520.180
  23283518.680          44.000          39.800
 105177505.761 9  81956487.28349  20014607.640
  20014601.220          51.100          51.100
 110288582.355 9  85939201.71649  20987200.640
  20987197.240          50.750          49.200
 125297885.854 7  97634716.84647  23843387.120
  23843384.520          43.050          42.050
 113563944.272 9  88491387.63347  21610492.540
  21610486.240          49.250          44.000
 128907906.978 7 100447702.66844  24530358.300
  24530351.300          42.800          32.750
 121567322.338 8  94727827.73147  23133471.000
  23133467.300          47.100          42.650
 121602817.948 8  94755427.17945  23140239.240
  23140232.520          45.400          38.400
 110247696.531 9  85907306.44249  20979428.560
  20979424.560          51.450          49.800
 16  2 13  2  9 30.0000000  0  9G01G07G08G09G11G13G27G28G30
 122255565.642 7  95264077.19345  23264457.760
  23264455.960          43.700          38.650
 105177167.712 9  81956223.87349  20014543.260
  20014536.940          51.400          51.400
 110342047.887 9  85980863.17748  20997374.720
  20997371.400          50.900          48.950
 125399462.910 7  97713867.74147  23862716.740
  23862714.380          44.600          42.600
 113490337.279 9  88434031.54747  21596485.600
  21596479.320          49.550          43.600
 128834447.042 7 100390461.20244  24516379.180
  24516372.640          43.250          34.200
 121664432.201 8  94803497.74846  23151950.400
  23151946.420          46.950          41.500
 121539946.830 8  94706436.72445  23128275.400
  23128268.520          45.650          38.500
 110190746.301 9  85862929.65449  20968591.340
  20968587.380          51.500          50.050
 16  2 13  2 10  0.0000000  0  9G01G07G08G09G11G13G27G28G30
 122155575.404 7  95186162.78046  23245430.260
  23245428.200          43.050          40.150
 105177365.793 9  81956378.21749  20014580.960
  20014574.620          51.250          51.300
 110395915.072 9  86022837.60549  21007625.300
  21007621.960          50.800          49.150
 125501122.522 7  97793082.96246  23882062.160
  23882059.800          43.250          41.400
 113417180.320 9  88377026.12847  21582564.360
  21582558.040          49.350          44.100
 128761429.398 7 100333564.34444  24502484.300
  24502478.040          42.000          34.750
 121761712.314 8  94879300.41747  23170462.040
  23170458.020          45.750          42.100
 121477173.235 8  94657522.26745  23116330.000
  23116323.360          46.000          38.950
 110134190.705 9  85818860.36549  20957829.100
  20957825.300          51.450          50.250
 16  2 13  2 10 30.0000000  0  9G01G07G08G09G11G13G27G28G30
 122055771.726 7  95108393.72546  23226438.100
  23226436.260          43.600          39.100
 105178100.478 9  81956950.70249  20014720.840
  20014714.360          51.300          51.150
 110450181.721 9  86065123.30849  21017952.000
  21017948.620          50.950          49.050
 125602861.588 6  97872360.11146  23901422.420
  23901420.340          40.350          40.050
 113344475.877 9  88320373.33347  21568729.260
  21568722.740          49.750          44.650
 128688856.231 7 100277013.84443  24488673.900
  24488667.980          42.400          30.200
 121859160.186 8  94955233.84747  23189005.680
  23189001.620          47.050          42.750
 121414496.682 8  94608683.41345  23104403.300
  23104396.600          46.200          37.950
 110078031.715 9  85775100.11949  20947142.400
  20947138.600          51.350          49.800
 16  2 13  2 11  0.0000000  0  9G01G07G08G09G11G13G27G28G30
 121956162.095 7  95030775.88646  23207482.780
  23207481.280          42.950          39.750
 105179377.105 9  81957945.48049  20014963.860
  20014957.280          51.250          51.250
 110504850.236 9  86107722.15149  21028355.180
  21028351.740          50.850          49.200
 125704681.413 6  97951700.14046  23920797.420
  23920796.120          40.100          39.550
 113272230.800 9  88264078.49747  21554981.600
  21554974.880          49.650          44.300
 128616734.364 6 100220815.05844  24474949.220
  24474944.060          40.150          33.750
 121956777.710 8  95031299.42547  23207581.740
  23207577.800          47.900          43.250
 121351922.010 8  94559923.96146  23092495.740
  23092489.200          46.150          39.100
 110022275.752 9  85731653.92449  20936532.340
  20936528.600          51.300          49.900
 16  2 13  2 11 30.0000000  0  9G01G07G08G09G11G13G27G28G30
 121856739.830 7  94953304.03046  23188563.400
  23188561.980          44.200          39.300
 105181186.598 9  81959355.47449  20015308.200
  20015301.600          51.600          51.550
 110559908.357 9  86150624.57948  21038832.460
  21038828.920          51.300          48.900
 125806568.931 7  98031092.95846  23940185.780
  23940184.420          42.950          39.150
 113200437.717 9  88208135.85747  21541319.920
  21541313.080          50.050          44.200
 128545056.006 6 100164961.87245  24461308.820
  24461304.880          39.450          36.850
 122054552.679 8  95107487.66947  23226187.760
  23226183.960          45.150          42.800
 121289438.929 8  94511235.87545  23080605.640
  23080599.100          45.850          38.050
 109966914.949 9  85688515.64849  20925997.520
  20925993.880          51.800          50.450
 16  2 13  2 12  0.0000000  0  9G01G07G08G09G11G13G27G28G30
 121757515.546 7  94875986.46546  23169681.800
  23169680.120          43.800          40.400
 105183537.238 9  81961187.13849  20015755.500
  20015748.920          50.950          51.000
 110615361.275 9  86193834.64549  21049384.820
  21049381.260          50.750          49.550
 125908528.585 6  98110542.02045  23959588.320
  23959586.420          41.700          37.550
 113129106.554 9  88152553.13547  21527746.080
  21527739.240          49.700          44.600
 128473830.945 6 100109461.85744  24447755.320
  24447751.080          41.200          34.700
 122152490.181 8  95183802.63947  23244824.640
  23244820.900          46.650          43.450
 121227054.882 8  94462624.94346  23068734.280
  23068727.660          45.650          39.200
 109911958.876 9  85645692.74849  20915539.800
  20915536.040          51.300          50.150
 16  2 13  2 12 30.0000000  0  9G01G07G08G09G11G13G27G28G30
 121658490.877 7  94798824.41646  23150837.760
  23150836.400          43.550          40.700
 105186428.207 9  81963439.83749  20016305.560
  20016299.080          51.450          51.500
 110671205.410 9  86237349.55148  21060011.620
  21060008.100          51.300          48.800
 126010555.755 7  98190043.72445  23979003.940
  23979001.180          43.450          38.050
 113058237.931 9  88097330.83847  21514260.200
  21514253.480          49.750          44.350
 128403060.095 7 100054315.79244  24434288.460
  24434284.020          42.550          35.550
 122250586.299 8  95260241.10746  23263491.740
  23263487.940          45.800          41.600
 121164768.103 8  94414089.82145  23056881.400
  23056874.860          46.050          38.650
 109857408.035 9  85603185.59749  20905159.180
  20905155.280          51.750          50.300
 16  2 13  2 13  0.0000000  0 10G01G07G08G09G11G13G17G27G28G30
 121559670.909 7  94721821.90546  23132032.580
  23132031.420          43.750          39.750
 105189862.039 9  81966115.55249  20016958.920
  20016952.520          51.650          51.650
 110727440.611 9  86281169.17848  21070712.780
  21070709.260          51.250          48.950
 126112649.341 7  98269597.12746  23998432.020
  23998429.140          44.900          39.250
 112987836.570 9  88042472.63047  21500863.160
  21500856.580          49.750          44.750
 128332747.494 7  99999526.75244  24420908.740
  24420903.620          44.050          33.800
 132503062.589 4 103249168.46843  25214494.460
  25214495.120          34.550          30.900
 122348840.603 8  95336802.95147  23282188.960
  23282185.060          46.900          42.150
 121102580.460 8  94365631.96545  23045047.460
  23045041.060          46.250          37.900
 109803266.371 9  85560997.30049  20894856.440
  20894852.440          51.900          50.550
 16  2 13  2 13 30.0000000  0  9G01G07G08G09G11G13G27G28G30
 121461051.551 7  94644975.72146  23113265.980
  23113264.700          44.050          40.950
 105193832.331 9  81969209.28849  20017714.420
  20017708.020          51.450          51.450
 110784057.168 9  86325285.98049  21081486.500
  21081483.060          50.900          49.500
 126214799.001 7  98349194.19946  24017870.620
  24017867.700          44.050          40.950
 112917897.826 9  87987974.89548  21487554.120
  21487547.660          49.750          45.000
 128262887.878 6  99945090.73245  24407614.680
  24407609.900          41.100          36.550
 122447243.476 8  95413480.42646  23300914.320
  23300910.320          46.250          40.600
 121040484.546 8  94317245.56945  23033231.000
  23033224.500          46.200          38.200
 109749528.607 9  85519123.72649  20884630.600
  20884626.460          51.750          50.700
 16  2 13  2 14  0.0000000  0  9G01G07G08G09G11G13G27G28G30
 121362644.682 7  94568295.07546  23094539.920
  23094538.300          44.550          40.500
 105198348.419 9  81972728.31649  20018573.800
  20018567.400          51.150          51.100
 110841061.473 9  86369704.93149  21092334.060
  21092330.680          50.900          49.350
 126317010.400 6  98428839.45145  24037320.960
  24037318.340          39.550          38.950
 112848432.884 9  87933846.36748  21474335.300
  21474328.940          49.750          45.050
 128193492.475 7  99891016.47144  24394409.140
  24394404.460          43.000          33.800
 122545801.280 8  95490278.75446  23319669.300
  23319664.900          46.750          41.350
 120978489.113 8  94268937.46445  23021433.660
  23021427.380          45.900          38.950
 109696205.544 9  85477573.30049  20874483.560
  20874479.340          51.650          50.200
 16  2 13  2 14 30.0000000  0  9G01G07G08G09G11G13G27G28G30
 121264448.671 7  94491778.73646  23075853.920
  23075852.100          44.500          40.150
 105203405.976 9  81976669.26949  20019536.240
  20019529.840          51.100          51.050
 110898447.028 9  86414420.93548  21103254.220
  21103250.800          51.250          48.950
 126419275.800 6  98508526.65946  24056781.580
  24056779.140          41.700          41.100
 112779438.932 9  87880084.85847  21461206.260
  21461199.920          49.750          44.750
 128124558.518 7  99837301.71544  24381291.500
  24381286.540          42.300          35.850
 122644506.881 7  95567192.19646  23338452.420
  23338448.040          44.750          41.650
 120916589.128 8  94220703.73045  23009654.220
  23009648.080          46.250          38.900
 109643294.397 9  85436343.84049  20864414.820
  20864410.660          51.650          50.550
 16  2 13  2 15  0.0000000  0 10G01G07G08G09G11G13G17G27G28G30
 121166471.262 7  94415432.74246  23057209.380
  23057207.440          44.850          39.000
 105209010.550 9  81981036.46849  20020602.740
  20020596.380          51.050          51.100
 110956215.714 9  86459435.50848  21114247.280
  21114243.820          50.950          48.850
 126521596.627 6  98588257.12446  24076253.000
  24076250.100          41.200          41.050
 112710923.401 9  87826696.15547  21448168.300
  21448161.840          49.950          44.500
 128056092.629 7  99783951.69644  24368262.780
  24368257.800          43.200          33.750
 132093664.371 6 102930085.88643  25136589.940
  25136583.840          40.650          31.850
 122743362.554 8  95644222.59646  23357264.000
  23357259.800          46.250          40.700
 120854789.202 8  94172547.96045  22997894.060
  22997887.760          46.100          37.950
 109590801.785 9  85395440.51649  20854425.800
  20854421.620          51.650          50.250
 16  2 13  2 15 30.0000000  0 10G01G07G08G09G11G13G17G27G28G30
 121068711.459 7  94339256.31546  23038606.280
  23038604.460          44.600          41.050
 105215158.597 9  81985827.15049  20021772.700
  20021766.340          51.000          51.000
 111014361.399 9  86504743.83248  21125311.900
  21125308.580          50.950          48.850
 126623965.677 6  98668025.16646  24095733.060
  24095730.120          41.350          39.650
 112642884.268 9  87773678.68447  21435221.000
  21435214.360          49.950          44.950
 127988092.919 7  99730964.95844  24355323.020
  24355317.820          42.650          33.900
 131991569.592 6 102850531.56243  25117161.680
  25117156.780          40.100          31.650
 122842361.705 8  95721364.79846  23376102.980
  23376098.940          45.850          41.300
 120793084.859 8  94124466.69745  22986152.040
  22986145.660          45.500          38.600
 109538725.484 9  85354861.58949  20844515.960
  20844511.800          51.600          50.350
 16  2 13  2 16  0.0000000  0 10G01G07G08G09G11G13G17G27G28G30
 120971176.443 7  94263255.02646  23020046.040
  23020044.220          44.850          40.950
 105221854.611 9  81991044.82549  20023046.960
  20023040.580          51.000          50.950
 111072885.791 9  86550347.25548  21136448.660
  21136445.360          50.850          48.800
 126726383.875 6  98747831.56246  24115222.240
  24115219.080          40.050          39.650
 112575327.929 9  87721037.39548  21422365.420
  21422358.780          49.850          45.150
 127920565.661 7  99678346.33844  24342473.000
  24342467.160          42.700          33.350
 131889583.006 6 102771061.63444  25097753.460
  25097748.720          40.000          34.700
 122941506.173 8  95798620.22346  23394969.460
  23394965.500          45.950          40.950
 120731480.036 8  94076462.99445  22974428.780
  22974422.540          45.950          38.650
 109487071.560 9  85314611.78849  20834686.540
  20834682.320          51.600          50.250
 16  2 13  2 16 30.0000000  0 10G01G07G08G09G11G13G17G27G28G30
 120873865.666 7  94187428.48846  23001528.440
  23001526.440          44.250          39.800
 105229095.574 9  81996687.12549  20024424.920
  20024418.480          51.400          51.400
 111131783.151 9  86596241.26748  21147656.400
  21147653.160          50.950          48.550
 126828844.741 6  98827671.11645  24134719.440
  24134716.540          41.600          37.000
 112508253.150 9  87668771.34647  21409601.500
  21409594.760          50.100          44.400
 127853509.366 6  99626094.62344  24329712.900
  24329706.540          41.800          34.300
 131787702.036 6 102691673.94344  25078365.440
  25078359.680          39.350          35.000
 123040789.802 8  95875984.07046  23413862.540
  23413858.640          45.850          41.650
 120669971.207 8  94028534.07146  22962724.080
  22962717.780          46.050          39.550
 109435838.306 9  85274689.77249  20824937.100
  20824932.940          51.750          50.600
 16  2 13  2 17  0.0000000  0 10G01G07G08G09G11G13G17G27G28G30
 120776782.906 7  94111779.62346  22983054.140
  22983051.960          43.800          40.200
 105236882.688 9  82002755.00449  20025906.760
  20025900.300          51.150          51.100
 111191051.643 9  86642424.51548  21158934.820
  21158931.580          51.100          48.800
 126931345.556 6  98907541.90545  24154224.560
  24154221.900          40.550          37.750
 112441662.927 9  87616882.88548  21396929.820
  21396922.940          50.050          45.400
 127786926.546 7  99574211.94643  24317042.560
  24317036.140          43.400          31.050
 131685928.660 5 102612370.10844  25058998.400
  25058993.860          37.200          35.150
 123140211.011 8  95953455.09946  23432781.580
  23432777.960          45.050          41.350
 120608558.695 8  93980680.19046  22951037.900
  22951031.440          46.300          39.700
 109385028.277 9  85235097.55049  20815268.160
  20815264.200          51.600          50.850
 16  2 13  2 17 30.0000000  0 10G01G07G08G09G11G13G17G27G28G30
 120679932.689 7  94036311.96446  22964624.100
  22964621.960          43.800          40.550
 105245217.752 9  82009249.86249  20027492.860
  20027486.380          51.300          51.300
 111250690.536 9  86688896.36848  21170283.800
  21170280.480          51.100          48.750
 127033884.795 6  98987442.57145  24173736.960
  24173734.720          41.500          38.600
 112375561.139 9  87565375.04248  21384351.060
  21384344.180          49.900          45.700
 127720820.646 7  99522700.84543  24304463.400
  24304456.300          43.000          30.750
 131584265.826 4 102533152.38344  25039652.060
  25039648.340          34.300          33.000
 123239768.799 8  96031032.62247  23451726.780
  23451723.280          45.850          44.050
 120547243.735 8  93932902.34446  22939370.180
  22939363.820          46.700          40.400
 109334644.847 9  85195837.75149  20805680.480
  20805676.660          51.750          51.000
 16  2 13  2 18  0.0000000  0 10G01G07G08G09G11G13G17G27G28G30
 120583317.908 7  93961027.76546  22946238.920
  22946237.000          44.500          40.850
 105254101.116 9  82016171.96449  20029183.320
  20029176.800          51.000          51.000
 111310697.208 9  86735654.84048  21181702.700
  21181699.380          50.950          48.500
 127136459.209 5  99067370.73545  24193255.860
  24193253.980          38.600          38.600
 112309949.418 9  87514249.04548  21371865.460
  21371858.720          49.800          45.300
 127655193.574 6  99471562.91244  24291974.820
  24291967.820          41.000          33.650
 131482714.848 6 102454021.81643  25020327.080
  25020322.640          40.550          31.600
 123339460.652 8  96108714.57246  23470697.720
  23470694.140          45.550          41.900
 120486026.119 8  93885200.33845  22927720.960
  22927714.380          46.600          38.800
 109284689.731 9  85156911.68849  20796174.360
  20796170.500          51.500          50.600
 16  2 13  2 18 30.0000000  0 10G01G07G08G09G11G13G17G27G28G30
 120486941.669 7  93885929.42946  22927899.240
  22927897.320          44.900          40.450
 105263533.440 9  82023521.83049  20030978.260
  20030971.700          51.100          51.100
 111371069.371 9  86782698.08148  21193191.220
  21193187.820          50.950          48.450
 127239065.700 6  99147323.74245  24212781.340
  24212779.720          39.100          37.650
 112244830.201 9  87463506.81648  21359473.580
  21359467.000          49.950          45.700
 127590047.485 7  99420799.77744  24279577.520
  24279571.660          42.300          33.050
 131381276.662 6 102374979.19544  25001023.400
  25001019.360          40.900          33.600
 123439284.174 8  96186499.11946  23489693.560
  23489689.900          45.600          39.100
 120424905.676 8  93837574.06845  22916090.060
  22916083.320          46.250          38.650
 109235164.802 9  85118320.84549  20786750.020
  20786746.240          51.450          50.250
 16  2 13  2 19  0.0000000  0 10G01G07G08G09G11G13G17G27G28G30
 120390805.578 7  93811018.20146  22909605.100
  22909603.400          44.800          40.300
 105273513.401 9  82031298.41749  20032877.420
  20032870.820          51.150          51.050
 111431803.447 9  86830023.32148  21204748.540
  21204745.100          51.050          48.650
 127341699.664 6  99227298.21446  24232312.920
  24232310.340          40.250          40.300
 112180204.413 9  87413149.08448  21347175.620
  21347169.160          49.800          45.650
 127525382.795 7  99370411.74844  24267272.180
  24267266.440          43.250          34.250
 131279951.299 6 102296024.39144  24981741.440
  24981737.540          40.700          32.750
 123539235.587 7  96264383.31346  23508713.680
  23508709.860          44.550          41.050
 120363880.878 8  93790022.31246  22904477.140
  22904470.540          45.850          39.050
 109186070.524 9  85080065.57049  20777407.680
  20777403.900          51.750          50.750
 16  2 13  2 19 30.0000000  0 10G01G07G08G09G11G13G17G27G28G30
 120294915.400 8  93736298.60346  22891357.780
  22891356.000          45.400          40.000
 105284044.030 9  82039504.10249  20034881.360
  20034874.740          51.050          51.000
 111492899.693 9  86877630.77548  21216374.840
  21216371.260          51.300          48.250
 127444360.765 7  99307293.79846  24251848.920
  24251846.180          42.050          40.900
 112116076.692 9  87363179.46748  21334972.500
  21334966.040          50.100          45.350
 127461203.963 7  99320402.27344  24255059.340
  24255053.520          42.300          32.700
 131178742.952 6 102217160.79145  24962482.480
  24962477.780          39.550          36.350
 123639315.278 8  96342367.48445  23527758.040
  23527753.600          45.250          38.700
 120302953.991 8  93742546.86146  22892882.960
  22892876.500          46.100          39.100
 109137411.421 9  85042149.39249  20768148.240
  20768144.340          51.750          50.650
 16  2 13  2 20  0.0000000  0 10G01G07G08G09G11G13G17G27G28G30
 120199273.245 8  93661772.27946  22873157.840
  22873155.600          45.300          41.500
 105295124.929 9  82048138.55949  20036989.980
  20036983.360          50.950          51.100
 111554354.632 9  86925517.72848  21228069.440
  21228065.680          51.100          48.350
 127547044.994 6  99387307.40946  24271388.740
  24271386.400          40.800          39.350
 112052448.229 9  87313598.85648  21322864.400
  21322857.920          49.850          45.300
 127397512.132 7  99270772.26644  24242939.320
  24242933.280          42.900          34.400
 131077651.861 6 102138388.64244  24943245.380
  24943240.620          39.250          35.500
 123739519.889 8  96420448.99146  23546826.400
  23546821.800          45.250          40.000
 120242124.065 8  93695146.93646  22881307.280
  22881300.960          46.100          40.150
 109089188.409 9  85004573.02549  20758971.780
  20758967.760          51.800          50.800
 16  2 13  2 20 30.0000000  0 10G01G07G08G09G11G13G17G27G28G30
 120103882.133 8  93587441.58646  22855005.600
  22855003.080          45.900          40.300
 105306756.338 9  82057201.99649  20039203.340
  20039196.760          51.000          51.000
 111616166.151 9  86973682.55348  21239831.860
  21239828.020          51.250          48.150
 127649749.063 6  99467336.53945  24290932.820
  24290930.720          40.650          38.300
 111989321.387 9  87264409.14048  21310851.740
  21310845.300          50.000          45.700
 127334309.198 7  99221523.28844  24230912.100
  24230906.080          43.500          35.550
 130976679.203 6 102059708.74044  24924031.140
  24924026.300          39.600          35.550
 123839847.021 8  96498625.96545  23565918.120
  23565913.700          45.100          38.600
 120181390.664 8  93647822.21846  22869750.380
  22869743.720          47.050          39.300
 109041403.266 9  84967337.85249  20749878.640
  20749874.600          51.750          50.700
 16  2 13  2 21  0.0000000  0 10G01G07G08G09G11G13G17G27G28G30
 120008746.395 8  93513309.87946  22836901.760
  22836899.240          45.350          41.150
 105318939.856 9  82066695.64349  20041521.800
  20041515.180          51.050          51.050
 111678333.128 9  87022124.35148  21251661.760
  21251657.980          51.150          48.100
 127752471.378 6  99547379.90145  24310480.060
  24310477.880          40.600          38.050
 111926699.584 9  87215612.95048  21298935.180
  21298928.780          50.150          46.100
 127271598.224 7  99172657.60145  24218978.920
  24218972.660          44.550          37.000
 130875827.815 6 101981123.31345  24904839.820
  24904834.420          39.550          36.050
 123940295.632 7  96576897.61746  23585032.800
  23585028.740          44.400          40.150
 120120755.303 8  93600573.90346  22858212.080
  22858205.160          47.450          39.450
 108994059.119 9  84930446.31049  20740869.380
  20740865.360          51.800          50.750
 16  2 13  2 21 30.0000000  0 10G01G07G08G09G11G13G17G27G28G30
 119913868.233 7  93439378.86347  22818846.880
  22818844.720          44.850          42.100
 105331674.941 9  82076619.08149  20043945.180
  20043938.580          51.100          51.150
 111740852.427 9  87070840.67648  21263558.780
  21263554.980          51.150          48.100
 127855207.902 6  99627434.35045  24330029.940
  24330027.420          39.350          37.650
 111864583.966 9  87167211.20748  21287114.960
  21287108.520          50.050          45.800
 127209380.472 7  99124176.27244  24207139.320
  24207132.820          42.600          34.850
 130775097.942 6 101902632.50945  24885671.780
  24885665.800          39.850          37.000
 124040862.483 8  96655261.38947  23604169.900
  23604166.220          45.100          42.400
 120060216.591 8  93553400.91546  22846692.000
  22846684.840          46.950          39.200
 108947156.919 9  84893899.14449  20731944.140
  20731940.140          51.800          50.900
 16  2 13  2 22  0.0000000  0 10G01G07G08G09G11G13G17G27G28G30
 119819252.554 8  93365652.40246  22800842.100
  22800840.040          45.000          41.600
 105344963.633 9  82086973.90849  20046473.920
  20046467.280          50.900          50.850
 111803723.467 9  87119831.09848  21275522.700
  21275518.940          50.950          48.150
 127957906.434 5  99707457.95045  24349581.760
  24349580.860          38.150          37.750
 111802978.371 9  87119206.87448  21275391.800
  21275385.220          50.200          45.700
 127147659.395 7  99076081.93744  24195394.120
  24195387.480          43.250          35.200
 130674492.572 6 101824238.74044  24866527.500
  24866521.980          40.200          35.500
 124141547.221 8  96733716.98446  23623329.600
  23623325.900          45.450          40.850
 119999776.365 8  93506304.65246  22835190.540
  22835183.400          46.900          39.900
 108900700.353 9  84857699.23149  20723103.780
  20723099.740          51.700          50.700
 16  2 13  2 22 30.0000000  0 10G01G07G08G09G11G13G17G27G28G30
 119724899.848 8  93292130.83946  22782887.300
  22782885.260          45.400          40.900
 105358803.704 9  82097758.37749  20049107.600
  20049100.920          51.150          51.100
 111866941.233 9  87169091.68148  21287552.600
  21287548.840          51.100          48.300
 128060669.383 5  99787524.23145  24369136.260
  24369135.160          38.000          38.500
 111741882.430 9  87071599.66348  21263765.680
  21263758.920          50.300          46.000
 127086434.459 7  99028374.22144  24183743.340
  24183736.760          43.050          33.400
 130574010.607 6 101745941.14745  24847405.960
  24847401.580          40.150          38.500
 124242344.899 8  96812260.65647  23642510.900
  23642507.180          45.100          43.050
 119939432.068 8  93459283.16646  22823707.400
  22823700.580          46.850          40.350
 108854688.687 9  84821845.98949  20714348.040
  20714343.980          51.850          50.900
 16  2 13  2 23  0.0000000  0 10G01G07G08G09G11G13G17G27G28G30
 119630813.614 7  93218816.92946  22764982.980
  22764981.020          44.600          40.850
 105373195.975 9  82108973.13349  20051846.320
  20051839.700          51.300          51.350
 111930504.059 9  87218621.16248  21299648.280
  21299644.440          50.750          48.450
 128163431.187 6  99867598.21845  24388692.360
  24388690.800          40.400          38.900
 111681298.642 9  87024391.53748  21252237.020
  21252230.140          50.400          46.400
 127025707.997 7  98981054.93644  24172187.180
  24172181.200          42.400          35.800
 130473653.774 6 101667741.03746  24828308.760
  24828304.340          39.000          39.250
 124343253.743 8  96890890.89147  23661713.340
  23661709.820          46.100          42.650
 119879183.890 8  93412336.55746  22812242.440
  22812235.940          46.950          40.850
 108809124.187 9  84786341.18649  20705677.320
  20705673.300          51.850          51.100
 16  2 13  2 23 30.0000000  0 10G01G07G08G09G11G13G17G27G28G30
 119537000.180 7  93145715.60146  22747130.720
  22747128.800          44.550          41.900
 105388143.763 9  82120620.76349  20054690.820
  20054684.160          51.100          51.050
 111994412.610 9  87268420.02148  21311809.720
  21311805.940          50.500          48.650
 128266197.901 6  99947676.15545  24408248.580
  24408245.540          40.250          38.000
 111621232.184 9  86977586.53648  21240806.760
  21240799.820          50.250          46.750
 126965485.098 6  98934128.04443  24160726.820
  24160721.280          41.400          31.800
 130373426.781 6 101589642.17245  24809236.480
  24809231.740          39.800          38.550
 124444274.669 7  96969608.47147  23680936.680
  23680933.540          44.850          43.400
 119819034.757 8  93365467.14346  22800796.240
  22800789.760          46.450          40.800
 108764011.830 9  84751188.70649  20697092.680
  20697088.640          51.650          51.400
 16  2 13  2 24  0.0000000  0 10G01G07G08G09G11G13G17G27G28G30
 119443459.844 8  93072827.04646  22729330.520
  22729328.740          45.300          41.100
 105403644.670 9  82132699.37949  20057640.580
  20057633.900          51.250          51.250
 112058662.003 9  87318484.48348  21324035.960
  21324032.260          50.400          48.250
 128368963.877 6 100027753.49146  24427804.280
  24427801.300          41.500          39.650
 111561682.645 9  86931184.31848  21229474.860
  21229467.960          50.400          46.400
 126905764.768 6  98887592.74645  24149362.340
  24149357.000          41.950          36.550
 130273327.998 6 101511643.19045  24790188.800
  24790183.440          41.100          37.950
 124545402.619 8  97048409.46947  23700180.720
  23700177.560          45.100          42.950
 119758982.045 8  93318672.83346  22789368.540
  22789361.760          46.950          39.350
 108719350.758 9  84716387.87149  20688593.820
  20688589.900          51.750          51.050
 16  2 13  2 24 30.0000000  0 10G01G07G08G09G11G13G17G27G28G30
 119350196.410 8  93000154.28146  22711583.140
  22711581.340          45.350          40.800
 105419699.673 9  82145209.77549  20060695.700
  20060689.100          50.750          50.900
 112123250.381 9  87368813.09548  21336326.700
  21336323.060          51.050          48.050
 128471726.763 6 100107828.49446  24447359.180
  24447356.300          40.550          39.450
 111502652.792 9  86885187.06948  21218241.840
  21218235.060          50.150          46.800
 126846549.449 7  98841450.91445  24138094.500
  24138088.680          43.950          37.000
 130173359.417 6 101433745.68646  24771165.480
  24771160.040          41.100          39.850
 124646636.135 8  97127292.69746  23719444.820
  23719441.140          45.000          39.050
 119699026.423 8  93271954.18946  22777959.420
  22777952.320          47.300          40.100
 108675143.474 9  84681940.65149  20680181.480
  20680177.520          51.600          50.650
 16  2 13  2 25  0.0000000  0 10G01G07G08G09G11G13G17G27G28G30
 119257213.894 8  92927700.40346  22693889.300
  22693887.220          45.300          41.550
 105436309.452 9  82158152.45949  20063856.420
  20063849.820          50.950          51.000
 112188176.843 9  87419405.12948  21348681.820
  21348678.260          50.950          48.400
 128574484.573 6 100187899.48446  24466913.400
  24466910.340          40.450          39.600
 111444145.557 9  86839597.04548  21207108.260
  21207101.560          50.250          46.650
 126787842.095 7  98795704.98645  24126922.840
  24126917.080          43.400          37.100
 130073523.055 6 101355951.17046  24752166.400
  24752162.060          41.850          39.650
 124747973.868 7  97206257.14546  23738728.860
  23738724.740          44.350          40.500
 119639168.253 8  93225311.48046  22766568.940
  22766561.600          47.500          40.050
 108631392.713 9  84647849.14949  20671856.000
  20671851.920          51.750          50.800
 16  2 13  2 25 30.0000000  0 10G01G07G08G09G11G13G17G27G28G30
 119164515.751 8  92855468.10746  22676249.400
  22676247.260          45.550          41.150
 105453474.931 9  82171528.14649  20067122.940
  20067116.300          51.250          51.150
 112253439.097 9  87470258.82548  21361100.760
  21361097.400          50.350          48.500
 128677234.618 6 100267964.39746  24486466.180
  24486462.860          40.700          39.050
 111386163.175 9  86794415.98048  21196074.500
  21196067.880          50.400          46.850
 126729644.724 7  98750356.42044  24115848.280
  24115842.360          44.400          34.850
 129973820.518 6 101278260.90345  24733192.920
  24733189.120          39.400          38.350
 124849414.072 8  97285301.46446  23758032.400
  23758028.100          46.600          41.400
 119579408.124 8  93178745.16346  22755196.940
  22755189.640          47.100          40.250
 108588100.624 9  84614115.05649  20663617.840
  20663613.740          51.950          51.300
 16  2 13  2 26  0.0000000  0 10G01G07G08G09G11G13G17G27G28G30
 119072104.520 8  92783459.39746  22658664.000
  22658661.840          45.650          41.450
 105471195.830 9  82185336.64149  20070495.140
  20070488.500          50.900          51.000
 112319034.326 9  87521371.98048  21373583.060
  21373579.820          51.050          48.000
 128779973.441 6 100348020.65145  24506016.800
  24506013.340          40.800          36.350
 111328707.642 9  86749645.44748  21185140.960
  21185134.400          50.250          46.550
 126671958.752 7  98705406.31644  24104871.260
  24104864.780          43.650          33.650
 129874253.046 6 101200676.00145  24714245.720
  24714242.020          40.600          38.000
 124950953.954 8  97364423.45146  23777354.760
  23777350.320          45.500          39.850
 119519745.972 8  93132255.17546  22743843.260
  22743836.540          46.300          40.650
 108545268.543 9  84580739.41449  20655467.180
  20655463.160          51.600          50.800
 16  2 13  2 26 30.0000000  0 10G01G07G08G09G11G13G17G27G28G30
 118979983.525 8  92711676.83246  22641133.960
  22641131.800          46.100          41.350
 105489472.473 9  82199578.18149  20073973.120
  20073966.500          50.850          50.800
 112384960.553 9  87572743.06748  21386128.340
  21386125.100          50.750          47.450
 128882698.370 5 100428066.07144  24525564.580
  24525561.560          38.250          34.750
 111271780.825 9  86705286.92148  21174308.100
  21174301.500          50.150          46.450
 126614785.918 7  98660856.07044  24093991.400
  24093984.920          43.550          33.750
 129774822.028 6 101123197.34845  24695325.060
  24695320.480          41.350          37.050
 125052591.534 8  97443621.57446  23796695.840
  23796691.660          46.200          40.050
 119460181.257 8  93085841.12546  22732508.320
  22732501.860          46.400          39.950
 108502898.459 9  84547723.77049  20647404.380
  20647400.440          51.450          50.650
 16  2 13  2 27  0.0000000  0 10G01G07G08G09G11G13G17G27G28G30
 118888155.934 8  92640122.90046  22623659.820
  22623657.640          46.350          41.550
 105508305.144 9  82214252.98349  20077556.860
  20077550.300          51.150          51.150
 112451215.447 9  87624370.25248  21398736.160
  21398732.880          50.700          48.100
 128985406.659 5 100508098.32845  24545108.320
  24545106.800          37.500          38.250
 111215384.912 9  86661342.09448  21163576.280
  21163569.700          50.550          46.650
 126558128.286 7  98616707.26544  24083209.740
  24083203.260          43.550          32.150
 129675528.877 6 101045826.07345  24676430.420
  24676425.480          41.600          38.750
 125154324.741 8  97522894.18247  23816055.120
  23816051.080          45.650          42.750
 119400714.096 8  93039503.10246  22721192.080
  22721185.560          47.250          39.800
 108460992.205 9  84515069.54649  20639429.880
  20639425.920          51.950          50.800
 16  2 13  2 27 30.0000000  0 10G01G07G08G09G11G13G17G27G28G30
 118796624.765 8  92568799.96146  22606242.080
  22606239.800          46.150          41.400
 105527693.847 9  82229361.06749  20081246.380
  20081239.880          51.100          51.050
 112517796.856 9  87676251.86048  21411406.120
  21411402.860          50.850          47.700
 129088094.921 6 100588115.19045  24564649.080
  24564647.860          40.550          38.300
 111159521.501 9  86617812.19148  21152945.760
  21152939.200          50.600          46.400
 126501987.323 7  98572961.12244  24072526.280
  24072520.060          43.600          33.050
 129576374.534 6 100968563.05845  24657562.240
  24657556.600          41.500          36.750
 125256151.390 8  97602239.57247  23835432.200
  23835428.120          45.300          44.050
 119341344.502 8  92993241.11846  22709894.380
  22709888.000          47.300          39.850
 108419551.565 9  84482778.15149  20631543.940
  20631540.000          51.850          50.650
 16  2 13  2 28  0.0000000  0 10G01G07G08G09G11G13G17G27G28G30
 118705392.144 8  92497709.64046  22588880.820
  22588878.900          45.050          41.950
 105547637.308 9  82244901.42749  20085041.440
  20085035.040          50.850          50.800
 112584701.362 9  87728385.24348  21424137.600
  21424134.280          50.650          47.700
 129190759.548 7 100668113.60945  24584185.860
  24584184.300          42.250          37.650
 111104191.811 9  86574698.17548  21142416.860
  21142410.160          50.350          46.550
 126446364.005 7  98529618.28944  24061941.640
  24061934.940          43.100          33.550
 129477359.618 6 100891408.66045  24638719.480
  24638714.460          40.400          37.150
 125358068.325 8  97681655.34747  23854826.340
  23854822.580          45.000          42.350
 119282071.157 8  92947054.11746  22698615.040
  22698608.700          47.000          40.550
 108378577.313 9  84450850.17049  20623746.820
  20623742.800          51.700          50.650
 16  2 13  2 28 30.0000000  0 10G01G07G08G09G11G13G17G27G28G30
 118614463.091 8  92426855.85947  22571577.520
  22571575.740          45.850          42.550
 105568137.976 9  82260875.96349  20088942.580
  20088936.260          50.850          50.850
 112651928.691 9  87780770.18948  21436930.600
  21436927.120          50.850          47.100
 129293399.519 6 100748092.78246  24603717.940
  24603715.760          41.250          40.550
 111049399.592 9  86532002.94848  21131990.320
  21131983.460          50.400          46.600
 126391262.202 7  98486681.83545  24051456.080
  24051449.440          42.850          37.250
 129378487.713 6 100814365.70945  24619904.060
  24619899.920          39.850          38.200
 125460075.445 7  97761141.38045  23874237.580
  23874234.080          44.550          38.200
 119222896.502 8  92900943.99846  22687354.500
  22687348.200          47.400          40.600
 108338073.168 9  84419288.50349  20616039.120
  20616035.100          51.550          50.600
 16  2 13  2 29  0.0000000  0 10G01G07G08G09G11G13G17G27G28G30
 118523838.927 8  92356239.66647  22554332.320
  22554330.400          45.750          42.750
 105589194.147 9  82277283.37149  20092949.440
  20092943.180          50.900          50.850
 112719474.781 9  87833403.48848  21449784.260
  21449780.640          50.750          47.250
 129396010.153 6 100828049.07445  24623244.060
  24623241.840          41.000          38.500
 110995145.166 9  86489726.79048  21121666.120
  21121659.200          50.500          46.600
 126336681.921 7  98444151.76545  24041069.720
  24041063.280          42.950          36.950
 129279757.749 7 100737433.34145  24601117.040
  24601112.060          42.550          38.950
 125562168.727 7  97840694.55346  23893665.320
  23893661.480          43.750          41.400
 119163818.458 8  92854909.17646  22676112.560
  22676106.020          47.550          40.150
 108298039.109 9  84388093.13949  20608420.900
  20608416.920          51.750          50.750
 16  2 13  2 29 30.0000000  0 10G01G07G08G09G11G13G17G27G28G30
 118433524.657 7  92285864.95647  22537146.060
  22537144.140          44.300          42.750
 105610807.798 9  82294125.16449  20097062.360
  20097056.080          50.100          49.850
 112787339.526 8  87886285.11348  21462698.480
  21462694.860          48.850          48.250
 129498590.369 4 100907981.66844  24642764.120
  24642762.180          35.500          35.500
 110941432.406 9  86447872.69748  21111444.980
  21111438.020          49.650          47.200
 126282625.847 7  98402030.17744  24030783.200
  24030776.820          42.350          35.350
 129181173.115 6 100660614.14845  24582357.040
  24582351.740          40.600          38.650
 125664348.030 7  97920314.85247  23913109.280
  23913105.660          42.950          42.800
 119104838.898 8  92808951.09246  22664889.300
  22664882.260          46.550          41.950
 108258478.858 9  84357266.96749  20600892.880
  20600888.880          51.150          51.000
 16  2 13  2 30  0.0000000  0 10G01G07G08G09G11G13G17G27G28G30
 118343524.923 8  92215735.32446  22520019.620
  22520017.700          46.150          41.900
 105632980.329 9  82311402.45649  20101281.660
  20101275.360          50.550          50.550
 112855521.856 9  87939414.18548  21475673.180
  21475669.540          50.600          47.200
 129601139.096 5 100987889.71145  24662278.120
  24662276.980          38.800          38.050
 110888264.781 9  86406443.39848  21101327.560
  21101320.620          50.450          46.750
 126229097.845 7  98360320.09744  24020597.220
  24020590.720          44.000          32.950
 129082736.876 6 100583910.66546  24563624.920
  24563619.780          40.750          39.650
 125766612.894 7  98000001.68746  23932569.520
  23932565.800          44.550          39.250
 119045959.329 8  92763070.91146  22653684.900
  22653677.420          46.850          40.850
 108219395.685 9  84326812.55149  20593455.600
  20593451.620          51.500          50.950
 16  2 13  2 30 30.0000000  0 10G01G07G08G09G11G13G17G27G28G30
 118253837.790 8  92145849.29947  22502952.800
  22502950.740          46.550          42.050
 105655706.839 9  82329111.42449  20105606.440
  20105600.020          50.800          50.850
 112924014.414 9  87992785.03648  21488707.040
  21488703.340          50.650          47.100
 129703648.240 6 101067766.90444  24681784.980
  24681783.740          39.050          35.250
 110835639.162 9  86365436.44248  21091313.220
  21091306.220          50.550          46.750
 126176094.732 7  98319018.97744  24010511.020
  24010504.640          44.800          35.200
 128984444.911 6 100507319.59145  24544920.360
  24544915.160          40.850          36.950
 125868956.084 8  98079749.65845  23952044.980
  23952041.000          46.100          37.850
 118987174.836 8  92717264.83146  22642498.440
  22642491.060          47.250          39.250
 108180786.301 9  84296727.32949  20586108.460
  20586104.520          51.450          50.550
 16  2 13  2 31  0.0000000  0 10G01G07G08G09G11G13G17G27G28G30
 118164467.808 8  92076210.37347  22485946.380
  22485944.440          46.450          43.050
 105678988.816 9  82347253.21549  20110036.880
  20110030.360          50.700          50.650
 112992816.710 9  88046397.19248  21501799.680
  21501795.940          50.600          47.150
 129806116.513 6 101147612.25844  24701284.740
  24701282.580          41.300          32.750
 110783558.843 9  86324854.40548  21081402.600
  21081395.620          50.300          47.150
 126123619.344 7  98278129.08244  24000525.260
  24000518.680          44.450          35.600
 128886300.227 5 100430843.27745  24526243.800
  24526239.180          38.850          36.250
 125971377.017 8  98159558.16646  23971535.240
  23971531.440          45.300          41.500
 118928486.655 8  92671533.78546  22631330.460
  22631323.200          47.700          39.800
 108142653.904 9  84267013.76649  20578852.100
  20578848.140          51.600          50.800
 16  2 13  2 31 30.0000000  0 10G01G07G08G09G11G13G17G27G28G30
 118075421.130 8  92006823.37547  22469001.420
  22468999.480          46.650          43.000
 105702829.436 9  82365830.31949  20114573.620
  20114567.040          50.800          50.700
 113061929.777 9  88100251.51848  21514951.380
  21514947.720          50.100          47.700
 129908544.225 6 101227426.02145  24720776.780
  24720773.860          41.650          37.100
 110732028.812 9  86284701.16248  21071596.660
  21071589.800          50.450          47.100
 126071676.671 7  98237654.29844  23990640.980
  23990634.540          43.800          34.000
 128788307.102 6 100354485.01945  24507596.420
  24507591.980          41.100          38.100
 126073876.993 8  98239428.29747  23991040.440
  23991036.580          45.300          43.400
 118869898.333 8  92625880.56746  22620181.540
  22620174.420          47.300          41.250
 108105003.514 9  84237675.80649  20571687.580
  20571683.480          51.800          51.150
 16  2 13  2 32  0.0000000  0 10G01G07G08G09G11G13G17G27G28G30
 117986702.174 8  91937691.77246  22452118.640
  22452116.700          46.400          41.850
 105727229.779 9  82384843.57349  20119216.860
  20119210.260          50.700          50.650
 113131352.248 9  88154346.95448  21528162.040
  21528158.520          50.350          47.400
 130010929.511 6 101307206.78744  24740259.780
  24740257.460          40.200          34.300
 110681052.043 9  86244979.04348  21061896.000
  21061889.300          50.300          46.850
 126020269.202 7  98197596.57445  23980857.940
  23980851.740          42.450          36.600
 128690468.019 6 100278246.87246  24488978.820
  24488974.260          41.550          39.050
 126176454.902 7  98319359.08746  24010560.180
  24010556.640          42.600          41.900
 118811410.876 8  92580305.94646  22609051.680
  22609044.720          46.850          40.200
 108067837.838 9  84208715.55149  20564615.300
  20564611.100          51.650          50.750
 16  2 13  2 32 30.0000000  0 10G01G07G08G09G11G13G17G27G28G30
 117898311.652 8  91868816.07246  22435298.460
  22435296.220          46.550          41.300
 105752187.666 9  82404291.28049  20123966.240
  20123959.600          50.750          50.750
 113201079.265 9  88208679.68648  21541430.520
  21541427.200          50.200          47.400
 130113267.364 6 101386950.62545  24759733.820
  24759731.120          41.750          36.100
 110630628.044 9  86205687.64248  21052300.560
  21052293.960          50.350          46.850
 125969396.651 7  98157955.64845  23971177.140
  23971170.860          43.750          36.750
 128592782.012 6 100202127.90646  24470389.920
  24470384.920          41.650          39.100
 126279106.547 7  98399347.33346  24030093.880
  24030090.760          43.800          41.200
 118753021.770 8  92534807.94146  22597940.500
  22597933.520          46.900          39.850
 108031156.382 9  84180132.60549  20557635.060
  20557630.900          51.650          50.750
 16  2 13  2 33  0.0000000  0 10G01G07G08G09G11G13G17G27G28G30
 117810249.809 8  91800196.48147  22418540.820
  22418538.440          46.300          42.350
 105777700.007 9  82424171.01749  20128821.140
  20128814.440          50.700          50.650
 113271106.464 9  88263246.32748  21554756.160
  21554752.940          50.050          47.700
 130215552.215 7 101466653.07745  24779198.020
  24779195.820          42.000          37.700
 110580756.005 9  86166826.33148  21042810.180
  21042803.600          50.550          47.200
 125919057.505 7  98118730.33745  23961597.840
  23961591.640          43.600          36.100
 128495248.262 6 100126127.60846  24451829.640
  24451824.620          40.950          40.050
 126381826.977 7  98479389.17646  24049640.860
  24049637.800          44.100          41.850
 118694728.536 8  92489384.64646  22586847.660
  22586840.600          47.650          41.250
 107994958.029 9  84151926.09649  20550746.720
  20550742.620          51.700          51.000
 16  2 13  2 33 30.0000000  0 10G01G07G08G09G11G13G17G27G28G30
 117722525.122 8  91731839.62447  22401847.420
  22401845.180          46.700          43.050
 105803772.046 9  82444486.89049  20133782.520
  20133775.760          50.950          50.950
 113341436.829 9  88318049.21548  21568139.560
  21568136.360          49.700          47.950
 130317786.610 6 101546316.19345  24798652.980
  24798650.560          39.300          37.400
 110531442.907 9  86128400.57848  21033426.200
  21033419.560          50.700          47.450
 125869258.556 7  98079925.98545  23952121.560
  23952116.000          44.250          36.900
 128397871.956 6 100050249.99146  24433298.140
  24433294.480          41.250          40.650
 126484619.717 7  98559487.44747  24069201.580
  24069198.620          44.550          42.100
 118636536.515 8  92444040.22846  22575774.280
  22575767.120          48.050          41.100
 107959249.866 9  84124101.56049  20543951.600
  20543947.580          51.900          51.250
 16  2 13  2 34  0.0000000  0 10G01G07G08G09G11G13G17G27G28G30
 117635135.892 8  91663744.16647  22385217.880
  22385215.680          47.000          42.700
 105830398.924 9  82465235.10749  20138849.440
  20138842.700          50.800          50.700
 113412063.184 9  88373082.73448  21581579.480
  21581575.980          50.750          46.200
                                  24818096.780
  24818093.820          40.750          37.150
 110482685.897 9  86090408.12748  21024148.040
  21024141.440          50.600          47.100
 125819996.831 7  98041540.23844  23942747.540
  23942741.520          44.150          34.900
 128300650.628 6  99974493.20546  24414797.540
  24414794.020          40.700          40.400
 126587477.890 7  98639636.70244  24088774.960
  24088771.320          44.250          34.900
 118578440.923 8  92398770.94046  22564719.220
  22564711.880          47.800          41.050
 107924028.692 9  84096656.49349  20537249.160
  20537245.180          51.600          50.400
 16  2 13  2 34 30.0000000  0  9G01G07G08G11G13G17G27G28G30
 117548089.624 8  91595915.93647  22368653.380
  22368651.240          46.650          42.600
 105857585.033 9  82486419.08149  20144022.760
  20144016.040          50.850          50.750
 113482987.597 9  88428348.49248  21595076.100
  21595072.300          49.900          47.750
 110434491.126 9  86052853.78248  21014976.800
  21014970.240          50.650          47.450
 125771278.257 7  98003577.73144  23933476.640
  23933470.680          44.150          35.000
 128203589.706 6  99898861.32546  24396327.520
  24396324.140          39.950          39.950
 126690404.016 7  98719838.82246  24108361.180
  24108357.260          44.700          41.850
 118520446.365 8  92353580.37746  22553683.100
  22553675.960          47.750          41.700
 107889300.822 9  84069595.81949  20530640.640
  20530636.680          51.850          51.350
 16  2 13  2 35  0.0000000  0 10G01G07G08G09G11G13G17G27G28G30
 117461384.135 8  91528353.25447  22352153.740
  22352151.520          46.600          43.350
 105885324.839 9  82508034.51249  20149301.420
  20149294.720          50.750          50.700
 113554202.808 9  88483840.86648  21608628.020
  21608624.060          50.350          47.400
 130624141.835 5 101785044.00344  24856948.440
  24856948.480          38.800          35.850
 110386855.110 9  86015734.83748  21005912.000
  21005905.320          50.750          47.400
 125723099.001 7  97966035.49145  23924308.320
  23924302.940          44.100          37.000
 128106685.023 6  99823351.26046  24377886.840
  24377883.680          41.000          39.650
 126793390.829 8  98800088.32646  24127959.140
  24127954.780          45.250          40.200
 118462547.611 8  92308464.47047  22542665.100
  22542658.240          47.350          42.000
 107855062.594 9  84042916.68149  20524125.300
  20524121.400          51.700          50.950
 16  2 13  2 35 30.0000000  0 10G01G07G08G09G11G13G17G27G28G30
 117375026.850 8  91461061.88946  22335720.500
  22335718.280          47.400          41.650
 105913622.881 9  82530084.93549  20154686.340
  20154679.580          51.000          50.650
 113625710.971 9  88539561.52548  21622235.580
  21622231.740          50.000          47.650
                                  24876357.420
  24876357.380          42.050          35.650
 110339784.002 9  85979056.08348  20996954.680
  20996947.900          50.950          47.250
 125675465.279 7  97928918.30644  23915243.900
  23915238.380          44.550          34.950
 128009942.912 7  99747967.75545  24359478.060
  24359473.160          42.350          38.100
 126896440.901 8  98880387.11146  24147569.080
  24147564.840          45.000          41.300
 118404749.263 8  92263426.82046  22531666.340
  22531659.500          48.000          40.900
 107821320.112 9  84016623.83949  20517704.260
  20517700.460          51.950          50.850
 16  2 13  2 36  0.0000000  0 10G01G07G08G09G11G13G17G27G28G30
 117289016.594 8  91394040.90947  22319353.280
  22319351.200          47.550          43.050
 105942474.534 9  82552566.72849  20160176.580
  20160169.900          51.250          51.050
 113697505.809 9  88595505.55148  21635897.580
  21635893.940          50.250          46.800
 130828062.827 6 101943944.43846  24895754.240
  24895751.960          41.800          39.350
 110293275.154 9  85942815.43048  20988104.380
  20988097.480          51.250          48.100
 125628374.036 7  97892223.87945  23906282.880
  23906277.080          42.600          37.250
 127913359.756 8  99672708.21845  24341099.020
  24341094.440          46.550          38.650
 126999547.884 7  98960730.14845  24167189.740
  24167185.420          43.200          38.200
 118347046.758 8  92218463.84246  22520685.900
  22520679.160          48.450          41.000
 107788070.698 9  83990715.22049  20511377.040
  20511373.300          51.800          51.350
 16  2 13  2 36 30.0000000  0 10G01G07G08G09G11G13G17G27G28G30
 117203360.837 8  91327296.16747  22303053.440
  22303051.420          47.150          42.700
 105971883.691 9  82575482.95749  20165772.920
  20165766.320          50.950          50.600
 113769589.134 9  88651674.37348  21649614.460
  21649611.000          49.450          48.000
 130929917.785 7 102023311.97845  24915136.700
  24915134.880          43.850          37.550
 110247334.712 9  85907017.69748  20979362.200
  20979355.260          50.700          47.250
 125581830.899 7  97855956.48144  23897425.880
  23897419.860          43.750          35.350
 127816941.422 8  99597577.01945  24322752.380
  24322746.700          45.450          38.850
 127102714.348 7  99041119.64447  24186821.300
  24186817.920          43.000          42.600
 118289444.767 8  92173579.18846  22509724.440
  22509718.060          47.700          40.900
 107755320.397 9  83965195.49949  20505144.820
  20505141.120          51.900          51.050
 16  2 13  2 37  0.0000000  0 10G01G07G08G09G11G13G17G27G28G30
 117118063.027 8  91260830.34847  22286821.800
  22286819.700          47.000          42.850
 106001851.188 9  82598834.25149  20171475.560
  20171468.980          50.750          50.550
 113841959.475 9  88708066.82448  21663385.820
  21663382.720          49.550          48.000
 131031702.254 6 102102624.55043  24934505.260
  24934503.100          41.150          31.350
 110201964.698 9  85871664.46948  20970728.520
  20970721.520          50.500          47.250
 125535838.177 7  97820117.98445  23888673.780
  23888667.640          43.900          36.350
 127720689.506 7  99522575.55846  24304437.040
  24304430.820          43.700          40.850
 127205938.687 7  99121554.07046  24206464.060
  24206461.160          42.000          41.850
 118231943.643 8  92128773.11346  22498782.240
  22498776.160          47.550          41.100
 107723071.262 9  83940066.30449  20499007.980
  20499004.300          51.600          50.950
 16  2 13  2 37 30.0000000  0  9G01G07G08G11G13G17G27G28G30
 117033125.850 8  91194645.55447  22270658.740
  22270656.420          47.000          43.250
 106032375.881 9  82622619.71449  20177284.220
  20177277.660          51.000          51.000
 113914614.160 9  88764680.90348  21677211.560
  21677208.560          50.400          47.450
 110157166.580 9  85836756.86848  20962203.680
  20962196.600          51.100          48.350
 125490396.942 7  97784709.26045  23880026.440
  23880020.620          44.100          36.850
 127624604.835 7  99447704.42046  24286152.280
  24286146.820          43.900          39.900
 127309218.608 7  99202032.03146  24226117.640
  24226114.760          42.750          41.900
 118174543.327 8  92084045.60646  22487859.480
  22487853.320          48.500          41.800
 107691324.552 9  83915328.61049  20492966.720
  20492963.060          51.850          51.450
 16  2 13  2 38  0.0000000  0  9G01G07G08G11G13G17G27G28G30
 116948550.883 8  91128743.00847  22254564.760
  22254562.160          47.450          43.000
 106063456.444 9  82646838.33449  20183198.740
  20183192.100          50.900          50.600
 113987549.476 9  88821513.58448  21691090.760
  21691087.760          49.750          48.100
 110112940.314 9  85802294.87048  20953787.740
  20953780.580          50.800          47.550
 125445506.763 7  97749729.91645  23871484.180
  23871478.380          44.600          36.100
 127528687.439 7  99372963.67246  24267899.300
  24267894.100          43.100          41.950
 127412550.880 7  99282550.60946  24245781.080
  24245777.960          43.300          41.700
 118117242.599 8  92039395.68646  22476955.780
  22476949.000          48.350          41.800
 107660080.392 9  83890982.51349  20487021.180
  20487017.400          51.750          50.800
 16  2 13  2 38 30.0000000  0 10G01G07G08G09G11G13G17G27G28G30
 116864341.428 8  91063125.27747  22238540.240
  22238537.780          47.000          43.500
 106095092.909 9  82671490.12949  20189219.040
  20189212.340          50.800          50.600
 114060763.526 9  88878563.49948  21705022.920
  21705019.960          49.550          47.900
 131336601.966 4 102340203.11044  24992523.900
  24992522.820          33.900          32.250
 110069288.287 9  85768280.32848  20945481.040
  20945473.900          50.700          47.750
 125401169.832 7  97715181.65044  23863047.060
  23863041.380          44.500          35.500
 127432939.308 7  99298354.79246  24249679.140
  24249673.220          43.600          41.950
 127515933.862 7  99363108.74946  24265454.040
  24265451.080          42.250          41.300
 118060041.861 8  91994823.69746  22466070.940
  22466063.880          48.050          41.600
 107629340.691 9  83867029.50849  20481171.660
  20481167.800          51.800          51.000
 16  2 13  2 39  0.0000000  0 10G01G07G08G09G11G13G17G27G28G30
 116780496.814 8  90997791.82447  22222584.940
  22222583.000          46.200          44.300
 106127281.007 9  82696571.76249  20195344.200
  20195337.500          50.200          50.300
 114134250.260 9  88935825.86348  21719007.060
  21719003.920          49.300          48.250
 131438068.708 5 102419268.03945  25011833.500
  25011831.560          38.550          38.100
 110026208.135 9  85734711.39248  20937283.080
  20937276.040          50.150          48.350
 125357383.247 7  97681062.24745  23854714.760
  23854709.100          43.150          38.900
 127337357.400 7  99223875.41547  24231490.540
  24231484.600          42.600          42.300
 127619361.926 6  99443702.00646  24285135.740
  24285132.640          41.250          41.050
 118002937.506 8  91950326.80747  22455204.160
  22455197.340          47.200          42.400
 107599103.275 9  83843467.89149  20475417.660
  20475413.820          51.250          51.250
 16  2 13  2 39 30.0000000  0 10G01G07G08G09G11G13G17G27G28G30
 116697025.962 8  90932749.62047  22206700.940
  22206698.960          47.150          43.400
 106160026.345 9  82722087.60149  20201575.400
  20201568.800          50.800          50.800
 114208013.742 9  88993303.91748  21733044.000
  21733040.580          50.050          47.650
 131539451.940 7 102498268.02746  25031126.080
  25031124.340          43.550          40.250
 109983706.790 9  85701593.47648  20929195.280
  20929188.360          50.850          48.750
 125314154.637 7  97647377.64745  23846488.740
  23846482.920          44.400          36.950
 127241948.326 7  99149530.72246  24213334.120
  24213329.200          44.650          40.750
 127722839.081 7  99524333.64546  24304827.220
  24304823.580          42.400          39.200
 117945935.206 8  91905909.43546  22444356.960
  22444350.040          47.850          41.750
 107569375.647 9  83820303.50649  20469760.680
  20469756.860          51.750          51.500
 16  2 13  2 40  0.0000000  0 10G01G07G08G09G11G13G17G27G28G30
 116613929.597 8  90867999.22447  22190888.400
  22190885.940          47.350          43.000
 106193326.411 9  82748035.70149  20207912.160
  20207905.640          50.450          50.450
 114282049.414 9  89050994.05848  21747132.600
  21747129.060          49.500          48.100
 131640747.021 7 102577199.25145  25050401.660
  25050400.180          43.750          38.800
 109941783.798 9  85668926.22248  20921217.600
  20921210.720          50.650          48.450
 125271482.719 7  97614126.80444  23838368.300
  23838362.700          43.900          35.600
 127146711.649 7  99075320.37846  24195210.460
  24195206.440          44.450          39.950
 127826361.246 7  99605000.32546  24324527.360
  24324523.160          43.300          40.900
 117889032.920 8  91861570.00147  22433528.880
  22433521.940          48.300          42.050
 107540157.080 9  83797535.78549  20464200.580
  20464196.720          51.700          51.300
 16  2 13  2 40 30.0000000  0 10G01G07G08G09G11G13G17G27G28G30
 116531211.668 8  90803543.71847  22175147.860
  22175145.020          47.750          43.250
 106227181.633 9  82774416.38749  20214354.600
  20214348.140          50.600          50.600
 114356355.942 9  89108895.21348  21761272.640
  21761268.980          49.900          47.600
 131741952.028 7 102656060.30345  25069660.400
  25069658.760          43.750          38.300
 109900441.709 9  85636711.62548  20913350.440
  20913343.540          50.700          48.000
 125229369.800 7  97581311.54444  23830354.680
  23830348.280          44.900          35.950
 127051649.351 8  99001245.84745  24177121.120
  24177116.240          45.550          37.300
 127929927.514 6  99685701.20646  24344235.380
  24344231.100          41.800          40.350
 117832231.591 8  91817309.23246  22422720.060
  22422712.840          48.150          41.500
 107511450.022 9  83775166.65549  20458737.840
  20458733.920          51.700          51.000
 16  2 13  2 41  0.0000000  0 10G01G07G08G09G11G13G17G27G28G30
 116448874.627 8  90739385.00147  22159479.580
  22159476.940          47.600          44.250
 106261591.143 9  82801228.98449  20220902.480
  20220896.040          50.700          50.600
 114430930.849 9  89167005.54548  21775463.780
  21775460.060          49.400          47.700
 131843063.782 6 102734848.65844  25088901.000
  25088899.980          39.750          32.900
 109859681.547 9  85604950.47048  20905594.040
  20905587.220          50.750          48.300
 125187816.921 7  97548932.68845  23822447.620
  23822441.060          44.600          36.300
 126956762.128 7  98927307.76046  24159065.000
  24159059.120          44.300          39.400
 128033535.549 6  99766434.74246  24363950.880
  24363947.360          40.350          40.400
 117775531.088 8  91773127.02746  22411930.240
  22411922.860          48.250          41.200
 107483255.495 9  83753196.89049  20453372.620
  20453368.720          51.600          50.900
 16  2 13  2 41 30.0000000  0 10G01G07G08G09G11G13G17G27G28G30
 116366923.655 8  90675527.12147  22143884.780
  22143882.480          47.700          44.600
 106296556.714 9  82828474.88049  20227556.140
  20227549.720          50.700          50.550
 114505773.879 9  89225324.75648  21789705.800
  21789702.240          49.650          46.950
 131944081.912 5 102813564.07245  25108123.040
  25108123.060          38.250          36.500
 109819507.045 9  85573645.68448  20897949.140
  20897942.320          50.800          48.150
 125146827.337 7  97516992.77745  23814647.540
  23814641.020          44.600          36.200
 126862054.001 7  98853509.28446  24141042.280
  24141036.600          42.500          40.050
 128137185.682 6  99847200.98346  24383674.660
  24383671.560          41.900          40.750
 117718933.754 8  91729025.22146  22401159.980
  22401152.480          48.400          41.500
 107455577.197 9  83731629.39349  20448105.640
  20448101.660          51.500          50.700
 16  2 13  2 42  0.0000000  0  9G01G07G08G11G13G17G27G28G30
 116285355.275 8  90611967.36547  22128362.840
  22128360.640          47.800          44.050
 106332071.426 9  82856148.67549  20234314.360
  20234307.980          50.700          50.150
 114580876.413 9  89283846.21948  21803997.240
  21803993.800          49.600          47.600
 109779913.120 9  85542793.28548  20890414.640
  20890407.840          50.800          48.150
 125106395.714 8  97485487.60244  23806953.600
  23806947.200          45.300          34.500
 126767518.918 7  98779845.66346  24123052.640
  24123047.580          44.050          41.400
 128240869.482 6  99927993.57146  24403405.160
  24403401.900          41.500          40.750
 117662433.084 8  91684998.72546  22390408.360
  22390401.000          48.450          41.600
 107428410.143 9  83710460.25649  20442936.020
  20442931.860          51.700          50.750
 16  2 13  2 42 30.0000000  0 10G01G07G08G09G11G13G17G27G28G30
 116204176.081 8  90548710.88347  22112914.840
  22112912.560          47.300          43.950
 106368138.416 9  82884252.81949  20241177.680
  20241171.280          50.550          50.100
 114656240.074 9  89342571.17748  21818338.540
  21818335.120          49.650          47.800
 132145811.906 4 102970741.4325   25146512.100
  25146506.840          35.500          22.500
 109740904.613 9  85512397.05848  20882991.520
  20882984.760          50.800          48.200
 125066527.063 7  97454421.13144  23799366.960
  23799360.300          44.750          34.350
 126673161.782 8  98706320.68446  24105097.160
  24105092.180          45.850          41.250
 128344588.923 7 100008813.95446  24423142.540
  24423138.940          43.200          41.400
 117606032.948 8  91641050.56547  22379675.800
  22379668.660          48.450          42.250
 107401759.449 9  83689693.47949  20437864.600
  20437860.360          51.750          50.750
 16  2 13  2 43  0.0000000  0 10G01G07G08G09G11G13G17G27G28G30
 116123388.947 8  90485759.90647  22097541.400
  22097539.020          47.150          43.850
 106404757.343 9  82912787.04549  20248146.040
  20248139.540          50.550          50.500
 114731862.434 9  89401497.67848  21832729.000
  21832725.600          50.000          47.400
 132246521.001 6 103049216.09044  25165677.160
  25165674.720          39.600          35.500
 109702483.317 9  85482458.39249  20875680.120
  20875673.460          50.750          49.000
 125027222.427 8  97423794.16845  23791887.460
  23791880.980          45.300          37.300
 126578983.895 8  98632935.37547  24087176.060
  24087170.980          46.600          42.250
 128448342.147 7 100089660.66145  24442886.360
  24442882.420          42.100          38.500
 117549733.465 8  91597180.85247  22368962.260
  22368955.380          48.100          43.250
 107375626.536 9  83669330.17049  20432891.700
  20432887.440          51.850          51.600
 16  2 13  2 43 30.0000000  0 10G01G07G08G09G11G13G17G27G28G30
 116042999.858 8  90423119.07647  22082243.860
  22082241.340          47.800          43.900
 106441930.694 9  82941753.29349  20255219.900
  20255213.320          50.650          50.250
 114807744.373 9  89460626.41948  21847168.900
  21847165.600          49.700          48.300
 132347125.930 7 103127609.52144  25184822.040
  25184819.640          42.100          33.550
 109664653.307 9  85452980.45648  20868481.320
  20868474.660          50.900          48.650
 124988486.071 8  97393609.98945  23784516.360
  23784509.800          45.300          36.000
 126484989.701 8  98559693.22147  24069289.580
  24069284.600          45.850          42.000
 128552130.256 6 100170534.45746  24462636.680
  24462632.720          41.600          40.400
 117493537.634 8  91553391.89147  22358268.480
  22358261.640          48.300          42.500
 107350015.844 9  83649373.79049  20428018.100
  20428013.900          51.850          51.100
 16  2 13  2 44  0.0000000  0 10G01G07G08G09G11G13G17G27G28G30
 115963010.929 8  90360790.04747  22067022.540
  22067019.980          47.600          43.650
 106479657.095 9  82971150.48549  20262398.960
  20262392.380          50.550          50.200
 114883883.129 9  89519955.34948  21861657.780
  21861654.400          49.700          47.950
 132447623.409 7 103205919.24944  25203945.880
  25203943.380          43.050          33.800
 109627415.288 9  85423963.82248  20861395.220
  20861388.460          50.850          48.600
 124950318.236 7  97363868.82144  23777253.380
  23777246.740          44.950          35.950
 126391179.427 7  98486594.34946  24051437.660
  24051432.820          44.500          39.650
 128655951.004 6 100251433.71846  24482392.400
  24482389.160          39.850          39.100
 117437444.984 8  91509683.35147  22347594.420
  22347587.520          48.800          42.200
 107324928.074 9  83629824.87349  20423244.080
  20423239.920          51.900          51.350
 16  2 13  2 44 30.0000000  0 10G01G07G08G09G11G13G17G27G28G30
 115883422.477 8  90298773.09947  22051877.380
  22051875.000          47.750          43.650
 106517933.145 9  83000975.97449  20269682.660
  20269675.980          50.750          49.950
 114960274.032 9  89579480.69748  21876194.400
  21876191.060          49.950          46.650
 132548008.042 7 103284140.98644  25223048.300
  25223045.780          42.400          35.100
 109590767.834 9  85395407.37348  20854421.460
  20854414.560          51.050          48.600
 124912717.375 8  97334569.46045  23770098.240
  23770091.540          45.000          37.650
 126297551.264 8  98413637.39945  24033620.320
  24033615.600          45.300          38.300
 128759799.599 6 100332354.68945  24502154.060
  24502150.880          41.300          38.000
 117381452.959 9  91466053.20446  22336939.540
  22336932.480          49.100          41.750
 107300361.923 9  83610682.41249  20418569.300
  20418565.120          52.000          51.250
 16  2 13  2 45  0.0000000  0 10G01G07G08G09G11G13G17G27G28G30
 115804239.421 8  90237072.03347  22036809.220
  22036806.940          47.750          43.750
 106556760.618 9  83031231.14449  20277071.340
  20277064.680          50.550          50.000
 115036916.680 9  89639202.23548  21890779.040
  21890775.720          49.800          47.750
 132648279.343 6 103362274.48745  25242129.100
  25242126.260          41.600          38.600
 109554714.195 9  85367313.64248  20847560.660
  20847553.740          50.900          48.650
 124875686.646 8  97305714.36144  23763051.640
  23763044.760          45.650          35.900
 126204109.066 8  98340825.33345  24015839.000
  24015833.640          46.150          37.650
 128863676.374 6 100413297.59045  24521921.120
  24521917.780          41.850          38.650
 117325563.705 8  91422503.14247  22326304.200
  22326297.080          48.800          42.100
 107276320.785 9  83591949.06049  20413994.480
  20413990.200          51.950          51.050
 16  2 13  2 45 30.0000000  0 10G01G07G08G09G11G13G17G27G28G30
 115725462.737 8  90175687.64347  22021818.460
  22021816.080          47.550          44.750
 106596136.946 9  83061913.99649  20284564.440
  20284557.860          50.600          50.200
 115113806.657 9  89699116.51948  21905410.760
  21905407.400          49.700          46.900
 132748432.922 5 103440316.20444  25261187.320
  25261185.020          36.650          34.350
 109519253.872 9  85339682.22648  20840812.760
  20840805.880          50.850          48.750
 124839225.239 7  97277302.88145  23756113.280
  23756106.240          44.250          36.700
 126110851.431 8  98268157.02145  23998092.940
  23998087.020          45.550          38.400
 128967577.821 6 100494259.79146  24541692.880
  24541689.400          41.000          40.400
 117269775.578 8  91379031.87847  22315688.080
  22315680.940          48.700          42.900
 107252804.170 9  83573624.42949  20409519.440
  20409515.160          51.900          51.300
 16  2 13  2 46  0.0000000  0 10G01G07G08G09G11G13G17G27G28G30
 115647098.135 8  90114624.35747  22006906.140
  22006903.780          48.100          44.050
 106636064.348 9  83093026.25249  20292162.400
  20292155.860          50.800          49.800
 115190945.459 9  89759224.67048  21920089.740
  21920086.360          49.850          46.300
 132848468.760 4 103518266.17543  25280223.340
  25280221.100          32.100          31.350
 109484390.866 9  85312516.25148  20834178.500
  20834171.640          51.050          48.700
 124803336.831 7  97249337.88845  23749283.200
  23749276.860          44.200          36.750
 126017782.517 8  98195635.84146  23980382.500
  23980376.780          45.400          39.000
 129071504.716 7 100575241.80345  24561469.860
  24561466.320          42.000          36.400
 117214091.422 9  91335641.62747  22305091.800
  22305084.720          49.250          42.400
 107229816.249 9  83555711.75749  20405144.980
  20405140.740          52.000          51.300
 16  2 13  2 46 30.0000000  0  9G01G07G08G11G13G17G27G28G30
 115569145.304 8  90053881.93347  21992072.240
  21992069.980          47.900          44.900
 106676538.886 9  83124564.84749  20299864.520
  20299857.880          50.600          49.950
 115268327.341 9  89819522.22848  21934814.860
  21934811.540          49.300          46.950
 109450123.279 9  85285814.23548  20827657.600
  20827650.640          50.900          48.300
 124768019.348 7  97221817.79245  23742562.340
  23742556.400          44.400          38.000
 125924900.054 8  98123259.94147  23962707.640
  23962702.260          46.100          42.300
 129175452.347 6 100656239.93746  24581250.560
  24581247.240          40.750          40.500
 117158508.484 8  91292330.25346  22294514.860
  22294507.600          48.950          41.800
 107207355.179 9  83538209.62249  20400870.780
  20400866.520          51.750          50.750
 16  2 13  2 47  0.0000000  0 10G01G07G08G09G11G13G17G27G28G30
 115491608.028 8  89993463.34847  21977317.360
  21977315.160          47.950          44.350
 106717560.667 9  83156529.87749  20307670.760
  20307664.100          50.650          49.750
 115345950.802 9  89880008.03048  21949586.100
  21949582.740          49.400          47.200
 133048163.915 5 103673894.37344  25318225.920
  25318226.420          38.300          34.150
 109416453.513 9  85259578.06248  20821250.560
  20821243.420          51.050          48.450
 124733274.803 7  97194744.12144  23735950.660
  23735944.840          44.650          35.850
 125832206.441 8  98051031.21947  23945068.760
  23945063.260          46.700          42.700
 129279419.774 6 100737253.52246  24601034.660
  24601031.360          41.650          39.700
 117103027.740 9  91249098.51446  22283957.260
  22283949.920          49.150          41.600
 107185423.131 9  83521119.72349  20396697.280
  20396693.020          51.850          50.950
 16  2 13  2 47 30.0000000  0 10G01G07G08G09G11G13G17G27G28G30
 115414491.386 8  89933372.50747  21962642.460
  21962640.300          48.000          44.100
 106759131.514 9  83188922.73449  20315581.420
  20315574.780          50.600          50.200
 115423816.478 9  89940682.56648  21964403.440
  21964400.120          50.050          46.700
 133147825.991 5 103751553.19543  25337190.700
  25337189.220          36.850          30.800
 109383384.909 9  85233810.31748  20814957.820
  20814950.680          51.100          48.900
 124699106.274 7  97168119.32345  23729448.660
  23729443.240          44.850          37.850
 125739705.005 8  97978952.23946  23927466.380
  23927461.140          46.600          41.500
 129383407.729 6 100818283.06544  24620822.680
  24620819.940          39.850          35.700
 117047651.535 9  91205948.23947  22273419.460
  22273412.320          49.000          42.950
 107164023.762 9  83504444.88849  20392625.140
  20392620.920          52.000          51.450
 16  2 13  2 48  0.0000000  0 10G01G07G08G09G11G13G17G27G28G30
 115337796.377 8  89873610.19947  21948047.920
  21948045.520          48.150          43.950
 106801248.926 9  83221741.49349  20323596.040
  20323589.420          50.550          49.800
 115501920.050 9  90001542.50448  21979266.140
  21979262.800          49.250          47.650
 133247363.263 6 103829113.69042  25356131.220
  25356126.260          39.300          26.750
 109350916.983 9  85208510.63448  20808779.400
  20808772.280          51.050          48.600
 124665513.023 7  97141942.79745  23723056.280
  23723050.540          44.300          36.800
 125647395.141 8  97907022.52546  23909900.260
  23909895.280          46.000          41.300
 129487412.351 7 100899325.59946  24640614.160
  24640611.520          42.100          40.400
 116992378.118 8  91162878.05247  22262901.040
  22262894.220          48.600          43.000
 107143156.484 9  83488184.67149  20388654.260
  20388650.020          51.800          51.150
 16  2 13  2 48 30.0000000  0 10G01G07G08G09G11G13G17G27G28G30
 115261524.545 8  89814177.64247  21933533.900
  21933531.260          48.050          44.000
 106843910.856 9  83254984.54749  20331714.220
  20331707.660          50.450          49.900
 115580258.177 9  90062585.19148  21994173.420
  21994170.100          49.800          47.000
 133346762.041 6 103906550.48642  25375047.060
  25375045.680          39.450          26.650
 109319048.892 9  85183678.35649  20802715.200
  20802707.940          51.150          49.050
 124632494.679 7  97116214.21145  23716773.080
  23716767.500          44.800          36.200
 125555276.566 8  97835241.89446  23892370.200
  23892365.720          45.800          40.550
 129591430.860 6 100980378.96046  24660408.480
  24660405.540          41.350          39.400
 116937206.636 8  91119887.29547  22252402.040
  22252395.460          48.900          43.100
 107122821.317 9  83472339.08549  20384784.620
  20384780.340          51.900          51.500
 16  2 13  2 49  0.0000000  0 10G01G07G08G09G11G13G17G27G28G30
 115185683.671 8  89755080.89047  21919101.760
  21919099.140          48.050          44.550
 106887121.381 9  83288655.08649  20339936.880
  20339930.280          50.600          49.700
 115658833.567 9  90123812.74348  22009125.860
  22009122.540          49.550          47.750
 133446029.661 7 103983901.9934   25393936.780
  25393934.440          42.750          22.000
 109287786.894 9  85159318.36548  20796766.300
  20796758.920          51.000          48.500
 124600056.898 7  97090938.02645  23710600.440
  23710594.580          44.850          37.200
 125463354.892 8  97763614.63045  23874877.720
  23874873.240          45.450          38.200
 129695466.452 6 101061445.64545  24680205.960
  24680202.540          40.750          36.950
 116882142.191 8  91076979.94947  22241923.500
  22241916.980          48.350          42.050
 107103024.424 9  83456912.94149  20381017.380
  20381013.120          51.650          50.900
 16  2 13  2 49 30.0000000  0 10G01G07G08G09G11G13G17G27G28G30
 115110270.775 8  89696317.60647  21904751.080
  21904748.580          48.300          43.700
 106930873.543 9  83322747.67449  20348262.700
  20348256.000          50.650          49.300
 115737638.207 9  90185218.95848  22024121.920
  22024118.720          49.450          47.150
 133545157.922 6 104061144.79743  25412800.300
  25412798.260          40.800          30.900
 109257126.741 9  85135427.33748  20790931.840
  20790924.500          50.950          48.750
 124568195.263 7  97066110.78945  23704537.480
  23704531.500          44.700          36.250
 125371625.791 8  97692137.42945  23857422.220
  23857417.020          46.500          37.300
 129799511.654 7 101142519.84645  24700005.480
  24700001.380          42.600          38.050
 116827179.176 8  91034151.63247  22231464.400
  22231457.720          48.650          42.400
 107083761.314 9  83441902.72549  20377351.660
  20377347.440          51.700          50.950
 16  2 13  2 50  0.0000000  0 10G01G07G08G09G11G13G17G27G28G30
 115035291.931 8  89637892.53348  21890483.080
  21890480.580          48.050          45.100
 106975170.709 9  83357264.93049  20356692.300
  20356685.420          50.750          49.650
 115816673.492 9  90246804.87948  22039161.900
  22039158.580          49.600          46.750
 133644147.546 5 104138279.56444  25431637.260
  25431635.280          36.850          33.050
 109227072.534 9  85112008.46649  20785212.660
  20785205.420          51.050          49.050
 124536913.351 7  97041735.25845  23698584.640
  23698578.440          44.650          38.050
 125280093.801 8  97620813.79946  23840004.860
  23839998.700          47.000          39.600
 129903568.127 6 101223602.72945  24719806.960
  24719802.140          41.350          36.650
 116772321.025 8  90991405.02547  22221025.260
  22221018.640          48.950          43.650
 107065036.474 9  83427311.92649  20373788.460
  20373784.220          51.900          51.350
 16  2 13  2 50 30.0000000  0 10G01G07G08G09G11G13G17G27G28G30
 114960750.808 8  89579808.56647  21876298.420
  21876295.840          48.750          44.400
 107020012.736 9  83392206.77549  20365225.540
  20365218.620          50.800          49.600
 115895938.510 9  90308569.82148  22054245.440
  22054242.040          49.600          46.300
 133742996.894 5 104215304.94644  25450447.480
  25450445.520          38.800          33.750
 109197626.226 9  85089063.30849  20779609.220
  20779602.000          51.200          49.000
 124506212.782 8  97017812.76245  23692742.680
  23692736.440          45.100          36.600
 125188760.639 8  97549645.15646  23822624.980
  23822618.840          47.100          40.950
 130007635.068 6 101304693.93445  24739610.260
  24739605.440          40.700          36.900
 116717568.892 9  90948741.04647  22210606.380
  22210599.760          49.350          43.650
 107046851.976 9  83413142.19849  20370328.020
  20370323.860          51.900          51.100
 16  2 13  2 51  0.0000000  0 10G01G07G08G09G11G13G17G27G28G30
 114886648.744 8  89522066.74147  21862197.240
  21862194.740          48.500          44.850
 107065397.209 9  83427571.29349  20373861.960
  20373855.060          50.700          49.350
 115975429.117 9  90370510.54548  22069371.860
  22069368.540          49.300          46.650
 133841701.847 5 104292218.01344  25469230.160
  25469228.120          36.300          32.500
 109168787.178 9  85066591.33448  20774121.300
  20774114.200          51.100          48.850
 124476092.958 7  96994342.77545  23687011.180
  23687004.860          44.800          37.050
 125097625.775 8  97478631.01547  23805282.440
  23805276.740          46.950          42.200
 130111709.175 5 101385646.61145  24759414.800
  24759410.680          38.750          36.650
 116662921.481 9  90906158.64647  22200207.600
  22200200.840          49.350          43.000
 107029207.543 9  83399393.29149  20366970.360
  20366966.260          51.700          50.850
 16  2 13  2 51 30.0000000  0  9G01G07G08G11G13G17G27G28G30
 114812989.613 8  89464670.04848  21848180.420
  21848177.940          48.650          45.500
 107111324.419 9  83463358.72849  20382601.660
  20382594.740          50.650          49.550
 116055144.516 9  90432626.41648  22084541.320
  22084537.960          49.550          47.050
 109140557.705 9  85044594.35949  20768749.320
  20768742.340          51.100          49.000
 124446556.048 7  96971327.02445  23681390.480
  23681384.260          44.650          38.250
 125006691.934 8  97407773.54047  23787978.320
  23787973.000          46.800          42.250
 130215790.103 7 101466748.67746  24779220.500
  24779216.480          42.200          39.600
 116608379.901 9  90863658.72847  22189828.820
  22189821.880          49.300          43.500
 107012105.495 9  83386067.02649  20363715.880
  20363711.840          51.800          51.100
 16  2 13  2 52  0.0000000  0 10G01G07G08G09G11G13G17G27G28G30
 114739775.760 8  89407620.33048  21834248.360
  21834245.820          48.950          45.550
 107157792.879 9  83499567.89749  20391444.340
  20391437.460          50.750          49.850
 116135082.250 8  90494915.52447  22099752.920
  22099749.720          48.550          44.800
 134038677.726 4 104445713.51444  25506710.340
  25506709.040          33.200          32.800
 109112938.248 9  85023072.70849  20763493.440
  20763486.560          50.850          49.150
 124417602.518 8  96948765.85845  23675880.780
  23675874.800          45.600          37.000
 124915959.414 8  97337072.93146  23770712.480
  23770707.680          46.050          40.800
 130319875.786 7 101547854.42544  24799027.280
  24799022.980          42.300          35.300
 116553944.413 9  90821241.47347  22179470.000
  22179462.940          49.200          43.150
 106995546.621 9  83373163.99949  20360564.800
  20360560.800          51.850          51.600
 16  2 13  2 52 30.0000000  0 10G01G07G08G09G11G13G17G27G28G30
 114667004.019 8  89350915.08748  21820400.360
  21820397.800          48.350          45.600
 107204796.069 9  83536193.75149  20400388.700
  20400381.960          50.550          49.650
 116215234.431 9  90557371.83547  22115005.360
  22115001.880          49.400          44.700
 134136935.191 5 104522279.33744  25525409.920
  25525407.180          37.550          35.050
 109085923.708 9  85002022.42549  20758352.620
  20758345.860          50.700          49.300
 124389227.030 7  96926655.09845  23670481.020
  23670475.020          44.850          37.200
 124825423.419 8  97266525.44946  23753483.960
  23753479.340          46.150          41.300
 130423958.721 6 101628958.02145  24818833.840
  24818829.680          41.950          36.450
 116499609.419 8  90778902.52147  22169130.240
  22169123.120          48.800          43.900
 106979526.122 9  83360680.49149  20357516.200
  20357512.160          51.700          51.300
 16  2 13  2 53  0.0000000  0 10G01G07G08G09G11G13G17G27G28G30
 114594688.645 8  89294565.47247  21806639.080
  21806636.560          48.400          44.950
 107252344.557 9  83573244.51549  20409436.660
  20409430.220          50.200          49.450
 116295610.595 9  90620002.61248  22130300.540
  22130297.000          49.300          46.550
 134235041.877 6 104598726.07444  25544078.180
  25544075.520          41.100          33.850
 109059526.995 9  84981453.57049  20753329.380
  20753322.700          50.950          49.000
 124361441.731 8  96905004.22645  23665193.580
  23665187.360          45.150          36.600
 124735096.419 8  97196140.85846  23736294.840
  23736290.520          46.200          40.700
 130528048.764 5 101710067.09645  24838641.420
  24838637.160          38.850          37.700
 116445386.432 9  90736650.85847  22158811.900
  22158804.700          49.050          43.250
 106964056.682 9  83348626.38749  20354572.460
  20354568.460          51.750          51.000
 16  2 13  2 53 30.0000000  0  9G01G07G08G09G11G13G17G28G30
 114522825.949 8  89238568.59848  21792963.940
  21792961.440          48.350          45.050
 107300430.880 9  83610714.35449  20418587.000
  20418580.720          50.150          49.450
 116376201.843 9  90682800.93848  22145636.520
  22145633.240          49.200          46.950
 134332992.238 6 104675050.97844  25562717.400
  25562714.580          40.100          35.100
 109033742.496 9  84961361.76549  20748422.720
  20748416.080          50.700          49.000
 124334241.045 7  96883808.88245  23660017.460
  23660011.160          43.800          36.400
 124644973.294 8  97125915.02846  23719144.760
  23719139.700          45.550          39.700
 116391269.267 8  90694481.65147  22148513.780
  22148506.620          48.850          42.850
 106949132.947 9  83336997.50649  20351732.600
  20351728.600          51.350          50.800
 16  2 13  2 54  0.0000000  0 10G01G07G08G09G11G13G17G27G28G30
 114451415.106 8  89182923.80048  21779374.860
  21779372.260          48.150          45.250
 107349050.581 9  83648599.81149  20427838.940
  20427832.700          50.250          49.100
 116457002.950 8  90745762.84648  22161012.500
  22161009.340          48.800          46.850
 134430780.277 7 104751249.5954   25581326.040
  25581323.040          42.250          24.950
 109008567.358 9  84941744.77849  20743632.020
  20743625.420          50.750          49.150
 124307621.954 7  96863066.76044  23654951.880
  23654945.560          44.400          35.300
 124555051.587 8  97055846.20446  23702033.320
  23702027.820          46.400          39.850
 130736114.337 5 101872278.38144  24878254.960
  24878251.900          36.450          32.800
 116337254.683 9  90652392.36747  22138235.160
  22138228.080          49.100          43.250
 106934752.563 9  83325792.00649  20348996.120
  20348992.100          51.500          50.850
 16  2 13  2 54 30.0000000  0 10G01G07G08G09G11G13G17G27G28G30
 114380465.593 8  89127638.47748  21765873.620
  21765870.940          48.850          45.600
 107398209.683 9  83686905.59849  20437193.620
  20437187.340          50.450          49.000
 116538018.376 8  90808891.75248  22176429.220
  22176426.140          48.900          46.100
 134528410.388 6 104827325.13143  25599904.560
  25599901.840          41.750          29.300
 108984009.392 9  84922608.71449  20738958.780
  20738952.200          50.900          49.150
 124281591.775 7  96842783.50844  23649998.440
  23649991.880          44.600          34.600
 124465338.927 8  96985940.27246  23684961.900
  23684956.240          47.200          39.800
 130840196.812 7 101953381.45944  24898060.940
  24898057.940          42.550          35.050
 116283349.638 9  90610388.45747  22127977.320
  22127970.340          49.350          43.850
 106920923.333 9  83315015.98249  20346364.500
  20346360.460          51.700          51.150
 16  2 13  2 55  0.0000000  0 11G01G07G08G09G11G13G17G19G27G28G30
 114309977.663 8  89072712.83448  21752460.280
  21752457.580          48.850          45.400
 107447904.738 9  83725629.00749  20446650.380
  20446643.860          50.550          49.150
 116619244.128 9  90872184.53848  22191885.980
  22191882.740          49.050          46.450
 134625877.764 6 104903273.77143  25618451.820
  25618448.800          39.450          29.450
 108960066.683 9  84903952.06849  20734402.660
  20734396.020          51.050          49.250
 124256148.821 7  96822957.81345  23645156.660
  23645150.240          44.550          36.900
 124375833.691 8  96916195.96346  23667929.520
  23667924.020          46.300          40.350
                                  25756987.700
                        37.350
 130944274.439 6 102034475.06245  24917866.380
  24917862.840          41.550          36.300
 116229552.261 9  90568468.42347  22117740.040
  22117732.980          49.200          43.950
 106907643.913 9  83304668.38149  20343837.480
  20343833.540          51.650          51.050
 16  2 13  2 55 30.0000000  0 11G01G07G08G09G11G13G17G19G27G28G30
 114239955.356 8  89018150.00848  21739135.540
  21739132.840          48.950          46.050
 107498135.908 9  83764770.15349  20456209.240
  20456202.500          50.500          49.450
 116700679.229 8  90935640.45148  22207382.600
  22207379.260          48.950          46.700
 134723181.536 4 104979090.02242  25636967.960
  25636965.840          34.950          27.400
 108936741.733 9  84885776.79049  20729964.080
  20729957.360          50.950          49.650
 124231295.105 7  96803591.30145  23640427.000
  23640421.060          44.050          36.650
 124286538.594 8  96846615.40147  23650936.800
  23650931.620          46.050          42.100
 135240782.615 5 105382391.16743  25735466.400
  25735459.680          38.500          30.650
 131048347.101 7 102115576.76244  24937671.160
  24937666.780          42.900          35.300
 116175864.010 9  90526633.43047  22107523.520
  22107516.360          49.150          44.150
 106894916.672 9  83294751.05049  20341415.560
  20341411.620          51.400          51.300
 16  2 13  2 56  0.0000000  0 11G01G07G08G09G11G13G17G19G27G28G30
 114170394.105 8  88963946.46448  21725898.580
  21725895.840          48.850          46.250
 107548894.998 9  83804322.67649  20465868.580
  20465861.700          50.600          49.450
 116782314.415 8  90999252.26248  22222917.400
  22222914.020          48.950          46.800
 134820312.138 5 105054792.10243  25655451.480
  25655462.380          37.100          28.350
 108914027.919 9  84868077.73749  20725641.820
  20725635.040          50.900          49.350
 124207023.951 7  96784678.76545  23635808.200
  23635802.600          44.700          36.550
 124197447.193 8  96777193.58747  23633982.980
  23633978.160          46.200          43.200
 135127735.822 6 105294302.72643  25713954.380
  25713943.940          39.300          30.800
 131152406.078 6 102196661.64945  24957472.940
  24957468.740          40.650          36.600
 116122278.040 9  90484878.14547  22097326.500
  22097319.260          49.050          43.850
 106882735.468 9  83285259.21149  20339097.500
  20339093.620          51.400          51.050
 16  2 13  2 56 30.0000000  0 11G01G07G08G09G11G13G17G19G27G28G30
 114101303.140 8  88910109.36248  21712751.000
  21712748.340          48.500          45.650
 107600187.609 9  83844290.90249  20475629.380
  20475622.440          50.650          49.250
 116864154.107 8  91063023.46148  22238491.100
  22238487.460          48.800          45.850
 134917273.740 5 105130354.72644  25673902.800
  25673905.960          37.250          32.100
 108891932.794 9  84850860.76449  20721437.300
  20721430.480          50.950          49.050
 124183342.433 7  96766225.63945  23631301.880
  23631296.460          44.550          36.300
 124108567.493 8  96707936.73147  23617069.900
  23617065.420          46.950          42.850
 135014757.935 4 105206268.0464   25692454.640
  25692444.020          35.750          23.250
 131256456.343 6 102277739.79945  24977273.240
  24977269.640          39.200          38.000
 116068801.352 9  90443207.99647  22087150.200
  22087143.000          49.200          43.400
 106871107.904 9  83276198.76949  20336884.820
  20336880.960          51.450          50.900
 16  2 13  2 57  0.0000000  0 10G01G07G08G09G11G13G17G27G28G30
 114032690.391 8  88856644.90148  21699694.320
  21699691.720          48.700          45.650
 107652018.313 9  83884678.43849  20485492.440
  20485485.620          50.350          49.550
 116946201.641 8  91126956.58448  22254104.160
  22254100.560          48.750          46.200
 135014069.418 5 105205779.93743  25692322.200
  25692323.940          37.000          31.400
 108870462.311 9  84834130.52449  20717351.620
  20717344.820          50.950          49.300
 124160256.608 7  96748236.68644  23626908.780
  23626903.060          44.450          35.900
 124019906.424 8  96638850.21947  23600198.460
  23600194.060          47.350          42.950
 131360501.778 4 102358814.13044  24997072.300
  24997068.820          35.250          35.250
 116015439.422 9  90401627.27847  22076995.680
  22076988.640          49.150          43.950
 106860040.250 9  83267574.61749  20334778.660
  20334774.840          51.400          50.750
 16  2 13  2 57 30.0000000  0  9G01G07G08G11G13G17G27G28G30
 113964540.324 8  88803540.95748  21686725.620
  21686723.100          48.300          45.450
 107704367.455 9  83925469.92949  20495454.040
  20495447.500          50.300          49.200
 117028436.737 8  91191035.88148  22269752.880
  22269749.440          48.400          45.200
 108849599.185 9  84817873.55149  20713381.560
  20713374.720          51.050          49.150
 124137748.637 7  96730698.02744  23622625.820
  23622619.840          44.600          35.550
 123931445.424 8  96569919.61346  23583365.100
  23583360.240          47.050          40.900
 131464522.793 6 102439869.41346  25016866.720
  25016863.020          41.400          40.000
 115962174.606 9  90360122.24747  22066859.740
  22066852.640          49.600          44.050
 106849515.378 9  83259373.41849  20332775.860
  20332772.020          51.600          51.000
 16  2 13  2 58  0.0000000  0 10G01G07G08G11G13G17G19G27G28G30
 113896873.723 8  88750813.74048  21673848.920
  21673846.520          48.750          45.600
 107757252.256 9  83966678.82949  20505517.540
  20505511.320          50.450          49.150
 117110875.647 8  91255273.97948  22285440.440
  22285436.960          48.650          45.250
 108829361.983 9  84802104.31949  20709530.620
  20709523.700          51.250          49.200
 124115837.173 7  96713624.13944  23618456.160
  23618450.040          44.600          34.550
 123843204.227 8  96501160.27946  23566573.340
  23566567.780          46.900          40.450
 134676243.706 4 104942506.62443  25628037.880
  25628032.240          35.650          28.800
 131568535.781 5 102520918.46845  25036659.720
  25036655.960          38.200          37.200
 115909025.043 9  90318707.00547  22056745.720
  22056738.600          49.400          43.550
 106839552.327 9  83251610.00249  20330880.000
  20330876.140          51.600          50.800
 16  2 13  2 58 30.0000000  0 10G01G07G08G11G13G17G19G27G28G30
 113829689.671 8  88698462.55148  21661064.100
  21661061.780          48.600          45.200
 107810668.165 9  84008301.55848  20515682.140
  20515676.080          50.350          48.850
 117193513.113 8  91319666.81447  22301165.660
  22301162.400          47.800          44.950
 108809748.141 9  84786820.81849  20705798.240
  20705791.320          51.150          49.150
 124094519.162 7  96697012.71444  23614399.540
  23614393.260          44.900          34.650
 123755180.499 8  96432570.39646  23549823.060
  23549817.400          47.450          39.600
 134563553.871 3 104854704.02744  25606592.820
  25606590.040          31.850          32.400
 131672535.960 6 102601957.52345  25056450.260
  25056446.220          41.800          36.250
 115855987.857 9  90277379.33647  22046653.040
  22046645.900          49.400          44.250
 106830148.610 9  83244282.43049  20329090.560
  20329086.700          51.650          50.950
 16  2 13  2 59  0.0000000  0 10G01G07G08G09G11G13G17G27G28G30
 113762985.527 8  88646485.33548  21648370.700
  21648368.340          48.750          45.900
 107864608.337 9  84050332.80649  20525946.660
  20525940.620          50.500          49.250
 117276341.882 8  91384208.69948  22316927.360
  22316924.180          47.400          45.750
 135399452.245 4 105506033.22953  25765659.260
  25765650.900          35.350          30.500
 108790753.006 9  84772019.43049  20702183.600
  20702176.600          51.050          49.300
 124073789.642 7  96680859.84644  23610454.940
  23610448.580          44.600          34.250
 123667369.836 8  96364146.51346  23533113.460
  23533107.900          47.600          41.850
 131776516.456 7 102682981.31545  25076237.180
  25076233.240          42.800          37.000
 115803057.847 9  90236135.18047  22036580.680
  22036573.780          49.250          44.050
 106821299.813 9  83237387.26349  20327406.680
  20327402.820          51.500          50.850
 16  2 13  2 59 30.0000000  0  9G01G07G08G11G13G17G27G28G30
 113696766.310 8  88594885.98048  21635769.680
  21635767.260          48.950          46.050
 107919074.657 9  84092774.03749  20536311.340
  20536305.220          50.400          49.000
 117359362.275 8  91448899.89247  22332725.720
  22332722.560          48.150          44.650
 108772379.295 9  84757702.25749  20698687.180
  20698680.100          51.000          49.250
 124053651.834 8  96665168.06345  23606623.160
  23606616.580          45.100          36.550
 123579775.581 8  96295891.29146  23516444.640
  23516438.800          46.250          40.750
 131880478.525 7 102763990.67043  25096020.500
  25096016.540          44.150          31.050
 115750237.814 9  90194976.69947  22026529.380
  22026522.480          49.450          44.500
 106813009.414 9  83230927.20649  20325829.100
  20325825.120          51.700          51.100
                            4  1
RINEX FILE SPLICE; other post-header comments skipped       COMMENT
 16  2 13  3  0  0.0000000  0  9G01G07G08G11G13G17G27G28G30
 113631033.923 9  88543665.96048  21623261.380
  21623258.860          49.250          46.400
 107974065.345 9  84135623.88749  20546775.820
  20546769.560          50.450          49.000
 117442571.802 8  91513738.45647  22348560.040
  22348556.960          48.450          44.650
 108754627.104 9  84743869.39649  20695309.040
  20695301.880          50.850          49.200
 124034105.162 8  96649936.89545  23602903.740
  23602896.960          45.250          37.050
 123492398.570 8  96227805.34646  23499817.280
  23499811.720          46.700          41.200
 131984419.885 5 102844983.95444  25115799.740
  25115796.340          36.450          35.650
 115697527.759 9  90153903.94747  22016499.040
  22016492.040          49.950          44.950
 106805277.643 9  83224902.45249  20324357.800
  20324353.740          51.800          51.400
 16  2 13  3  0 30.0000000  0  9G01G07G08G11G13G17G27G28G30
 113565791.832 9  88492827.98648  21610846.340
  21610843.660          49.450          46.100
 108029579.905 9  84178881.95748  20557339.980
  20557333.500          50.600          48.950
 117525969.138 8  91578723.36048  22364430.200
  22364426.920          48.000          45.000
 108737498.440 9  84730522.39449  20692049.520
  20692042.360          50.950          49.250
 124015151.019 7  96635167.44344  23599296.860
  23599290.360          44.900          35.800
 123405240.391 8  96159889.91747  23483231.780
  23483226.480          47.250          43.200
 132088340.006 6 102925960.64344  25135575.140
  25135570.900          40.350          35.050
 115644928.985 9  90112917.90347  22006489.820
  22006482.740          49.950          44.800
 106798106.265 9  83219314.35849  20322993.140
  20322989.100          51.750          51.300
 16  2 13  3  1  0.0000000  0 10G01G07G08G11G13G17G19G27G28G30
 113501041.251 9  88442373.00848  21598524.680
  21598521.960          49.350          46.900
 108085616.009 9  84222546.41048  20568003.340
  20567996.680          50.450          48.900
 117609551.268 8  91643852.29548  22380335.380
  22380332.040          48.400          46.350
 108720991.937 9  84717660.19748  20688908.460
  20688901.280          50.650          48.700
 123996788.306 8  96620858.83445  23595802.400
  23595795.980          45.250          36.400
 123318300.950 8  96092144.95147  23466687.780
  23466682.760          46.600          42.300
 134001251.545 5 104416532.42544  25499591.140
  25499584.220          36.350          32.100
 132192236.171 4 103006918.67044  25155345.960
  25155341.840          35.750          34.500
 115592440.519 9  90072017.79648  21996501.640
  21996494.480          49.950          45.300
 106791494.797 9  83214162.55749  20321735.020
  20321731.040          51.900          51.600
 16  2 13  3  1 30.0000000  0 10G01G07G08G11G13G17G19G27G28G30
 113436784.482 8  88392302.82348  21586296.940
  21586294.240          48.850          46.150
 108142172.006 9  84266615.99248  20578765.580
  20578758.880          50.050          48.000
 117693316.050 8  91709123.58047  22396275.320
  22396271.860          47.950          43.600
 108705108.372 9  84705283.40149  20685885.880
  20685878.760          51.000          49.550
 123979017.560 7  96607011.48944  23592420.600
  23592414.020          44.300          35.550
 123231580.429 8  96024570.59147  23450185.460
  23450180.480          47.100          42.950
 133889031.797 5 104329088.47343  25478238.160
  25478230.380          37.100          31.750
 132296107.048 6 103087857.17244  25175111.940
  25175108.000          40.500          32.000
 115540062.240 9  90031203.56547  21986534.320
  21986527.200          49.550          44.600
 106785443.947 9  83209447.61349  20320583.620
  20320579.600          51.650          51.050
 16  2 13  3  2  0.0000000  0 10G01G07G08G11G13G17G19G27G28G30
 113373029.627 8  88342623.75248  21574164.640
  21574162.120          48.900          46.150
 108199252.457 9  84311094.21848  20589627.500
  20589620.940          50.050          48.800
 117777267.134 8  91774540.01347  22412250.640
  22412247.040          47.350          44.550
 108689853.529 9  84693396.51949  20682982.960
  20682975.880          51.050          49.750
 123961844.409 7  96593629.83744  23589152.580
  23589145.620          44.250          35.600
 123145085.674 8  95957172.13247  23433725.900
  23433720.740          46.700          42.950
 133776900.454 5 104241713.37942  25456899.880
  25456891.380          37.000          26.600
 132399956.486 7 103168778.81445  25194873.800
  25194870.040          42.550          37.900
 115487800.502 9  89990480.13747  21976589.260
  21976582.140          49.600          44.600
 106779960.081 9  83205174.47349  20319540.100
  20319536.100          51.600          51.100
 16  2 13  3  2 30.0000000  0  9G01G07G08G11G13G17G27G28G30
 113309780.498 9  88293338.74348  21562128.620
  21562126.280          49.200          46.150
 108256857.409 9  84355981.14748  20600589.340
  20600583.040          50.250          48.850
 117861404.027 8  91840101.21247  22428261.280
  22428257.840          48.050          43.950
 108675229.296 9  84682001.02149  20680200.080
  20680193.080          51.100          49.650
 123945270.182 7  96580714.83744  23585998.440
  23585991.600          43.850          35.850
 123058819.057 8  95889951.43846  23417309.520
  23417304.660          46.800          41.800
 132503784.646 6 103249683.86844  25214631.640
  25214627.920          40.250          35.900
 115435656.727 9  89949848.62847  21966666.600
  21966659.580          49.700          44.800
 106775045.388 9  83201344.84049  20318604.840
  20318600.880          51.500          51.050
 16  2 13  3  3  0.0000000  0 10G01G07G08G11G13G17G19G27G28G30
 113247021.100 9  88244435.33448  21550185.920
  21550183.500          49.100          46.050
 108314967.105 9  84401261.37249  20611647.340
  20611641.180          50.450          49.100
 117945705.821 8  91905790.88747  22444303.180
  22444300.000          46.850          44.350
 108661217.840 9  84671083.00149  20677533.860
  20677526.760          51.100          49.650
 123929276.626 7  96568252.33844  23582954.620
  23582948.220          43.600          35.650
 122972762.995 8  95822894.79846  23400933.420
  23400928.040          46.550          40.150
 133552885.765 5 104067153.60441  25414274.100
  25414259.000          38.350          25.550
 132607571.484 5 103330556.67545  25234381.560
  25234378.200          38.650          38.000
 115383613.176 9  89909295.20147  21956763.080
  21956756.080          49.650          44.300
 106770682.147 9  83197944.90649  20317774.480
  20317770.540          51.300          51.000
 16  2 13  3  3 30.0000000  0 10G01G07G08G11G13G17G19G27G28G30
 113184765.756 9  88195924.69348  21538339.200
  21538336.560          49.350          46.450
 108373592.231 9  84446943.26248  20622803.520
  20622797.340          50.600          48.900
 118030182.844 8  91971617.13747  22460378.760
  22460375.460          47.750          44.300
 108647831.218 9  84660651.87749  20674986.500
  20674979.340          51.050          49.550
 123913876.130 7  96556251.98245  23580023.920
  23580017.940          44.350          37.750
 122886930.386 8  95756012.22046  23384600.100
  23384593.540          47.300          39.750
 133441007.959 6 103979956.04242  25392987.880
  25392971.680          39.750          27.900
 132711327.834 6 103411405.71844  25254125.820
  25254122.400          40.250          33.400
 115331681.759 9  89868829.16548  21946880.900
  21946873.900          50.000          45.450
 106766883.027 9  83194984.55549  20317051.500
  20317047.620          51.700          51.350
 16  2 13  3  4  0.0000000  0 10G01G07G08G11G13G17G19G27G28G30
 113123020.377 9  88147811.42348  21526589.660
  21526586.740          49.650          46.650
 108432734.839 9  84493028.38649  20634058.240
  20634051.920          50.650          49.000
 118114836.896 8  92037581.33147  22476488.040
  22476484.820          47.050          44.600
 108635073.466 9  84650710.76749  20672558.800
  20672551.560          51.150          49.450
 123899072.283 7  96544716.49445  23577206.860
  23577200.980          44.150          36.400
 122801325.571 8  95689307.16647  23368310.320
  23368303.700          47.800          42.000
 133329222.724 6 103892850.56443  25371717.580
  25371702.460          40.750          30.050
 132815055.353 6 103492232.36245  25273864.640
  25273860.720          40.600          36.750
 115279866.773 9  89828453.85747  21937020.820
  21937013.880          49.700          44.700
 106763652.182 9  83192467.01149  20316436.720
  20316432.800          51.550          50.800
 16  2 13  3  4 30.0000000  0 10G01G07G08G11G13G17G19G27G28G30
 113061792.892 9  88100101.73148  21514938.560
  21514935.600          49.750          46.950
 108492398.977 9  84539519.88948  20645412.120
  20645405.700          50.600          48.750
 118199671.280 8  92103686.02247  22492631.600
  22492628.300          47.200          44.400
 108622950.472 9  84641264.28749  20670251.820
  20670244.620          51.000          49.450
 123884870.789 7  96533650.39745  23574504.260
  23574498.420          43.750          36.050
 122715955.066 8  95622784.73147  23352065.120
  23352058.820          47.200          42.800
 133217537.135 5 103805822.92243  25350463.120
  25350450.880          37.500          31.200
 132918758.685 5 103573040.10344  25293598.260
  25293594.700          38.500          34.250
 115228173.896 9  89788173.70547  21927183.940
  21927177.020          49.550          44.250
 106760995.898 9  83190397.18149  20315931.320
  20315927.360          51.450          50.650
 16  2 13  3  5  0.0000000  0 10G01G07G08G11G13G17G19G27G28G30
 113001078.051 9  88052791.48648  21503384.860
  21503382.020          49.600          47.200
 108552575.985 9  84586411.03448  20656863.480
  20656856.960          50.650          48.600
 118284676.703 8  92169924.01347  22508807.640
  22508804.300          47.400          44.350
 108611454.937 9  84632306.72749  20668064.260
  20668057.080          51.350          49.400
 123871264.322 7  96523047.99044  23571915.020
  23571909.140          43.650          34.900
 122630812.238 8  95556439.72447  23335862.900
  23335857.140          47.100          43.150
 133105945.132 4 103718868.16443  25329224.920
  25329216.540          32.700          31.950
 133022428.548 6 103653821.91444  25313326.200
  25313322.480          40.050          33.850
 115176596.122 9  89747983.23647  21917369.020
  21917362.020          49.800          44.350
 106758907.210 9  83188769.63349  20315533.980
  20315529.900          51.700          50.800
 16  2 13  3  5 30.0000000  0  9G01G07G08G11G13G17G27G28G30
 112940884.744 9  88005887.63148  21491930.340
  21491927.680          49.600          46.950
 108613270.271 9  84633705.21548  20668413.020
  20668406.620          50.200          47.900
 118369857.417 8  92236298.60047  22525017.000
  22525013.560          46.850          43.900
 108600593.546 9  84623843.30449  20665997.420
  20665990.280          51.150          49.650
 123858259.294 7  96512914.17744  23569440.560
  23569434.220          43.750          34.850
 122545904.399 8  95490277.80047  23319705.200
  23319699.820          47.000          43.700
 133126070.215 7 103734581.63744  25333048.640
  25333044.940          42.350          33.450
 115125140.192 9  89707887.70847  21907577.300
  21907570.300          49.750          44.350
 106757393.303 9  83187589.95849  20315245.940
  20315241.860          51.500          50.750
 16  2 13  3  6  0.0000000  0 10G01G07G08G11G13G17G19G27G28G30
 112881187.946 9  87959370.67048  21480570.380
  21480567.780          49.750          47.000
 108674454.207 9  84681381.00248  20680055.680
  20680049.300          49.750          47.850
 118455184.350 8  92302787.11947  22541254.040
  22541250.580          46.600          44.250
 108590339.527 9  84615853.16349  20664046.120
  20664038.980          51.100          49.750
 123845828.287 7  96503227.68744  23567075.220
  23567068.620          44.200          35.750
 122461204.991 8  95424278.32447  23303587.000
  23303582.020          46.450          43.600
 132883055.974 5 103545200.07543  25286805.940
  25286793.900          37.550          28.500
 133229655.112 7 103815297.13344  25352760.440
  25352756.880          43.750          35.850
 115073779.138 9  89667866.11048  21897803.500
  21897796.740          49.550          45.100
 106756427.501 9  83186837.38949  20315062.100
  20315058.060          51.600          51.000
 16  2 13  3  6 30.0000000  0 10G01G07G08G11G13G17G19G27G28G30
 112822023.905 9  87913268.83348  21469311.800
  21469309.160          49.550          46.850
 108736159.982 9  84729463.43248  20691797.700
  20691791.360          50.150          48.000
 118540689.692 8  92369414.60347  22557525.000
  22557521.700          47.650          44.550
 108580726.759 9  84608362.69849  20662216.860
  20662209.760          51.050          49.550
 123834005.240 7  96494014.92745  23564825.420
  23564818.660          43.600          36.300
 122376748.917 8  95358468.42547  23287515.480
  23287510.380          47.400          42.200
 132771752.626 5 103458470.11644  25265623.180
  25265612.980          36.250          33.900
 133333215.760 5 103895993.67044  25372467.340
  25372463.840          38.800          35.400
 115022547.585 9  89627945.42947  21888054.500
  21888047.720          49.450          44.350
 106756044.288 9  83186538.78049  20314989.100
  20314985.100          51.400          50.600
 16  2 13  3  7  0.0000000  0 10G01G07G08G11G13G17G19G27G28G30
 112763380.886 9  87867573.00648  21458152.380
  21458149.660          49.800          47.300
 108798371.722 9  84777940.09848  20703636.320
  20703629.920          50.550          47.950
 118626357.070 8  92436168.40847  22573827.020
  22573823.880          47.350          44.550
 108571741.707 9  84601361.36948  20660507.060
  20660499.980          50.750          48.900
 123822776.068 7  96485264.91644  23562688.360
  23562681.980          44.100          35.550
 122292523.481 8  95292838.25746  23271487.960
  23271482.900          46.200          41.750
 132660547.746 4 103371817.05144  25244460.520
  25244453.300          35.750          32.950
 133436736.661 6 103976659.32744  25392166.640
  25392163.380          40.950          34.100
 114971431.718 9  89588114.88848  21878327.500
  21878320.720          50.350          45.800
 106756230.219 9  83186683.65149  20315024.420
  20315020.420          51.900          51.100
 16  2 13  3  7 30.0000000  0  9G01G07G08G11G13G17G27G28G30
 112705261.250 9  87822284.97248  21447092.440
  21447089.780          49.600          46.400
 108861088.103 9  84826809.96248  20715571.060
  20715564.580          50.400          48.150
 118712185.375 8  92503047.59147  22590159.700
  22590156.360          47.600          42.600
 108563384.458 9  84594849.21749  20658916.740
  20658909.640          50.950          49.250
 123812141.334 7  96476978.09945  23560664.500
  23560658.420          44.200          36.100
 122208529.059 8  95227388.11746  23255504.400
  23255498.880          47.650          41.300
 133540216.873 6 104057293.20743  25411858.080
  25411854.700          41.600          28.850
 114920431.872 9  89548374.75248  21868622.620
  21868615.780          50.150          45.550
 106756985.996 9  83187272.56849  20315168.260
  20315164.240          51.700          50.950
 16  2 13  3  8  0.0000000  0 10G01G07G08G11G13G17G19G27G28G30
 112647656.894 9  87777398.47348  21436130.580
  21436128.020          49.450          46.600
 108924297.312 9  84876063.88748  20727599.600
  20727593.120          50.400          48.250
 118798161.834 8  92570042.25247  22606520.400
  22606516.900          47.150          42.350
 108555644.209 9  84588817.84849  20657443.880
  20657436.760          51.100          49.700
 123802090.220 7  96469146.06345  23558751.900
  23558745.880          43.250          37.550
 122124755.772 8  95162110.20147  23239562.920
  23239556.940          46.800          42.100
 132438423.892 5 103198741.38043  25202194.560
  25202188.280          38.750          29.450
 133643644.484 6 104137886.19044  25431539.960
  25431535.520          41.550          33.250
 114869538.396 9  89508717.49648  21858937.900
  21858931.000          50.100          45.700
 106758301.749 9  83188297.82849  20315418.660
  20315414.640          51.600          51.050
 16  2 13  3  8 30.0000000  0 10G01G07G08G11G13G17G19G27G28G30
 112590590.709 9  87732931.31648  21425271.260
  21425268.680          49.450          46.850
 108988018.522 9  84925716.72648  20739725.480
  20739719.120          50.350          48.350
 118884305.473 8  92637167.15947  22622912.920
  22622909.620          46.600          43.350
 108548542.924 9  84583284.38649  20656092.600
  20656085.400          51.000          49.600
 123792643.602 7  96461785.06145  23556954.020
  23556948.560          43.250          36.950
 122041225.814 8  95097021.96747  23223667.360
  23223661.920          46.000          44.150
 132327523.933 4 103112325.89743  25181090.560
  25181083.240          33.100          30.650
 133747039.091 6 104218453.29143  25451215.260
  25451211.100          39.000          31.300
 114818772.446 9  89469159.61147  21849277.500
  21849270.440          50.100          44.900
 106760198.693 9  83189775.96449  20315779.680
  20315775.600          51.450          50.800
 16  2 13  3  9  0.0000000  0  9G01G07G08G11G13G17G27G28G30
 112534059.355 9  87688880.92848  21414513.680
  21414511.060          49.700          46.950
 109052244.561 9  84975762.97548  20751947.420
  20751941.180          50.450          48.600
 118970608.295 8  92704416.10747  22639336.020
  22639332.560          47.600          42.800
 108542074.428 9  84578244.00549  20654861.640
  20654854.500          50.900          49.450
 123783795.515 7  96454890.46445  23555270.320
  23555264.920          44.000          37.350
 121957934.456 8  95032119.65947  23207817.180
  23207812.420          47.250          42.700
 133850393.647 7 104298989.2454   25470883.200
  25470878.140          42.150          24.750
 114768128.524 9  89429696.80848  21839640.360
  21839633.060          50.300          45.400
 106762671.708 9  83191702.98549  20316250.280
  20316246.160          51.650          51.000
 16  2 13  3  9 30.0000000  0  9G01G07G08G11G13G17G27G28G30
 112478053.346 9  87645239.90248  21403856.160
  21403853.360          49.800          47.150
 109116962.525 9  85026192.55948  20764262.740
  20764256.620          50.300          48.200
 119057057.599 8  92771779.19147  22655786.880
  22655783.500          47.600          42.850
 108536227.323 9  84573687.81749  20653748.940
  20653741.880          50.950          49.350
 123775533.977 7  96448452.89144  23553698.280
  23553692.460          44.050          35.900
 121874870.591 8  94967394.60647  23192011.040
  23192005.780          47.300          43.950
 133953695.355 6 104379484.13643  25490540.900
  25490535.740          41.850          29.650
 114717595.764 9  89390320.63648  21830024.320
  21830016.940          50.450          45.750
 106765709.620 9  83194070.19149  20316828.380
  20316824.240          51.750          50.900
 16  2 13  3 10  0.0000000  0  9G01G07G08G11G13G17G27G28G30
 112422582.435 9  87602015.82948  21393300.480
  21393297.600          50.200          48.050
 109182178.282 9  85077009.98548  20776672.700
  20776666.680          50.250          48.600
 119143658.686 8  92839260.54147  22672266.380
  22672263.160          47.400          44.600
 108531009.149 9  84569621.72848  20652755.960
  20652748.960          50.900          48.800
 123767866.612 7  96442478.33545  23552239.220
  23552233.320          44.050          36.550
 121792042.548 8  94902853.31847  23176249.540
  23176244.060          47.150          43.400
 134056950.493 5 104459942.67744  25510189.440
  25510185.780          38.300          33.200
 114667182.267 9  89351037.40848  21820430.860
  21820423.620          50.300          46.400
 106769320.518 9  83196883.87349  20317515.500
  20317511.420          51.850          51.450
 16  2 13  3 10 30.0000000  0 10G01G07G08G11G13G17G19G27G28G30
 112367648.685 9  87559210.32448  21382847.000
  21382844.080          50.100          47.850
 109247890.018 9  85128213.86948  20789177.100
  20789171.100          50.700          48.100
 119230409.400 8  92906858.49047  22688774.420
  22688771.240          47.050          44.400
 108526420.105 9  84566045.83248  20651882.720
  20651875.680          51.050          48.550
 123760793.368 7  96436966.70344  23550893.320
  23550887.380          44.450          35.550
 121709450.955 8  94838496.28247  23160532.640
  23160527.600          46.150          43.350
 131884982.254 5 102767480.00444  25096877.920
  25096871.160          36.500          32.750
 134160157.732 5 104540363.96144  25529828.900
  25529825.200          38.950          33.900
 114616888.235 9  89311847.26948  21810860.140
  21810853.120          50.350          46.250
 106773504.622 9  83200144.21049  20318311.620
  20318307.700          51.800          51.350
 16  2 13  3 11  0.0000000  0 10G01G07G08G11G13G17G19G27G28G30
 112313252.026 9  87516823.31148  21372495.600
  21372492.820          50.050          47.850
 109314093.761 9  85179801.11248  20801775.200
  20801769.120          50.200          47.250
 119317306.173 8  92974570.22047  22705310.440
  22705307.240          47.200          42.650
 108522457.880 9  84562958.39349  20651128.720
  20651121.720          50.850          49.050
 123754311.395 7  96431915.80645  23549659.760
  23549654.120          43.950          37.150
 121627094.667 8  94774322.61947  23144860.520
  23144855.560          47.600          42.900
 131774617.270 6 102681481.30844  25075877.780
  25075870.100          39.400          35.150
 134263313.718 5 104620745.23543  25549458.740
  25549455.180          37.550          29.750
 114566711.796 9  89272748.73548  21801311.840
  21801304.940          50.500          46.100
 106778260.250 9  83203849.88849  20319216.580
  20319212.680          51.700          50.900
 16  2 13  3 11 30.0000000  0 10G01G07G08G11G13G17G19G27G28G30
 112259401.297 9  87474861.71048  21362248.180
  21362245.460          50.150          47.800
 109380795.146 9  85231776.16848  20814468.020
  20814461.840          50.400          46.750
 119404353.544 8  93042399.39847  22721874.960
  22721871.660          46.800          42.700
 108519129.090 9  84560364.52549  20650495.260
  20650488.180          51.150          49.250
 123748427.490 7  96427330.95945  23548539.920
  23548534.860          44.050          37.500
 121544981.343 8  94710338.21747  23129235.120
  23129229.420          48.250          43.100
 131664369.335 6 102595573.83043  25054897.940
  25054891.860          39.450          31.400
 134366423.920 6 104701090.82043  25569079.900
  25569076.200          40.700          30.950
 114516660.102 9  89233747.41748  21791787.360
  21791780.460          50.450          45.450
 106783594.479 9  83208006.43749  20320231.640
  20320227.720          51.650          50.650
 16  2 13  3 12  0.0000000  0 10G01G07G08G11G13G17G19G27G28G30
 112206094.514 9  87433323.95548  21352104.160
  21352101.540          49.800          48.150
 109447988.163 9  85284134.34948  20827254.600
  20827248.160          50.250          47.550
 119491545.776 8  93110341.36447  22738466.880
  22738463.840          45.850          43.000
 108516429.313 9  84558260.80549  20649981.500
  20649974.400          50.950          49.650
 123743137.190 7  96423208.65645  23547533.400
  23547528.180          44.050          36.400
 121463107.376 8  94646540.35147  23113655.480
  23113649.400          48.050          43.150
 131554235.658 5 102509755.39544  25033939.600
  25033933.740          37.750          33.600
 134469483.027 6 104781396.53244  25588691.840
  25588687.720          39.200          34.100
 114466729.911 9  89194840.78148  21782285.920
  21782279.160          50.100          45.800
 106789503.611 9  83212610.95749  20321356.140
  20321352.220          51.500          50.750
 16  2 13  3 12 30.0000000  0 10G01G07G08G11G13G17G19G27G28G30
 112153333.007 9  87392211.14648  21342063.920
  21342061.360          50.000          47.750
 109515670.495 9  85336873.82848  20840134.380
  20840127.760          50.350          47.400
 119578880.230 8  93178394.17547  22755086.000
  22755083.080          47.050          43.350
 108514357.770 9  84556646.62449  20649587.300
  20649580.160          50.850          49.200
 123738439.527 7  96419548.14444  23546639.540
  23546634.040          44.850          35.600
 121381472.833 8  94582929.05047  23098121.140
  23098115.120          47.550          42.800
 131444217.115 4 102424026.71844  25013003.080
  25012997.540          35.500          34.150
 134572489.108 6 104861660.93343  25608293.340
  25608288.900          41.400          30.850
 114416920.717 9  89156028.43248  21772807.460
  21772800.760          50.250          46.050
 106795987.114 9  83217663.03149  20322589.980
  20322585.960          51.650          50.900
 16  2 13  3 13  0.0000000  0  9G01G07G08G11G13G17G27G28G30
 112101124.351 9  87351529.10848  21332128.900
  21332126.320          49.800          47.950
 109583845.865 9  85389997.45848  20853107.880
  20853101.260          50.250          47.600
 119666360.511 8  93246560.63247  22771733.200
  22771730.100          46.550          43.050
 108512920.450 9  84555526.63049  20649313.760
  20649306.680          51.050          49.600
 123734340.066 7  96416353.74444  23545859.560
  23545853.620          44.050          35.850
 121300083.994 8  94519509.22747  23082632.900
  23082627.220          46.650          44.000
 134675446.378 6 104941887.41444  25627885.620
  25627881.200          39.800          35.900
 114367238.558 9  89117315.06248  21763353.260
  21763346.540          50.150          45.600
 106803050.964 9  83223167.32849  20323934.260
  20323930.140          51.600          50.900
 16  2 13  3 13 30.0000000  0 11G01G07G08G11G13G15G17G19G27G28G30
 112049454.976 9  87311267.28548  21322296.480
  21322293.940          49.800          48.000
 109652496.960 9  85443491.79148  20866171.760
  20866165.380          50.250          47.750
 119753969.367 8  93314827.25547  22788404.700
  22788401.480          47.050          43.400
 108512101.219 9  84554888.28049  20649157.840
  20649150.780          50.850          49.200
 123730821.870 7  96413612.28245  23545190.000
  23545184.060          43.600          38.550
 134694509.749 4                  25631507.740
                        32.950
 121218926.141 8  94456269.39447  23067188.760
  23067183.300          47.350          43.600
 131224528.660 4 102252862.40243  24971198.380
  24971188.800          35.850          29.500
 134778338.440 6 105022062.95944  25647465.440
  25647461.220          40.050          32.250
 114317668.428 9  89078688.99748  21753920.380
  21753913.560          50.400          46.350
 106810679.854 9  83229111.91749  20325386.000
  20325381.880          51.750          50.900
 16  2 13  3 14  0.0000000  0 11G01G07G08G11G13G15G17G19G27G28G30
 111998342.444 9  87271439.35248  21312569.960
  21312567.460          49.750          47.750
 109721637.758 9  85497367.71348  20879328.720
  20879322.620          49.950          48.100
 119841720.295 8  93383204.61847  22805103.200
  22805100.080          46.600          42.950
 108511915.635 9  84554743.66949  20649122.460
  20649115.480          51.000          49.600
 123727900.464 7  96411335.86945  23544634.100
  23544627.880          44.100          36.000
 134659901.754 4 104929777.30043  25624921.840
  25624915.840          35.250          30.950
 121138015.532 8  94393222.20747  23051792.000
  23051786.560          48.600          44.300
 131114864.943 6 102167410.14543  24950331.420
  24950318.080          41.350          30.000
 134881179.372 5 105102198.82142  25667035.380
  25667030.440          38.000          26.600
 114268226.362 9  89040162.71748  21744511.860
  21744505.000          50.100          45.800
 106818889.536 9  83235509.07449  20326948.220
  20326944.140          51.450          50.950
 16  2 13  3 14 30.0000000  0 11G01G07G08G11G13G15G17G19G27G28G30
 111947784.964 9  87232043.95048  21302949.140
  21302946.620          49.800          47.850
 109791262.690 9  85551620.84148  20892577.760
  20892571.960          49.700          47.750
 119929607.892 8  93451688.43947  22821827.700
  22821824.520          46.450          43.200
 108512359.643 9  84555089.64649  20649207.000
  20649199.960          50.950          49.350
 123725572.213 7  96409521.63245  23544191.200
  23544185.300          44.600          36.850
 134625779.637 4 104903161.77743  25618429.320
  25618422.720          35.200          28.100
 121057349.310 8  94330365.44047  23036441.900
  23036436.320          48.600          44.950
 131005323.705 6 102082053.36144  24929485.660
  24929477.900          39.900          32.150
 134983964.539 5 105182291.15142  25686594.880
  25686590.200          37.400          26.600
 114218909.018 9  89001733.61448  21735127.100
  21735120.200          50.100          45.950
 106827676.525 9  83242356.06949  20328620.360
  20328616.220          51.450          50.700
 16  2 13  3 15  0.0000000  0 10G01G07G08G11G13G15G17G19G28G30
 111897787.051 9  87193084.54548  21293434.920
  21293432.280          49.950          47.800
 109861372.549 9  85606251.85948  20905919.100
  20905913.580          49.700          47.850
 120017633.299 8  93520279.67147  22838578.360
  22838575.040          45.650          43.350
 108513435.651 9  84555928.09549  20649411.800
  20649404.780          51.000          49.500
 123723838.614 7  96408170.77444  23543861.520
  23543855.440          44.400          35.500
 134592146.927 5 104876954.50544  25612029.080
  25612023.680          36.000          35.800
 120976930.614 8  94267701.53747  23021138.980
  23021133.060          48.150          43.750
 130895909.248 6 101996795.32943  24908663.180
  24908656.720          41.150          31.850
 114169719.437 9  88963404.06648  21725766.620
  21725759.700          50.000          45.200
 106837043.668 9  83249655.13349  20330402.860
  20330398.680          51.350          50.650
 16  2 13  3 15 30.0000000  0 10G01G07G08G11G13G15G17G19G28G30
 111848341.169 9  87154555.30948  21284025.800
  21284023.000          50.300          47.750
 109931956.165 9  85661252.05748  20919350.660
  20919345.040          49.900          47.250
 120105784.850 8  93588969.18446  22855353.060
  22855349.580          47.400          41.850
 108515133.758 9  84557251.30849  20649734.920
  20649727.940          51.050          49.350
 123722689.960 7  96407275.72544  23543643.180
  23543636.620          44.550          34.250
 134558994.818 5 104851121.76944  25605720.600
  25605715.040          36.600          32.650
 120896750.526 8  94205223.58147  23005881.140
  23005875.360          48.100          43.950
 130786613.254 6 101911629.67145  24887864.920
  24887856.820          41.600          36.000
 114120648.801 9  88925167.21148  21716428.800
  21716421.740          50.350          45.850
 106846981.592 9  83257398.97649  20332294.020
  20332289.760          51.650          50.700
 16  2 13  3 16  0.0000000  0 10G01G07G08G11G13G15G17G19G28G30
 111799457.925 9  87116464.47248  21274723.660
  21274720.820          50.350          48.400
 110003020.346 9  85716626.70248  20932873.800
  20932867.860          50.200          47.100
 120194069.396 8  93657762.30846  22872152.960
  22872149.540          46.000          41.800
 108517462.469 9  84559065.87849  20650178.080
  20650171.080          51.000          49.600
 123722134.611 7  96406842.98744  23543537.320
  23543530.940          44.600          34.950
 134526332.868 4 104825670.87244  25599505.420
  25599498.860          32.650          32.500
 120816818.993 8  94142939.28047  22990670.460
  22990664.840          47.800          44.250
 130677445.731 6 101826564.11445  24867091.220
  24867083.200          40.750          37.350
 114071706.136 9  88887030.07448  21707115.320
  21707108.220          50.200          45.850
 106857499.238 9  83265594.53049  20334295.480
  20334291.180          51.550          50.550
 16  2 13  3 16 30.0000000  0 10G01G07G08G11G13G15G17G19G28G30
 111751141.232 9  87078815.12348  21265529.280
  21265526.520          50.200          48.800
 110074565.310 9  85772376.00248  20946488.500
  20946482.200          49.950          46.750
 120282487.428 8  93726659.44047  22888978.280
  22888975.100          46.600          42.600
 108520423.503 9  84561373.20848  20650741.580
  20650734.500          50.650          48.900
 123722173.905 7  96406873.61945  23543545.040
  23543538.020          44.300          37.050
 134494140.957 5 104800609.17644  25593384.060
  25593378.000          36.550          33.300
 120737138.067 8  94080850.29647  22975507.000
  22975501.940          46.300          44.350
                                  24846341.300
  24846338.000          37.500          33.350
 114022893.956 9  88848994.61748  21697826.700
  21697819.620          50.600          46.900
 106868598.706 9  83274243.46849  20336407.700
  20336403.280          51.600          50.850
 16  2 13  3 17  0.0000000  0  9G01G07G08G11G13G15G17G28G30
 111703386.626 9  87041603.75649  21256441.900
  21256439.200          50.350          49.000
 110146582.959 9  85828493.59248  20960193.140
  20960186.680          50.150          47.050
 120371030.553 8  93795654.10847  22905827.560
  22905824.200          47.600          42.800
 108524010.041 9  84564167.91148  20651424.020
  20651416.960          50.550          48.900
 123722801.256 7  96407362.45645  23543664.460
  23543657.140          43.950          36.350
 134462459.570 5 104775922.35343  25587354.640
  25587347.080          37.650          29.350
 120657702.428 8  94018952.45347  22960390.520
  22960385.600          47.750          43.800
 113974206.730 9  88811056.52148  21688561.860
  21688554.880          50.650          47.400
 106880273.878 9  83283341.00349  20338629.420
  20338624.980          51.700          50.850
 16  2 13  3 17 30.0000000  0  9G01G07G08G11G13G15G17G28G30
 111656194.502 9  87004830.70348  21247461.560
  21247458.880          50.150          48.750
 110219070.070 9  85884977.01648  20973987.060
  20973980.560          49.750          47.200
 120459695.947 8  93864744.02347  22922700.180
  22922696.880          47.600          43.250
 108528220.714 9  84567448.96549  20652225.180
  20652218.260          50.300          49.400
 123724014.234 7  96408307.63345  23543895.140
  23543888.440          43.600          37.650
 134431264.846 4 104751614.83144  25581417.600
  25581413.440          34.000          32.100
 120578511.227 8  93957245.04847  22945321.400
  22945315.980          48.700          44.450
 113925643.192 9  88773214.80548  21679320.520
  21679313.600          50.300          47.100
 106892523.290 9  83292885.99549  20340960.420
  20340955.980          51.450          50.950
 16  2 13  3 18  0.0000000  0 10G01G07G08G11G13G15G17G19G28G30
 111609560.548 9  86968492.57549  21238587.360
  21238584.780          50.250          49.000
 110292018.743 9  85941820.11348  20987868.720
  20987862.400          49.950          47.550
 120548475.368 8  93933922.79947  22939594.320
  22939591.080          46.900          43.750
 108533049.333 9  84571211.52949  20653143.960
  20653137.100          50.800          49.450
 123725806.046 7  96409703.85045  23544236.040
  23544229.600          43.200          37.850
 134400551.736 5 104727682.57544  25575573.020
  25575568.780          37.650          35.200
 120499559.191 9  93895724.01148  22930297.860
  22930292.060          49.200          45.250
 130242059.016 6 101487291.45944  24784240.580
  24784234.400          39.300          34.400
 113877197.993 9  88735465.30148  21670101.720
  21670094.900          50.250          46.850
 106905340.973 9  83302873.79849  20343399.580
  20343395.140          51.600          50.700
 16  2 13  3 18 30.0000000  0 10G01G07G08G11G13G15G17G19G28G30
 111563504.000 9  86932604.37949  21229823.020
  21229820.560          50.200          49.200
 110365444.422 9  85999034.90148  21001841.120
  21001835.040          49.800          47.100
 120637384.501 8  94003202.63147  22956512.980
  22956510.020          46.700          43.000
 108538512.218 9  84575468.32449  20654183.500
  20654176.560          50.750          49.300
 123728193.869 7  96411564.50145  23544690.480
  23544684.380          43.600          36.350
 134370338.412 5 104704139.68744  25569824.200
  25569818.880          38.550          33.300
 120420864.475 8  93834403.48647  22915323.040
  22915317.000          48.400          44.950
 130133541.346 6 101402732.27444  24763590.600
  24763585.080          39.100          35.000
 113828889.030 9  88697821.95748  21660908.820
  21660901.960          50.250          46.700
 106918744.424 9  83313318.04149  20345950.140
  20345945.740          51.600          50.650
 16  2 13  3 19  0.0000000  0 10G01G07G08G11G13G15G17G19G28G30
 111518019.601 9  86897162.02548  21221167.580
  21221165.200          50.250          48.900
 110439337.995 9  86056614.29948  21015902.500
  21015896.620          49.650          46.900
 120726414.411 8  94072576.55747  22973454.760
  22973451.880          47.250          42.200
 108544601.984 9  84580213.60949  20655342.380
  20655335.420          50.750          49.150
 123731169.837 7  96413883.43245  23545256.940
  23545250.760          43.850          36.650
 134340618.495 5 104680981.29943  25564169.220
  25564163.280          38.600          30.800
 120342420.427 8  93773278.28947  22900395.680
  22900389.580          48.700          44.750
 130025159.088 5 101318278.57045  24742964.940
  24742960.320          38.500          36.200
 113780709.942 9  88660279.82248  21651740.580
  21651733.720          50.350          46.600
 106932726.615 9  83324213.26149  20348610.880
  20348606.500          51.600          50.550
 16  2 13  3 19 30.0000000  0 10G01G07G08G11G13G15G17G19G28G30
 111473109.684 9  86862167.31349  21212621.480
  21212618.940          50.550          49.050
 110513698.284 9  86114557.37748  21030052.820
  21030046.880          49.900          47.150
 120815564.151 8  94142043.87547  22990419.500
  22990416.420          45.450          42.400
 108551318.787 9  84585447.47148  20656620.520
  20656613.600          50.750          48.500
 123734733.758 7  96416660.49645  23545934.960
  23545928.720          43.750          36.700
 134311393.136 5 104658208.26344  25558608.500
  25558601.920          37.700          33.950
 120264228.224 8  93712349.34148  22885515.940
  22885510.100          48.100          45.200
 129916914.593 6 101233932.13544  24722366.420
  24722360.200          39.700          35.900
 113732661.695 9  88622839.63148  21642597.180
  21642590.420          50.350          47.350
 106947288.130 9  83335559.88349  20351381.860
  20351377.460          51.650          50.900
 16  2 13  3 20  0.0000000  0 10G01G07G08G11G13G15G17G19G28G30
 111428761.026 9  86827609.93148  21204182.140
  21204179.580          50.300          48.700
 110588508.118 9  86172850.76448  21044288.700
  21044282.760          49.600          46.750
 120904817.534 8  94211591.96846  23007403.820
  23007400.440          47.250          41.050
 108558647.194 9  84591157.93448  20658015.060
  20658008.180          50.700          48.700
 123738870.151 7  96419883.65844  23546722.040
  23546715.740          43.600          34.250
 134282652.183 5 104635808.58344  25553139.080
  25553132.440          36.450          33.350
 120186273.798 8  93651605.69247  22870681.360
  22870675.720          48.300          44.550
 129808808.833 4 101149673.40944  24701797.380
  24701783.300          34.550          33.050
 113684729.938 9  88585490.21448  21633476.000
  21633469.240          50.600          46.750
 106962414.069 9  83347346.33649  20354260.180
  20354255.880          51.650          50.450
 16  2 13  3 20 30.0000000  0  9G01G07G08G11G13G15G17G28G30
 111385018.016 9  86793524.49648  21195858.060
  21195855.500          50.400          48.550
 110663808.877 9  86231526.67248  21058618.060
  21058611.980          50.000          46.600
 120994214.894 8  94281252.23046  23024415.460
  23024412.120          46.900          41.900
 108566629.127 9  84597377.62148  20659533.940
  20659527.020          50.700          48.900
 123743620.798 7  96423585.45744  23547626.040
  23547619.720          44.500          34.900
 134254431.040 5 104613818.22343  25547767.360
  25547761.140          38.700          31.000
 120108600.467 8  93591081.06347  22855900.540
  22855894.960          48.450          44.400
 113636958.042 9  88548265.36048  21624385.340
  21624378.600          50.650          46.800
 106978146.993 9  83359605.74949  20357254.000
  20357249.800          51.450          50.550
 16  2 13  3 21  0.0000000  0  9G01G07G08G11G13G15G17G28G30
 111341835.298 9  86759875.66649  21187640.660
  21187637.980          50.350          49.300
 110739551.264 9  86290546.69148  21073031.480
  21073025.080          50.100          46.600
 121083707.641 8  94350986.84647  23041445.500
  23041442.200          46.400          43.000
 108575217.569 9  84604069.92149  20661168.320
  20661161.280          50.850          49.350
 123748938.077 7  96427728.78945  23548638.040
  23548631.680          44.250          36.700
 134226687.309 4 104592199.65044  25542487.880
  25542481.020          35.900          35.050
 120031161.823 8  93530739.31348  22841164.520
  22841158.820          48.950          45.700
 113589299.353 9  88511128.71548  21615316.360
  21615309.440          50.400          46.700
 106994439.889 9  83372301.51249  20360354.300
  20360350.200          51.150          50.750
 16  2 13  3 21 30.0000000  0 10G01G07G08G11G13G15G17G19G28G30
 111299230.455 9  86726677.11649  21179533.220
  21179530.560          50.450          49.350
 110815748.818 9  86349921.37648  21087531.460
  21087524.840          50.050          46.100
 121173310.147 8  94420806.91546  23058496.400
  23058493.120          46.400          41.600
 108584427.594 9  84611246.57048  20662920.860
  20662913.840          50.350          48.350
 123754837.038 7  96432325.36944  23549760.620
  23549754.440          44.100          35.800
 134199437.443 5 104570966.07243  25537302.060
  25537295.200          37.950          31.750
 119953974.093 8  93470593.05347  22826476.280
  22826470.540          48.800          44.750
 129485313.209 5 100897631.25445  24640235.580
  24640230.100          36.850          36.900
 113541770.408 9  88474093.17048  21606271.960
  21606265.060          50.750          47.550
 107011308.506 9  83385445.87649  20363564.240
  20363560.240          51.500          50.850
 16  2 13  3 22  0.0000000  0 10G01G07G08G11G13G15G17G19G28G30
 111257205.403 9  86693930.39148  21171536.180
  21171533.420          50.600          48.900
 110892400.305 9  86409649.81048  21102117.740
  21102111.100          49.750          46.050
 121263020.765 8  94490711.29947  23075567.740
  23075564.600          47.250          42.600
 108594258.922 9  84618907.34948  20664791.720
  20664784.740          50.750          48.800
 123761316.733 7  96437374.47944  23550993.520
  23550987.620          43.700          35.250
 134172682.449 4 104550117.89844  25532210.480
  25532204.920          34.900          34.300
 119877038.527 9  93410643.29247  22811836.020
  22811830.120          49.350          44.800
 129377764.053 5 100813826.75744  24619772.100
  24619764.160          38.700          35.850
 113494372.088 9  88437159.42048  21597252.360
  21597245.460          50.600          46.900
 107028753.027 9  83399039.01849  20366883.800
  20366879.820          51.400          50.550
 16  2 13  3 22 30.0000000  0 10G01G07G08G11G13G15G17G19G28G30
 111215770.090 9  86661643.16348  21163651.340
  21163648.480          50.600          48.900
 110969512.346 9  86469737.10648  21116791.600
  21116785.160          49.600          46.650
 121352846.413 8  94560705.30747  23092661.040
  23092657.980          47.100          42.250
 108604719.553 9  84627058.48949  20666782.380
  20666775.340          50.800          49.050
 123768385.100 7  96442882.28945  23552338.660
  23552332.640          44.350          36.350
 134146431.403 5 104529662.55244  25527215.220
  25527210.260          36.550          34.750
 119800364.564 8  93350897.36348  22797245.460
  22797239.380          48.950          45.150
 129270372.820 5 100730133.86745  24599334.400
  24599327.540          38.550          37.000
 113447114.079 9  88400334.99348  21588259.440
  21588252.500          50.550          46.850
 107046781.808 9  83413087.41349  20370314.540
  20370310.620          51.400          50.600
 16  2 13  3 23  0.0000000  0 10G01G07G08G11G13G15G17G19G28G30
 111174912.749 9  86629806.31049  21155876.420
  21155873.440          50.600          49.100
 111047069.108 9  86530170.93448  21131550.140
  21131543.940          49.600          46.900
 121442771.791 8  94630777.04047  23109773.340
  23109770.140          47.400          42.450
 108615795.250 9  84635688.90849  20668890.000
  20668882.920          50.750          49.000
 123776027.966 7  96448837.78145  23553793.020
  23553787.040          43.900          36.450
 134120671.385 5 104509589.76145  25522313.520
  25522308.400          38.250          36.050
 119723938.363 8  93291344.52248  22782701.780
  22782695.840          48.300          46.000
 129163113.957 5 100646555.50644  24578925.500
  24578916.080          36.900          34.000
 113399982.352 9  88363608.96448  21579290.640
  21579283.560          50.550          47.250
 107065381.218 9  83427580.46249  20373853.920
  20373850.020          51.350          50.700
 16  2 13  3 23 30.0000000  0 11G01G07G08G11G13G15G17G19G22G28G30
 111134648.078 9  86598431.27349  21148214.260
  21148211.240          50.750          49.400
 111125081.857 9  86590960.10348  21146395.460
  21146389.460          49.900          46.550
 121532808.582 8  94700935.53347  23126906.720
  23126903.640          46.850          42.350
 108627498.787 9  84644808.55348  20671117.100
  20671110.000          50.850          48.950
 123784257.761 7  96455250.59844  23555359.120
  23555352.780          44.000          35.750
 134095416.068 4 104489910.27344  25517507.540
  25517502.320          33.850          33.700
 119647773.942 8  93231995.66848  22768208.060
  22768202.380          48.800          45.200
 129056008.436 5 100563096.63844  24558543.260
  24558535.320          36.550          34.900
                                  25496601.900
                        37.300
 113352991.089 9  88326992.39948  21570348.480
  21570341.420          50.550          47.250
 107084564.283 9  83442528.29549  20377504.340
  20377500.440          51.400          50.600
 16  2 13  3 24  0.0000000  0 11G01G07G08G11G13G15G17G19G22G28G30
 111094975.130 9  86567517.32149  21140664.740
  21140661.780          50.750          49.300
 111203545.695 9  86652100.69348  21161326.620
  21161320.620          49.900          46.950
 121622952.357 8  94771177.38646  23144060.480
  23144057.320          46.850          41.050
 108639826.501 9  84654414.56449  20673462.980
  20673455.980          50.700          49.050
 123793070.574 7  96462117.70744  23557036.080
  23557029.540          44.850          34.300
 134070663.282 4 104470622.42744  25512796.880
  25512791.800          34.600          32.400
 119571869.723 8  93172849.53247  22753763.740
  22753758.360          48.500          44.950
 128949045.962 5 100479762.31845  24538188.060
  24538183.320          36.750          36.800
 133942192.463 5 104370492.30943  25488349.520
  25488341.680          37.450          29.000
 113306138.769 9  88290484.09448  21561432.760
  21561425.740          50.550          46.700
 107104328.280 9  83457928.79749  20381265.360
  20381261.420          51.400          50.550
 16  2 13  3 24 30.0000000  0 11G01G07G08G11G13G15G17G19G22G28G30
 111055885.625 9  86537057.98449  21133226.160
  21133223.300          50.600          49.550
 111282449.170 9  86713583.86748  21176341.500
  21176335.440          49.750          45.800
 121713191.986 8  94841493.97246  23161232.620
  23161229.260          45.350          41.200
 108652768.053 9  84664498.88448  20675925.620
  20675918.720          50.600          48.250
 123802455.692 7  96469430.75445  23558821.960
  23558815.320          44.650          36.250
 134046403.637 5 104451718.84244  25508180.520
  25508176.020          37.500          33.900
 119496216.572 8  93113899.05548  22739367.240
  22739362.100          48.350          45.400
 128842236.746 6 100396534.38645  24517863.360
  24517857.840          40.650          37.750
 133899129.933 4 104336937.15244  25480154.780
  25480146.400          34.550          35.050
 113259416.165 9  88254076.86648  21552541.740
  21552534.720          50.900          47.950
 107124663.199 9  83473774.18749  20385135.040
  20385131.040          51.550          50.750
 16  2 13  3 25  0.0000000  0 11G01G07G08G11G13G15G17G19G22G28G30
 111017386.728 9  86507058.85249  21125899.960
  21125897.340          50.600          49.450
 111361795.830 9  86775412.40148  21191440.760
  21191434.480          49.500          46.050
 121803531.516 8  94911888.45046  23178423.600
  23178419.800          46.900          41.850
 108666328.149 9  84675065.19548  20678505.960
  20678499.120          50.600          48.900
 123812418.230 7  96477193.80044  23560717.620
  23560711.080          43.350          33.650
 134022643.738 5 104433204.58243  25503659.600
  25503654.680          36.900          31.200
 119420820.784 9  93055149.12348  22725019.920
  22725014.420          49.350          45.400
 128735578.573 6 100313424.25445  24497567.240
  24497561.440          39.800          38.400
 133856377.059 4 104303623.29644  25472019.240
  25472010.980          34.550          33.450
 113212829.424 9  88217775.51648  21543676.500
  21543669.460          50.300          47.000
 107145574.557 9  83490068.75749  20389114.380
  20389110.300          51.300          50.250
 16  2 13  3 25 30.0000000  0 10G01G07G08G11G13G15G17G19G28G30
 110979480.773 9  86477521.77349  21118686.680
  21118684.100          50.900          49.550
 111441584.424 9  86837585.29848  21206624.040
  21206617.680          49.800          45.450
 121893969.901 8  94982359.87646  23195633.440
  23195629.780          45.800          41.600
 108680507.288 9  84686113.87748  20681204.120
  20681197.240          50.750          47.800
 123822957.905 7  96485406.52444  23562723.180
  23562716.860          44.350          35.500
 133999384.704 5 104415080.69844  25499234.300
  25499228.500          38.250          33.000
 119345683.288 9  92996600.46847  22710721.860
  22710715.960          49.200          44.150
 128629073.387 7 100230433.21546  24477301.420
  24477293.500          43.200          39.750
 113166379.974 9  88181581.13548  21534837.420
  21534830.400          50.900          47.700
 107167062.846 9  83506812.87749  20393203.520
  20393199.400          51.700          50.350
 16  2 13  3 26  0.0000000  0 10G01G07G08G11G13G15G17G19G28G30
 110942168.620 9  86448447.36449  21111586.400
  21111583.760          50.550          49.600
 111521812.315 9  86900100.50548  21221890.880
  21221884.600          49.600          46.150
 121984504.764 8  95052906.55547  23212861.540
  23212858.040          46.800          42.250
 108695304.291 9  84697644.01348  20684019.900
  20684012.920          50.700          48.850
 123834073.062 7  96494067.67245  23564838.380
  23564831.880          43.250          36.800
 133976626.659 5 104397347.06644  25494903.900
  25494898.400          38.100          35.850
 119270804.230 9  92938253.15448  22696473.120
  22696466.980          49.550          46.100
 128522722.195 5 100147562.19545  24457064.100
  24457054.980          38.600          36.300
 113120067.719 9  88145493.67648  21526024.520
  21526017.560          50.350          47.100
 107189127.227 9  83524005.89849  20397402.180
  20397398.120          51.300          50.450
 16  2 13  3 26 30.0000000  0 11G01G07G08G11G13G15G17G19G22G28G30
 110905459.723 9  86419843.06349  21104600.940
  21104598.320          50.850          49.450
 111602485.365 9  86962962.58548  21237242.420
  21237236.300          49.800          46.150
 122075142.830 8  95123533.61647  23230109.480
  23230106.020          47.250          42.650
 108710726.089 9  84709660.99648  20686954.520
  20686947.680          50.950          48.650
 123845770.332 7  96503182.41244  23567064.300
  23567057.820          43.400          35.750
 133954377.706 5 104380010.17744  25490670.220
  25490664.440          36.900          34.100
 119196192.296 9  92880114.02948  22682274.900
  22682269.060          49.300          46.000
 128416526.310 5 100064814.52145  24436853.660
  24436849.140          38.850          37.800
 133729987.977 5 104205155.97544  25447971.360
  25447963.860          37.600          35.200
 113073901.426 9  88109519.94348  21517239.380
  21517232.440          50.900          47.450
 107211775.413 9  83541653.83349  20401711.920
  20401707.960          51.600          50.350
 16  2 13  3 27  0.0000000  0 11G01G07G08G11G13G15G17G19G22G28G30
 110869340.542 9  86391698.29249  21097727.720
  21097725.000          50.750          49.750
 111683586.112 9  87026157.94248  21252675.360
  21252669.320          49.300          46.200
 122165867.549 8  95194228.13946  23247373.840
  23247370.400          46.300          41.900
 108726756.743 9  84722152.42748  20690005.060
  20689998.220          50.650          48.000
 123858034.111 7  96512738.58344  23569397.900
  23569391.360          43.550          35.750
 133932623.267 5 104363058.73644  25486530.460
  25486525.140          37.250          33.800
 119121832.926 9  92822171.70348  22668124.960
  22668119.240          49.100          46.000
 128310487.695 6  99982187.03945  24416676.440
  24416669.680          40.800          38.350
 133688496.440 5 104172825.06444  25440076.020
  25440067.960          38.050          35.650
 113027866.682 9  88073648.71648  21508479.320
  21508472.360          50.850          48.150
 107234992.146 9  83559744.79349  20406129.900
  20406126.000          51.450          50.550
 16  2 13  3 27 30.0000000  0 11G01G07G08G11G13G15G17G19G22G28G30
 110833820.191 9  86364020.12549  21090968.420
  21090965.820          50.800          49.700
 111765120.565 9  87089691.21448  21268190.860
  21268184.840          49.350          45.800
 122256685.172 8  95264995.11347  23264655.940
  23264652.820          47.250          42.550
 108743403.226 9  84735123.70748  20693172.840
  20693165.980          50.750          48.500
 123870870.959 7  96522741.32844  23571840.820
  23571834.020          44.150          33.750
 133911371.785 5 104346499.10144  25482486.540
  25482480.580          37.350          35.050
 119047734.808 8  92764432.94648  22654024.500
  22654018.900          48.800          45.750
 128204608.176 6  99899683.50645  24396528.960
  24396521.440          41.050          37.950
 133647326.590 5 104140744.66844  25432241.540
  25432233.820          38.650          35.000
 112981972.403 9  88037886.93848  21499746.000
  21499739.000          50.900          47.700
 107258784.845 9  83578284.54749  20410657.480
  20410653.640          51.300          50.450
 16  2 13  3 28  0.0000000  0 11G01G07G08G11G13G15G17G19G22G28G30
 110798902.512 9  86336811.56049  21084323.820
  21084321.160          50.900          49.700
 111847089.404 9  87153562.98648  21283789.040
  21283783.100          49.600          45.750
 122347596.271 8  95335834.91946  23281955.800
  23281952.600          46.800          41.050
 108760667.387 9  84748576.29548  20696458.160
  20696451.240          50.800          48.700
 123884282.298 7  96533191.71244  23574393.040
  23574386.200          44.100          35.550
 133890626.056 6 104330333.57943  25478538.340
  25478533.300          39.650          28.550
 118973901.245 9  92706900.33648  22639974.220
  22639968.680          49.050          46.000
 128098891.429 6  99817306.89446  24376411.060
  24376404.780          39.700          39.550
 133606482.944 5 104108918.42144  25424469.200
  25424461.620          37.450          33.350
 112936221.938 9  88002237.22948  21491040.060
  21491033.000          50.850          47.300
 107283155.652 9  83597274.78549  20415295.140
  20415291.220          51.450          50.250
 16  2 13  3 28 30.0000000  0 11G01G07G08G11G13G15G17G19G22G28G30
 110764586.886 9  86310072.11349  21077793.800
  21077791.040          50.800          49.650
 111929488.121 9  87217769.74048  21299469.120
  21299463.240          49.550          46.050
 122438597.439 8  95406744.92046  23299272.740
  23299269.480          46.300          41.250
 108778546.370 9  84762507.96748  20699860.420
  20699853.460          50.650          48.800
 123898265.251 7  96544087.50144  23577053.920
  23577047.340          43.900          35.300
 133870384.679 6 104314561.04943  25474686.380
  25474680.340          39.050          31.650
 118900330.228 9  92649572.29648  22625973.940
  22625968.200          49.000          45.500
 127993344.699 6  99735056.47245  24356323.480
  24356318.020          39.950          37.900
 133565965.025 5 104077346.05044  25416758.780
  25416751.080          38.400          32.750
 112890613.448 9  87966698.14448  21482361.060
  21482353.980          50.750          47.750
 107308102.178 9  83616713.62649  20420042.360
  20420038.400          51.300          50.450
 16  2 13  3 29  0.0000000  0 11G01G07G08G11G13G15G17G19G22G28G30
 110730873.321 9  86283801.80849  21071378.300
  21071375.440          50.750          49.600
 112012313.174 9  87282308.70948  21315230.320
  21315224.300          49.550          45.700
 122529685.957 8  95477722.98346  23316606.220
  23316602.960          45.250          40.900
 108797037.800 9  84776916.85448  20703379.260
  20703372.260          51.000          48.400
 123912817.359 7  96555426.83245  23579823.080
  23579816.880          44.300          36.700
 133850646.319 4 104299180.49442  25470929.840
  25470924.420          35.250          27.550
 118827020.505 9  92592447.87748  22612023.520
  22612017.500          49.000          45.300
 127887951.923 6  99652932.25146  24336267.460
  24336262.520          41.750          39.400
 133525773.713 6 104046028.19144  25409110.980
  25409102.780          39.350          33.350
 112845146.264 9  87931269.17748  21473708.880
  21473701.800          50.850          48.250
 107333622.751 9  83636599.77849  20424898.800
  20424894.820          51.600          50.400
 16  2 13  3 29 30.0000000  0 11G01G07G08G11G13G15G17G19G22G28G30
 110697761.304 9  86258000.23549  21065077.340
  21065074.220          50.850          49.600
 112095560.802 9  87347176.95048  21331071.860
  21331065.860          49.350          45.700
 122620858.349 8  95548766.35346  23333955.840
  23333952.420          46.150          39.750
 108816138.750 9  84791800.73648  20707014.120
  20707007.040          50.750          48.550
 123927935.202 7  96567206.93144  23582699.940
  23582693.960          43.650          35.950
 133831409.526 4 104284190.77344  25467268.460
  25467263.620          35.650          34.650
 118753971.344 9  92535526.47848  22598122.940
  22598117.020          49.750          46.050
 127782720.547 6  99570933.84046  24316243.060
  24316237.200          41.200          39.600
 133485909.042 5 104014964.88744  25401524.700
  25401516.440          38.400          35.800
 112799819.431 9  87895949.56548  21465083.400
  21465076.280          50.900          48.150
 107359715.116 9  83656931.48549  20429864.040
  20429859.920          51.450          50.550
 16  2 13  3 30  0.0000000  0 11G01G07G08G11G13G15G17G19G22G28G30
 110665254.479 9  86232670.25649  21058891.540
  21058888.280          51.050          49.450
 112179230.939 9  87412374.41848  21346993.700
  21346987.740          49.350          45.650
 122712115.298 8  95619875.66046  23351321.360
  23351317.960          46.000          41.400
 108835851.082 9  84807160.99548  20710765.240
  20710758.120          50.950          48.700
 123943620.046 7  96579428.88144  23585684.660
  23585678.420          44.050          34.050
 133812676.972 6 104269593.90644  25463704.020
  25463699.320          40.400          34.650
 118681185.658 9  92478810.37348  22584272.440
  22584266.580          49.850          46.350
 127677654.366 6  99489064.11746  24296250.200
  24296244.180          41.000          39.900
 133446376.275 6 103984160.21343  25394001.800
  25393993.580          39.700          29.450
 112754635.961 9  87860741.67548  21456485.240
  21456478.080          50.800          47.500
 107386381.215 9  83677710.25649  20434938.380
  20434934.280          51.400          50.400
 16  2 13  3 30 30.0000000  0 11G01G07G08G11G13G15G17G19G22G28G30
 110633352.680 9  86207811.73849  21052820.800
  21052817.520          50.850          49.800
 112263320.303 9  87477898.55748  21362995.260
  21362989.340          49.200          45.700
 122803454.079 8  95691048.72546  23368702.540
  23368699.440          46.650          40.700
 108856172.351 9  84822995.75048  20714632.260
  20714625.040          50.750          48.500
 123959869.244 7  96592090.57145  23588776.840
  23588770.340          43.850          37.500
 133794447.619 5 104255389.27544  25460235.320
  25460230.640          38.550          34.200
 118608662.877 9  92422299.14548  22570471.840
  22570466.100          49.450          46.100
 127572753.382 7  99407323.14246  24276288.760
  24276282.060          42.650          41.400
 133407174.958 6 103953613.75443  25386542.220
  25386533.780          40.400          31.700
 112709594.933 9  87825644.76848  21447914.260
  21447907.100          50.850          47.900
 107413619.131 9  83698934.61049  20440121.540
  20440117.460          51.150          50.300
 16  2 13  3 31  0.0000000  0 11G01G07G08G11G13G15G17G19G22G28G30
 110602058.066 9  86183426.34149  21046865.600
  21046862.360          50.750          49.800
 112347827.162 9  87543748.01048  21379076.400
  21379070.500          49.300          45.600
 122894874.023 7  95762285.01946  23386099.280
  23386096.060          44.800          40.850
 108877102.346 9  84839304.83748  20718615.160
  20718607.940          50.900          48.400
 123976682.911 7  96605192.13244  23591976.300
  23591969.660          43.700          35.100
 133776722.640 5 104241577.67643  25456862.560
  25456857.640          38.550          30.400
 118536403.735 9  92365993.35748  22556721.180
  22556715.340          49.050          45.150
 127468019.920 7  99325712.65146  24256359.220
  24256351.440          43.650          39.750
 133368309.024 5 103923328.53643  25379146.420
  25379137.080          38.400          29.950
 112664698.767 9  87790660.74648  21439370.840
  21439363.680          50.900          48.650
 107441429.388 9  83720604.93249  20445413.680
  20445409.520          51.400          50.300
 16  2 13  3 31 30.0000000  0 11G01G07G08G11G13G15G17G19G22G28G30
 110571375.407 9  86159517.79849  21041026.760
  21041023.700          50.800          49.800
 112432753.367 9  87609924.22548  21395237.440
  21395231.640          49.250          45.950
 122986377.428 8  95833586.39046  23403511.980
  23403508.400          45.300          39.900
 108898643.756 9  84856090.34548  20722714.400
  20722707.180          50.700          48.850
 123994063.069 7  96618735.10445  23595283.480
  23595277.000          44.100          37.050
 133759505.969 5 104228162.16644  25453586.740
  25453581.180          38.600          32.350
 118464412.568 9  92309896.38848  22543021.480
  22543015.600          49.300          45.800
 127363458.845 6  99244236.53846  24236461.720
  24236454.180          41.650          40.300
 133329783.560 5 103893308.97044  25371815.100
  25371805.960          37.200          33.800
 112619951.296 9  87755792.58748  21430855.700
  21430848.620          51.000          48.800
 107469815.022 9  83742723.60249  20450815.220
  20450811.020          51.300          50.500
 16  2 13  3 32  0.0000000  0 11G01G07G08G11G13G15G17G19G22G28G30
 110541303.774 9  86136085.37549  21035304.200
  21035301.220          50.650          49.900
 112518094.299 9  87676423.61648  21411477.480
  21411471.600          49.600          46.150
 123077960.266 8  95904949.60146  23420939.540
  23420936.260          45.550          40.700
 108920793.457 9  84873349.85848  20726929.300
  20726922.120          50.900          48.800
 124012006.206 7  96632716.74344  23598697.920
  23598691.760          43.600          34.300
 133742795.626 6 104215141.02244  25450407.140
  25450401.060          39.900          34.250
 118392688.000 9  92254007.16148  22529372.640
  22529366.820          49.250          46.450
 127259068.995 6  99162893.87946  24216596.680
  24216589.800          40.900          40.300
 133291598.339 5 103863555.99343  25364548.660
  25364541.440          37.750          30.800
 112575351.316 9  87721039.36048  21422368.600
  21422361.460          50.750          48.050
 107498773.420 9  83765288.59149  20456325.800
  20456321.640          51.050          50.250
 16  2 13  3 32 30.0000000  0 11G01G07G08G11G13G15G17G19G22G28G30
 110511841.672 9  86113127.92049  21029697.720
  21029694.780          50.950          49.800
 112603845.167 9  87743242.43748  21427795.380
  21427789.440          49.300          45.000
 123169618.768 7  95976371.80646  23438381.400
  23438378.420          43.550          41.600
 108943547.508 9  84891080.28248  20731259.280
  20731252.080          50.900          48.200
 124030508.634 7  96647134.22944  23602218.900
  23602212.960          44.300          34.400
 133726589.076 5 104202512.56343  25447323.140
  25447316.980          37.650          31.600
 118321227.860 9  92198323.98448  22515774.180
  22515768.560          49.400          45.950
 127154849.448 7  99081683.85045  24196764.380
  24196757.640          43.050          38.850
 133253753.294 6 103834066.49543  25357346.880
  25357339.220          39.450          31.400
 112530896.717 9  87686399.41748  21413909.100
  21413901.940          50.950          48.350
 107528301.341 9  83788297.35949  20461944.740
  20461940.580          51.350          50.150
 16  2 13  3 33  0.0000000  0 11G01G07G08G11G13G15G17G19G22G28G30
 110482991.086 9  86090646.95249  21024207.660
  21024204.680          50.900          49.800
 112690004.611 9  87810379.60248  21444190.940
  21444184.980          49.300          45.150
 123261351.996 8  96047852.21746  23455837.640
  23455834.780          45.250          41.100
 108966905.986 9  84909281.68748  20735704.320
  20735697.000          50.950          48.300
 124049569.709 7  96661986.96644  23605846.180
  23605840.440          43.250          34.750
 133710887.566 6 104190277.62544  25444335.480
  25444328.820          39.700          33.600
 118250033.246 9  92142847.69648  22502226.320
  22502220.740          49.750          46.250
 127050802.420 7  99000608.25746  24176965.160
  24176957.820          44.650          39.450
 133216251.262 5 103804844.17544  25350210.520
  25350203.380          38.250          35.100
 112486589.187 9  87651874.07348  21405477.560
  21405470.520          50.850          47.900
 107558399.173 9  83811750.20949  20467672.180
  20467668.020          51.250          49.950
 16  2 13  3 33 30.0000000  0 11G01G07G08G11G13G15G17G19G22G28G30
 110454752.890 9  86068643.17349  21018834.100
  21018831.260          50.850          50.400
 112776570.064 9  87877833.13848  21460663.820
  21460657.720          49.350          45.500
 123353158.670 7  96119389.91346  23473307.880
  23473304.880          44.850          40.150
 108990867.221 9  84927952.77748  20740263.960
  20740256.660          50.900          48.850
 124069187.984 7  96677273.93145  23609579.580
  23609573.300          43.650          36.600
 133695690.839 6 104178436.00144  25441443.840
  25441437.320          41.250          34.550
 118179104.651 9  92087578.69148  22488729.280
  22488723.380          49.900          46.700
 126946928.798 7  98919667.76645  24157199.180
  24157191.120          44.250          37.950
 133179093.797 5 103775890.24344  25343139.260
  25343132.840          37.500          35.600
 112442429.761 9  87617464.12848  21397074.240
  21397067.300          50.750          48.350
 107589066.021 9  83835646.44149  20473507.860
  20473503.800          51.100          50.400
 16  2 13  3 34  0.0000000  0 11G01G07G08G11G13G15G17G19G22G28G30
 110427132.466 9  86047120.79749  21013578.120
  21013575.420          50.850          50.300
 112863543.573 9  87945604.66348  21477214.400
  21477208.360          49.050          45.350
 123445041.175 8  96190986.66546  23490792.580
  23490789.500          45.000          39.800
 109015434.562 9  84947096.17048  20744938.980
  20744931.720          51.000          48.700
 124089366.345 7  96692997.30345  23613419.460
  23613413.340          43.900          36.950
 133681003.708 6 104166991.49844  25438649.100
  25438642.620          41.300          34.650
 118108446.660 9  92032520.56848  22475283.640
  22475277.400          49.650          46.100
 126843233.992 7  98838866.63345  24137466.580
  24137458.040          42.350          38.600
 133142287.342 5 103747209.93544  25336135.280
  25336128.600          37.150          35.250
 112398422.798 9  87583173.00348  21388699.940
  21388693.100          50.750          48.050
 107620305.588 9  83859988.96149  20479452.540
  20479448.560          51.100          50.000
 16  2 13  3 34 30.0000000  0 10G01G07G08G11G13G15G17G19G28G30
 110400127.043 9  86026077.64049  21008439.240
  21008436.540          50.900          50.200
 112950919.076 8  88013689.45948  21493841.400
  21493835.600          48.850          45.850
 123536994.422 7  96262638.51746  23508290.440
  23508287.520          44.550          40.200
 109040603.202 9  84966708.08748  20749728.480
  20749721.260          50.950          48.350
 124110099.620 7  96709153.07345  23617364.840
  23617358.520          43.800          36.100
 133666822.141 6 104155940.94043  25435950.120
  25435943.940          41.050          31.550
 118038056.243 9  91977670.92148  22461888.700
  22461882.240          49.550          45.700
 126739715.876 7  98758203.19446  24117767.300
  24117759.160          43.150          40.250
 112354565.410 9  87548998.41548  21380354.140
  21380347.420          50.950          48.450
 107652113.432 9  83884774.29249  20485505.380
  20485501.420          51.150          50.100
 16  2 13  3 35  0.0000000  0 10G01G07G08G11G13G15G17G19G28G30
 110373740.520 9  86005516.74149  21003418.180
  21003415.320          51.100          50.150
 113038697.226 9  88082087.96448  21510544.880
  21510539.320          49.000          45.350
 123629020.014 7  96334346.77146  23525802.340
  23525799.340          44.750          39.250
 109066374.879 9  84986789.91548  20754632.640
  20754625.460          50.900          48.500
 124131389.216 7  96725742.36545  23621416.200
  23621410.400          43.950          37.050
 133653149.077 6 104145286.64245  25433348.260
  25433342.240          39.550          36.300
 117967936.319 9  91923032.06248  22448544.880
  22448538.860          49.100          46.050
 126636378.589 7  98677680.67346  24098102.280
  24098095.260          42.450          41.000
 112310861.361 9  87514943.32048  21372037.580
  21372030.880          50.850          48.450
 107684491.823 9  83910004.19949  20491666.860
  20491662.800          51.300          50.150
 16  2 13  3 35 30.0000000  0 11G01G07G08G11G13G15G17G19G22G28G30
 110347968.759 9  85985434.87649  20998514.060
  20998511.020          51.000          50.200
 113126870.473 9  88150794.35948  21527323.720
  21527318.000          49.200          45.100
 123721111.229 7  96406106.12446  23543326.800
  23543323.780          43.800          40.200
 109092743.120 9  85007336.59948  20759650.280
  20759643.140          50.900          48.400
 124153228.626 7  96742760.07245  23625572.040
  23625566.540          43.850          37.700
 133639979.725 6 104135024.77043  25430842.100
  25430835.840          41.050          29.050
 117898082.414 9  91868600.45948  22435251.860
  22435246.040          49.100          46.050
 126533218.130 7  98597295.92746  24078471.700
  24078464.600          43.300          41.050
 133033979.555 4 103662806.81744  25315522.420
  25315515.600          34.500          32.300
 112267306.487 9  87481004.46148  21363749.360
  21363742.660          50.900          48.700
 107717434.863 9  83935674.09249  20497935.780
  20497931.620          51.300          50.050
 16  2 13  3 36  0.0000000  0 11G01G07G08G11G13G15G17G19G22G28G30
 110322817.939 9  85965836.84649  20993728.020
  20993724.860          51.050          50.100
 113215441.700 8  88219810.87348  21544178.380
  21544172.580          48.950          45.600
 123813271.934 7  96477919.70145  23560864.540
  23560861.180          44.600          38.400
 109119712.102 9  85028351.38848  20764782.300
  20764775.200          51.100          48.700
 124175621.307 7  96760208.89845  23629833.060
  23629827.460          43.600          37.000
 133627319.270 6 104125159.48844  25428432.220
  25428425.760          41.250          33.400
 117828500.106 9  91814380.51548  22422010.740
  22422005.200          49.850          46.850
 126430241.028 7  98517054.09346  24058875.540
  24058868.720          42.500          40.250
 132998584.629 6 103635226.34145  25308787.060
  25308781.160          39.950          36.450
 112223906.770 9  87447186.50448  21355490.660
  21355483.920          50.750          48.450
 107750947.112 9  83961787.52349  20504312.960
  20504308.780          51.250          50.150
 16  2 13  3 36 30.0000000  0 11G01G07G08G11G13G15G17G19G22G28G30
 110298281.403 9  85946717.50349  20989058.800
  20989055.640          50.950          50.100
 113304401.144 8  88289129.87648  21561106.780
  21561101.100          48.800          45.600
 123905493.061 7  96549780.32846  23578413.820
  23578410.200          44.500          39.850
 109147272.795 9  85049827.26048  20770026.920
  20770019.860          50.950          48.850
 124198558.409 7  96778081.93845  23634198.060
  23634192.440          43.750          36.300
 133615160.053 7 104115684.76244  25426118.480
  25426111.400          42.350          32.650
 117759182.271 9  91760366.64048  22408820.180
  22408814.480          49.950          46.850
 126327441.044 7  98436950.20345  24039313.360
  24039305.800          42.750          38.800
 132963541.622 6 103607920.18245  25302119.580
  25302111.840          41.050          36.300
 112180655.516 9  87413484.23248  21347260.240
  21347253.460          50.750          48.250
 107785020.234 9  83988337.98549  20510796.860
  20510792.720          51.300          50.150
 16  2 13  3 37  0.0000000  0 11G01G07G08G11G13G15G17G19G22G28G30
 110274366.840 9  85928082.78949  20984507.960
  20984504.860          50.900          50.200
 113393752.970 8  88358754.61547  21578109.880
  21578104.240          48.950          44.950
 123997779.992 7  96621692.22446  23595975.480
  23595971.680          44.350          40.150
 109175430.793 9  85071768.55448  20775385.160
  20775378.120          50.850          48.700
 124222045.446 7  96796383.51744  23638667.560
  23638661.700          42.900          35.550
 133603508.938 6 104106606.06344  25423901.320
  25423894.860          41.500          34.800
 117690136.438 9  91706564.73348  22395681.240
  22395675.580          49.900          46.950
 126224826.566 7  98356990.88845  24019786.940
  24019779.120          44.100          38.800
 132928859.494 7 103580895.21245  25295520.120
  25295512.200          42.100          38.650
 112137560.160 9  87379903.43848  21339059.480
  21339052.660          50.650          48.200
 107819660.295 9  84015330.21649  20517388.700
  20517384.560          51.050          49.750
 16  2 13  3 37 30.0000000  0 11G01G07G08G11G13G15G17G19G22G28G30
 110251073.827 9  85909932.40149  20980075.400
  20980072.360          50.900          50.000
 113483493.615 8  88428682.36048  21595187.000
  21595181.360          48.900          45.200
 124090130.036 7  96693653.24645  23613549.100
  23613545.340          44.000          38.000
 109204183.520 9  85094173.28248  20780856.600
  20780849.540          50.750          48.350
 124246079.222 7  96815111.09245  23643240.840
  23643235.140          42.900          37.100
 133592364.495 6 104097922.06144  25421780.500
  25421774.120          40.450          34.900
 117621361.340 9  91652973.78148  22382593.840
  22382588.080          49.850          46.950
 126122397.012 7  98277175.65546  24000295.160
  24000287.800          44.150          39.200
 132894539.125 7 103554152.07646  25288989.520
  25288981.320          44.200          39.800
 112094620.017 9  87346443.58848  21330888.340
  21330881.400          51.000          48.800
 107854865.210 9  84042762.61749  20524088.000
  20524083.860          51.250          49.950
 16  2 13  3 38  0.0000000  0 11G01G07G08G11G13G15G17G19G22G28G30
 110228404.560 9  85892268.04649  20975761.480
  20975758.520          50.850          49.950
 113573622.337 9  88498912.50047  21612338.000
  21612332.260          49.000          44.950
 124182542.882 7  96765663.24446  23631134.600
  23631131.080          44.300          39.450
 109233531.086 9  85117041.51348  20786441.180
  20786434.220          50.800          48.700
 124270659.348 7  96834264.41944  23647918.080
  23647912.640          43.300          34.400
 133581728.256 6 104089634.12544  25419756.900
  25419750.040          39.000          34.300
 117552858.803 9  91599595.20548  22369558.220
  22369552.440          49.550          47.050
 126020155.134 7  98197506.69646  23980838.800
  23980831.680          43.600          39.050
 132860583.178 7 103527692.88046  25282528.140
  25282519.600          43.750          39.200
 112051837.494 9  87313106.55948  21322747.140
  21322740.100          50.900          48.600
 107890635.511 9  84070635.57749  20530894.800
  20530890.760          51.050          49.900
 16  2 13  3 38 30.0000000  0 11G01G07G08G11G13G15G17G19G22G28G30
 110206356.699 9  85875087.91749  20971565.800
  20971562.880          50.950          49.900
 113664133.236 9  88569440.43947  21629561.720
  21629555.880          49.000          44.600
 124275014.217 7  96837718.80346  23648731.320
  23648728.100          44.050          39.450
 109263468.902 9  85140369.68448  20792138.160
  20792131.240          50.800          48.450
 124295781.613 7  96853840.17944  23652698.560
  23652693.460          42.450          35.800
 133571597.081 6 104081739.72644  25417828.760
  25417822.700          40.650          35.000
 117484626.058 9  91546426.86348  22356573.900
  22356568.220          49.400          46.550
 125918098.903 8  98117982.35245  23961418.700
  23961410.260          45.950          37.200
 132826990.773 7 103501517.05246  25276135.840
  25276127.320          43.700          39.050
 112009209.999 9  87279890.32748  21314635.460
  21314628.220          50.900          48.350
 107926967.171 9  84098945.95749  20537808.440
  20537804.460          51.150          49.850
 16  2 13  3 39  0.0000000  0 11G01G07G08G11G13G15G17G19G22G28G30
 110184930.456 9  85858392.16149  20967488.420
  20967485.520          50.900          49.750
 113755023.387 8  88640263.88847  21646857.500
  21646851.660          48.800          44.600
 124367542.273 7  96909818.57046  23666338.880
  23666335.760          43.150          40.100
 109293995.035 9  85164156.28148  20797947.040
  20797940.180          50.750          48.250
 124321443.160 7  96873836.15645  23657581.780
  23657576.820          42.700          38.550
 133561970.108 6 104074238.14344  25415997.120
  25415991.200          40.850          35.500
 117416662.861 9  91493468.56248  22343640.880
  22343635.160          49.600          46.200
 125816229.249 7  98038603.41045  23942034.320
  23942024.900          44.550          38.750
 132793763.247 7 103475625.51246  25269812.840
  25269804.160          42.550          41.000
 111966738.012 9  87246795.27848  21306553.260
  21306546.000          50.900          48.750
 107963858.850 9  84127692.72449  20544828.620
  20544824.600          51.250          49.850
 16  2 13  3 39 30.0000000  0 11G01G07G08G11G13G15G17G19G22G28G30
 110164135.718 9  85842188.48649  20963531.320
  20963528.340          50.950          49.900
 113846299.622 8  88711388.19847  21664226.840
  21664221.060          48.800          44.700
 124460134.476 7  96981968.31346  23683958.520
  23683955.600          43.500          40.300
 109325117.515 9  85188407.56248  20803869.380
  20803862.600          50.850          48.250
 124347651.961 7  96894258.56645  23662569.220
  23662564.000          43.700          36.600
 133552856.163 5 104067136.32744  25414262.100
  25414256.800          38.150          35.350
 117348978.929 9  91440727.87548  22330760.980
  22330755.140          49.600          46.200
 125714556.150 7  97959377.69846  23922685.620
  23922677.700          42.600          41.600
 132760911.322 6 103450026.68146  25263561.080
  25263552.680          41.050          39.650
 111924431.382 9  87213829.07348  21298502.480
  21298495.420          51.000          48.900
 108001318.721 9  84156882.23449  20551957.020
  20551952.960          51.250          49.950
 16  2 13  3 40  0.0000000  0 11G01G07G08G11G13G15G17G19G22G28G30
 110143966.246 9  85826472.01049  20959693.180
  20959690.180          50.900          49.900
 113937952.414 8  88782805.94447  21681667.920
  21681662.060          48.850          44.800
 124552782.465 7  97054161.60645  23701588.800
  23701585.720          44.100          37.600
 109356827.831 9  85213116.89348  20809903.580
  20809896.860          50.600          48.800
 124374399.061 7  96915100.43844  23667659.120
  23667653.480          43.650          35.100
 133544248.376 5 104060429.06144  25412623.900
  25412618.900          38.000          35.200
 117281567.407 9  91388199.45548  22317932.980
  22317926.980          49.850          46.250
 125613074.323 7  97880301.03247  23903373.020
  23903367.580          43.700          42.300
 132728429.695 6 103424716.31645  25257379.660
  25257371.580          41.600          38.350
 111882284.140 9  87180987.07248  21290482.120
  21290475.060          50.700          48.700
 108039338.905 9  84186508.32749  20559192.000
  20559188.000          51.100          50.100
 16  2 13  3 40 30.0000000  0 11G01G07G08G11G13G15G17G19G22G28G30
 110124417.212 9  85811239.01149  20955973.080
  20955970.080          50.900          49.850
 114029973.929 8  88854511.00247  21699179.040
  21699173.040          48.750          44.400
 124645479.438 7  97126392.96044  23719228.420
  23719224.940          43.750          35.850
 109389118.923 9  85238278.77948  20816048.320
  20816041.680          50.700          48.450
 124401677.396 7  96936356.24645  23672850.260
  23672844.180          43.550          36.400
 133536141.120 5 104054111.70244  25411081.100
  25411075.820          38.150          34.300
 117214423.097 9  91335879.23848  22305155.900
  22305149.820          49.800          46.650
 125511779.284 8  97801369.89246  23884097.620
  23884092.020          46.100          40.700
 132696314.721 7 103399691.69845  25251268.500
  25251260.120          42.050          38.000
 111840291.356 9  87148265.42148  21282491.100
  21282484.040          50.900          48.400
 108077912.994 9  84216566.05249  20566532.460
  20566528.500          51.250          49.950
 16  2 13  3 41  0.0000000  0 11G01G07G08G11G13G15G17G19G22G28G30
 110105496.835 9  85796495.86649  20952372.600
  20952369.600          51.000          49.950
 114122369.184 8  88926507.28047  21716761.160
  21716755.140          48.950          43.950
 124738231.660 7  97198667.46645  23736878.600
  23736874.860          43.200          38.350
 109421996.984 9  85263898.04348  20822304.820
  20822298.180          50.850          48.400
 124429492.780 7  96958030.55745  23678143.220
  23678137.400          42.700          36.900
 133528541.624 6 104048190.05844  25409634.880
  25409630.020          40.350          35.800
 117147553.961 9  91283773.41848  22292431.340
  22292424.880          50.300          46.350
 125410679.830 7  97722591.12946  23864859.840
  23864852.560          44.950          41.700
 132664576.154 7 103374960.35745  25245228.580
  25245220.620          43.650          36.950
 111798461.426 9  87115670.67648  21274531.080
  21274524.080          50.850          48.500
 108117047.574 9  84247060.52449  20573979.580
  20573975.660          51.250          49.700
 16  2 13  3 41 30.0000000  0 11G01G07G08G11G13G15G17G19G22G28G30
 110087203.754 9  85782241.53049  20948891.560
  20948888.540          50.800          50.000
 114215133.950 8  88998791.48347  21734413.720
  21734407.720          48.700          44.850
 124831035.518 7  97270982.09145  23754538.480
  23754534.800          43.100          36.750
 109455458.393 9  85289971.87748  20828672.360
  20828665.640          50.600          48.350
 124457841.681 7  96980120.58744  23683537.780
  23683532.000          43.200          34.050
 133521447.631 5 104042662.30245  25408285.140
  25408280.060          37.850          36.800
 117080958.541 9  91231880.91148  22279758.840
  22279752.060          50.050          46.350
 125309775.188 7  97643964.15346  23845658.040
  23845650.080          43.750          41.050
 132633213.663 7 103350522.09646  25239260.560
  25239252.560          42.450          39.100
 111756793.485 9  87083202.15548  21266601.880
  21266595.060          50.850          48.900
 108156739.700 9  84277989.46449  20581532.820
  20581528.880          51.050          50.200
 16  2 13  3 42  0.0000000  0 11G01G07G08G11G13G15G17G19G22G28G30
 110069541.425 9  85768478.68649  20945530.540
  20945527.500          50.900          49.900
 114308268.221 9  89071363.59947  21752136.660
  21752130.960          49.050          44.700
 124923892.573 7  97343338.29945  23772208.460
  23772205.240          43.350          37.300
 109489504.630 9  85316501.41048  20835151.280
  20835144.420          50.950          48.500
 124486724.809 7  97002626.88644  23689034.280
  23689028.600          44.000          34.700
 133514862.036 6 104037530.69843  25407032.080
  25407027.200          40.100          31.150
 117014639.964 9  91180204.13948  22267138.780
  22267131.880          49.900          46.450
 125209069.109 7  97565491.97746  23826493.160
  23826486.280          42.550          39.300
 132602231.522 7 103326380.17744  25233365.040
  25233356.700          44.450          34.650
 111715290.965 9  87050862.53948  21258704.200
  21258697.360          50.800          48.700
 108196991.147 9  84309354.23349  20589192.440
  20589188.500          51.250          49.700
 16  2 13  3 42 30.0000000  0 11G01G07G08G11G13G15G17G19G22G28G30
 110052502.971 9  85755201.97949  20942288.220
  20942285.200          50.900          49.950
 114401762.162 9  89144215.98447  21769928.160
  21769922.420          49.000          44.800
 125016793.838 7  97415728.88145  23789887.060
  23789884.060          43.650          37.100
 109524126.678 9  85343479.62048  20841739.720
  20841732.820          50.750          48.350
 124516132.910 7  97025542.29344  23694630.780
  23694625.040          44.100          35.750
 133508776.899 4 104032789.05044  25405874.260
  25405868.440          35.800          34.700
 116948590.927 9  91128737.39848  22254569.880
  22254563.180          49.850          46.300
 125108555.534 8  97487169.72245  23807366.400
  23807359.660          45.300          37.800
 132571624.075 7 103302530.19644  25227540.660
  25227532.040          42.650          35.100
 111673947.439 9  87018646.80648  21250836.820
  21250829.920          50.850          48.450
 108237793.478 9  84341148.26249  20596956.840
  20596952.840          51.100          49.700
 16  2 13  3 43  0.0000000  0 11G01G07G08G11G13G15G17G19G22G28G30
 110036094.819 9  85742416.42049  20939165.820
  20939162.860          50.750          50.100
 114495619.193 8  89217351.29548  21787788.580
  21787782.980          48.800          45.250
 125109744.441 7  97488157.89545  23807575.240
  23807572.180          44.100          38.550
 109559328.915 9  85370909.93748  20848438.600
  20848431.580          50.750          48.450
 124546070.184 7  97048870.04244  23700327.680
  23700321.640          43.600          35.750
 133503197.970 5 104028441.87144  25404813.060
  25404806.800          37.200          35.750
 116882817.408 9  91077485.34048  22242053.360
  22242047.100          49.800          46.600
 125008241.649 8  97409003.03845  23788277.980
  23788270.100          45.050          37.050
 132541399.013 6 103278978.19644  25221789.180
  25221780.160          41.950          34.150
 111632769.548 9  86986560.14348  21243000.900
  21242994.040          50.650          48.900
 108279151.516 9  84373375.30349  20604826.920
  20604822.980          50.950          49.950
 16  2 13  3 43 30.0000000  0 11G01G07G08G11G13G15G17G19G22G28G30
 110020317.710 9  85730122.58149  20936163.540
  20936160.520          50.950          50.100
 114589837.013 8  89290767.74248  21805717.560
  21805711.960          48.700          45.150
 125202742.599 7  97560623.97846  23825272.360
  23825269.360          44.300          40.700
 109595109.839 9  85398791.17348  20855247.580
  20855240.460          50.800          48.650
 124576535.204 7  97072608.96344  23706124.900
  23706118.760          43.700          34.050
 133498124.900 6 104024488.77744  25403848.180
  25403841.240          39.750          33.900
 116817320.253 9  91026448.63548  22229589.460
  22229583.660          49.850          47.000
 124908128.707 7  97330992.96846  23769226.900
  23769218.880          43.100          41.200
 132511558.047 6 103255725.57344  25216110.500
  25216101.280          40.800          34.900
 111591758.324 9  86954603.35148  21235196.780
  21235189.780          50.900          48.700
 108321064.342 9  84406034.62549  20612802.600
  20612798.720          51.050          49.750
 16  2 13  3 44  0.0000000  0 11G01G07G08G11G13G15G17G19G22G28G30
 110005174.080 9  85718322.37149  20933281.820
  20933278.780          50.800          50.000
 114684415.076 8  89364464.90747  21823715.120
  21823709.460          48.450          44.450
 125295789.355 7  97633127.89346  23842978.400
  23842976.100          43.300          40.450
 109631470.107 9  85427123.85148  20862166.720
  20862159.600          50.650          48.350
 124607527.724 7  97096758.97544  23712022.380
  23712016.360          43.650          34.250
 133493559.355 5 104020931.23743  25402979.620
  25402972.300          38.400          31.700
 116752101.553 9  90975628.90848  22217178.800
  22217172.980          49.900          46.750
 124808219.862 7  97253142.00847  23750214.260
  23750207.420          43.750          42.750
 132482104.766 5 103232774.92844  25210505.420
  25210496.980          38.400          33.200
 111550916.559 9  86922778.60948  21227424.940
  21227417.860          50.800          48.850
 108363532.892 9  84439126.99249  20620884.120
  20620880.200          50.950          49.700
 16  2 13  3 44 30.0000000  0 11G01G07G08G11G13G15G17G19G22G28G30
 109990659.044 9  85707011.96149  20930519.740
  20930516.740          51.000          49.900
 114779345.423 8  89438436.55547  21841779.700
  21841774.120          48.700          44.300
 125388877.802 7  97705664.29444  23860692.620
  23860690.140          43.300          34.550
 109668402.518 9  85455902.35948  20869194.780
  20869187.520          50.800          48.350
 124639040.454 7  97121314.34244  23718019.000
  23718012.620          43.850          34.150
 133489495.814 5 104017764.85443  25402206.080
  25402198.640          38.600          29.600
 116687156.173 9  90925022.16348  22204820.160
  22204814.100          50.100          46.350
 124708510.893 8  97175446.75246  23731240.580
  23731234.280          46.000          41.300
 132453036.072 4 103210124.08144  25204973.480
  25204965.460          34.000          32.550
 111510239.652 9  86891082.32049  21219684.480
  21219677.420          50.950          49.000
 108406550.707 9  84472647.37749  20629070.160
  20629066.120          50.950          49.450
 16  2 13  3 45  0.0000000  0 11G01G07G08G11G13G15G17G19G22G28G30
 109976776.683 9  85696194.56149  20927878.020
  20927875.120          50.650          49.800
 114874629.049 8  89512683.49347  21859911.700
  21859905.880          48.650          44.150
 125482010.226 7  97778235.02246  23878414.960
  23878412.620          43.000          41.750
 109705908.904 9  85485128.11148  20876332.060
  20876324.720          50.850          48.200
 124671075.421 7  97146276.61544  23724115.120
  23724108.980          43.300          35.950
 133485937.614 5 104014992.25544  25401528.840
  25401520.800          38.550          32.500
 116622488.263 9  90874631.60448  22192514.340
  22192508.020          49.700          46.600
 124609006.124 8  97097910.60346  23712305.500
  23712299.380          45.150          41.250
                                  25199515.640
                        37.550
 111469732.049 9  86859517.95849  21211976.180
  21211969.200          51.000          49.750
 108450120.204 9  84506597.61649  20637361.220
  20637357.000          51.150          49.900
 16  2 13  3 45 30.0000000  0 11G01G07G08G11G13G15G17G19G22G28G30
 109963525.415 9  85685868.90449  20925356.400
  20925353.420          50.900          49.950
 114970261.582 8  89587202.31547  21878110.100
  21878104.340          48.800          44.850
 125575183.718 7  97850837.75943  23896145.020
  23896142.200          43.000          31.850
 109743986.126 9  85514798.67348  20883577.880
  20883570.580          50.650          48.400
 124703628.584 7  97171642.70644  23730310.020
  23730303.800          43.900          34.650
 133482882.158 4 104012611.37844  25400946.520
  25400939.780          35.350          34.750
 116558096.364 9  90824456.12748  22180261.040
  22180254.620          50.200          46.200
 124509705.468 7  97020533.55346  23693409.160
  23693403.340          44.850          41.800
 132396057.502 4 103165732.19743  25194131.620
  25194126.320          34.400          29.950
 111429392.970 9  86828084.91249  21204299.940
  21204292.940          50.800          49.000
 108494238.273 9  84540975.30449  20645756.620
  20645752.420          50.900          49.400
 16  2 13  3 46  0.0000000  0 10G01G07G08G11G13G15G17G19G28G30
 109950906.301 9  85676035.83949  20922955.100
  20922952.060          50.850          50.100
 115066241.357 8  89661991.71447  21896374.500
  21896368.900          48.400          44.700
 125668397.272 6  97923471.63043  23913883.140
  23913879.020          41.650          31.500
 109782633.318 9  85544913.36048  20890932.160
  20890924.860          50.650          48.300
 124736698.685 7  97197411.59945  23736602.940
  23736596.780          43.650          37.000
 133480329.797 5 104010622.56744  25400460.340
  25400454.240          36.400          35.600
 116493980.827 9  90774495.99348  22168060.260
  22168053.940          49.800          46.950
 124410610.728 7  96943316.92046  23674552.080
  23674545.520          44.700          40.950
 111389223.836 9  86796784.28449  21196656.040
  21196649.040          50.900          49.550
 108538904.396 9  84575780.04449  20654256.320
  20654252.180          51.050          49.800
 16  2 13  3 46 30.0000000  0 10G01G07G08G11G13G15G17G19G28G30
 109938919.678 9  85666695.61149  20920674.160
  20920671.000          51.050          49.950
 115162565.572 8  89737049.49647  21914704.280
  21914698.940          48.550          44.600
 125761649.768 7  97996135.90944  23931628.560
  23931624.260          43.400          35.600
 109821848.531 9  85575470.67348  20898394.520
  20898387.180          50.700          48.000
 124770283.848 7  97223581.85844  23742993.980
  23742988.260          44.550          35.300
 133478280.336 4 104009025.61744  25400069.520
  25400064.940          35.200          33.850
 116430142.091 9  90724751.55048  22155912.020
  22155905.900          49.750          46.350
 124311722.908 8  96866261.50845  23655734.820
  23655727.040          46.000          37.700
 111349225.560 9  86765616.79749  21189044.660
  21189037.660          51.100          49.200
 108584117.483 9  84611011.01349  20662860.160
  20662855.940          51.100          49.000
 16  2 13  3 47  0.0000000  0 11G01G07G08G11G13G15G17G19G22G28G30
 109927564.597 9  85657847.50649  20918513.380
  20918510.120          51.000          49.950
 115259230.212 8  89812372.54147  21933099.020
  21933093.580          48.750          44.800
 125854938.476 7  98068828.44244  23949381.020
  23949376.840          44.350          34.650
 109861628.763 9  85606468.24948  20905964.380
  20905957.080          50.650          48.050
 124804380.520 8  97250150.64944  23749482.480
  23749476.440          45.100          34.050
 133476731.717 4 104007818.87844  25399774.520
  25399770.440          32.400          32.600
 116366578.985 9  90675221.86748  22143816.120
  22143810.120          49.850          46.600
 124213041.566 8  96789366.92345  23636956.880
  23636948.100          45.950          37.650
 132313529.952 4 103101440.39243  25178428.280
  25178424.500          34.150          31.350
 111309397.814 9  86734582.19949  21181465.680
  21181458.640          50.950          49.150
 108629874.896 9  84646666.12949  20671567.540
  20671563.300          51.000          49.100
 16  2 13  3 47 30.0000000  0 10G01G07G08G11G13G17G19G22G28G30
 109916841.437 9  85649491.79549  20916472.860
  20916469.560          50.950          50.150
 115356232.920 8  89887959.01447  21951558.000
  21951552.560          48.650          44.600
 125948262.205 7  98141548.25445  23967140.320
  23967136.220          44.200          37.650
 109901972.375 9  85637904.82748  20913641.440
  20913634.220          50.450          48.000
 124838986.939 7  97277116.67945  23756068.060
  23756061.560          44.050          36.200
 116303292.070 9  90625907.40848  22131772.940
  22131766.980          49.800          46.900
 124114568.024 7  96712634.31145  23618217.700
  23618209.180          44.250          38.500
 132286813.349 5 103080622.14342  25173344.440
  25173336.220          36.800          26.750
 111269741.183 9  86703680.93249  21173919.260
  21173912.200          50.950          49.100
 108676175.544 9  84682744.53049  20680378.280
  20680374.060          51.100          49.650
 16  2 13  3 48  0.0000000  0 10G01G07G08G11G13G17G19G22G28G30
 109906754.168 9  85641631.60049  20914553.340
  20914550.060          51.000          49.900
 115453574.464 8  89963809.52547  21970081.600
  21970076.080          48.650          44.350
 126041623.349 7  98214297.11044  23984906.460
  23984902.280          43.350          35.950
 109942881.205 9  85669781.83548  20921426.080
  20921418.880          50.600          47.800
 124874104.494 7  97304480.97744  23762750.620
  23762744.220          43.950          34.650
 116240285.006 9  90576811.01448  22119783.080
  22119777.120          50.000          46.800
 124016306.961 7  96636067.28646  23599518.500
  23599510.540          44.950          39.900
 132260496.520 6 103060115.68744  25168337.380
  25168329.660          39.900          33.850
 111230260.858 9  86672917.03249  21166406.380
  21166399.280          51.050          49.200
 108723021.773 9  84719248.07149  20689292.880
  20689288.660          51.150          49.600
 16  2 13  3 48 30.0000000  0 11G01G07G08G11G13G15G17G19G22G28G30
 109897300.709 9  85634265.28449  20912754.420
  20912751.220          51.050          50.050
 115551250.634 8  90039920.80347  21988668.840
  21988663.520          48.600          44.550
 126135018.346 7  98287072.45544  24002678.840
  24002674.380          43.050          32.900
 109984351.317 9  85702096.21548  20929317.520
  20929310.300          50.500          47.350
 124909728.939 7  97332240.29144  23769529.960
  23769523.240          44.050          35.350
 133475082.800 5 104006545.11144  25399464.520
  25399458.200          37.500          34.650
 116177556.103 9  90527931.39448  22107846.280
  22107840.300          50.200          46.600
 123918257.377 8  96559665.02746  23580860.460
  23580852.320          46.650          40.400
 132234579.789 6 103039920.79744  25163406.560
  25163398.040          40.350          34.850
 111190955.100 9  86642289.17349  21158926.700
  21158919.560          50.900          49.000
 108770410.031 9  84756173.96349  20698310.660
  20698306.480          51.200          49.600
 16  2 13  3 49  0.0000000  0 11G01G07G08G11G13G15G17G19G22G28G30
 109888480.458 9  85627392.36949  20911075.960
  20911072.840          51.000          50.200
 115649257.694 8  90116289.91447  22007319.000
  22007313.760          48.700          44.700
 126228445.530 6  98359872.81944  24020457.200
  24020453.460          41.700          35.850
 110026380.098 9  85734845.91248  20937315.240
  20937308.100          50.300          47.900
 124945857.612 7  97360392.48444  23776404.840
  23776398.460          43.950          34.950
 133475538.939 5 104006900.59945  25399551.220
  25399546.020          36.050          36.250
 116115104.433 9  90479267.78448  22095962.260
  22095956.200          50.350          47.100
 123820419.544 8  96483427.77847  23562243.020
  23562235.320          45.850          42.900
 132209063.155 6 103020037.62344  25158551.320
  25158542.700          40.050          35.200
 111151823.967 9  86611797.38548  21151480.200
  21151473.080          50.750          48.900
 108818338.229 9  84793520.59749  20707431.080
  20707427.080          51.050          49.700
 16  2 13  3 49 30.0000000  0 11G01G07G08G11G13G15G17G19G22G28G30
 109880297.022 9  85621015.67249  20909518.680
  20909515.640          51.000          50.100
 115747596.508 8  90192917.52247  22026032.220
  22026026.680          48.700          43.850
 126321906.690 7  98432699.62645  24038241.900
  24038238.900          42.800          36.550
 110068969.194 9  85768032.22848  20945419.640
  20945412.620          50.400          47.550
 124982491.989 7  97388938.72444  23783376.020
  23783370.020          43.850          35.650
 133476497.608 6 104007647.61244  25399734.300
  25399728.280          40.200          35.300
 116052933.554 9  90430822.97348  22084131.640
  22084125.420          50.100          46.900
 123722798.080 8  96407359.16847  23543666.120
  23543659.160          45.800          42.350
 132183951.997 7 103000470.54744  25153772.880
  25153764.540          42.600          35.950
 111112871.913 9  86581445.13949  21144067.820
  21144060.780          50.950          49.050
 108866808.485 9  84831289.62549  20716654.600
  20716650.780          51.000          49.450
 16  2 13  3 50  0.0000000  0 11G01G07G08G11G13G15G17G19G22G28G30
 109872745.749 9  85615131.57649  20908081.700
  20908078.720          50.900          50.150
 115846259.417 8  90269797.65947  22044807.200
  22044801.520          48.250          43.800
 126415396.070 7  98505548.43844  24056032.300
  24056029.560          43.650          34.050
 110112112.215 9  85801650.16748  20953629.500
  20953622.540          50.350          47.450
 125019624.681 7  97417873.28844  23790442.000
  23790436.420          43.050          35.850
 133477953.110 5 104008781.84544  25400011.440
  25400005.020          37.250          35.000
 115991039.226 9  90382593.66248  22072353.580
  22072347.180          50.000          46.750
 123625389.226 8  96331456.22046  23525129.780
  23525123.060          45.650          40.950
 132159242.686 7 102981216.59144  25149071.280
  25149062.420          42.800          33.650
 111074095.014 9  86551229.37449  21136688.800
  21136681.800          50.800          49.200
 108915814.576 9  84869476.19849  20725980.020
  20725976.400          50.950          49.800
 16  2 13  3 50 30.0000000  0 11G01G07G08G11G13G15G17G19G22G28G30
 109865829.786 9  85609742.51449  20906765.640
  20906762.560          51.150          50.000
 115945246.860 8  90346930.69047  22063643.820
  22063638.320          48.600          44.700
 126508914.834 7  98578420.33545  24073828.600
  24073825.460          42.050          38.200
 110155810.247 9  85835700.55348  20961945.040
  20961938.140          50.700          47.850
 125057256.729 7  97447196.92444  23797602.940
  23797597.440          43.750          35.700
 133479908.097 6 104010305.16244  25400383.800
  25400377.340          39.850          32.850
 115929424.532 9  90334582.24248  22060628.600
  22060622.180          50.100          47.050
 123528197.288 7  96255722.29346  23506634.680
  23506627.500          44.550          40.300
 132134940.000 7 102962279.45343  25144446.800
  25144437.220          44.550          29.500
 111035497.204 9  86521153.16048  21129343.920
  21129336.900          50.700          48.800
 108965358.081 9  84908081.47949  20735407.820
  20735404.200          51.100          49.550
 16  2 13  3 51  0.0000000  0 11G01G07G08G11G13G15G17G19G22G28G30
 109859551.637 9  85604850.46849  20905570.940
  20905567.860          50.700          50.250
 116044558.530 8  90424316.35447  22082542.120
  22082536.700          47.900          44.000
 126602464.713 6  98651316.15445  24091630.400
  24091627.580          41.150          37.550
 110200063.650 9  85870183.75048  20970366.240
  20970359.340          50.350          47.950
 125095388.488 6  97476909.95944  23804859.040
  23804853.400          41.500          35.700
 133482364.300 5 104012219.15544  25400851.360
  25400844.740          37.200          35.800
 115868091.783 9  90286790.51348  22048957.300
  22048950.980          49.600          47.150
 123431225.101 8  96180159.59146  23488181.380
  23488173.700          45.350          39.800
 132111047.366 7 102943661.82745  25139900.100
  25139890.820          42.950          37.000
 110997081.757 9  86491219.04449  21122033.660
  21122026.620          50.600          49.550
 109015440.106 9  84947106.39549  20744938.080
  20744934.560          50.550          49.300
 16  2 13  3 51 30.0000000  0 11G01G07G08G11G13G15G17G19G22G28G30
 109853906.857 9  85600451.93849  20904496.800
  20904493.700          50.850          50.350
 116144187.434 8  90501949.23747  22101501.060
  22101495.460          48.250          44.600
 126696039.766 7  98724231.87145  24109437.220
  24109434.340          42.750          36.950
 110244866.369 9  85905094.96248  20978891.920
  20978885.060          50.250          48.100
 125134013.248 7  97507007.14844  23812208.960
  23812203.400          42.350          35.200
 133485316.692 5 104014519.61144  25401413.460
  25401406.600          38.400          34.850
 115807037.102 9  90239215.46148  22037338.840
  22037332.700          49.800          47.400
 123334469.743 7  96104765.81046  23469769.160
  23469761.180          44.200          39.050
 132087562.473 7 102925361.90545  25135430.900
  25135422.120          44.300          37.600
 110958845.163 9  86461424.30349  21114757.400
  21114750.360          50.550          49.100
 109066054.703 9  84986546.29549  20754569.720
  20754566.160          50.700          49.350
 16  2 13  3 52  0.0000000  0 11G01G07G08G11G13G15G17G19G22G28G30
 109848896.535 9  85596547.79549  20903543.360
  20903540.240          50.900          50.350
 116244131.910 8  90579828.02747  22120520.000
  22120514.420          48.250          44.350
 126789640.061 7  98797167.15045  24127248.700
  24127246.000          42.400          38.000
 110290217.399 9  85940433.42348  20987521.980
  20987515.060          50.350          47.950
 125173129.804 7  97537487.55844  23819652.540
  23819647.360          42.650          35.550
 133488765.443 4 104017206.88042  25402069.900
  25402062.080          35.650          27.750
 115746261.379 9  90191857.77748  22025773.480
  22025767.660          49.950          46.950
 123237933.420 8  96029542.71745  23451398.540
  23451390.720          45.650          38.750
 132064487.276 7 102907381.27446  25131039.920
  25131031.360          44.650          39.850
 110920789.602 9  86431770.62949  21107515.640
  21107508.560          50.550          49.200
 109117201.493 9  85026400.91848  20764302.700
  20764299.000          50.800          48.900
 16  2 13  3 52 30.0000000  0 11G01G07G08G11G13G15G17G19G22G28G30
 109844523.029 9  85593139.87749  20902711.080
  20902707.900          50.700          49.500
 116344391.558 8  90657952.42247  22139598.840
  22139593.460          47.950          44.350
 126883266.684 7  98870122.86245  24145065.360
  24145062.640          42.750          38.050
 110336117.101 9  85976199.42148  20996256.500
  20996249.460          50.950          47.800
 125212738.133 7  97568351.18344  23827189.780
  23827184.460          42.650          35.300
 133492717.209 5 104020271.27544  25402819.580
  25402813.160          37.650          32.300
 115685767.021 9  90144719.35048  22014261.860
  22014255.980          49.900          46.850
 123141619.345 8  95954492.80346  23433070.820
  23433063.000          45.650          39.400
 132041825.522 8 102889722.80945  25126727.520
  25126718.880          45.000          38.600
 110882917.962 9  86402260.26249  21100308.920
  21100301.820          50.800          49.600
 109168881.380 9  85066670.92949  20774137.220
  20774133.200          50.950          49.000
 16  2 13  3 53  0.0000000  0 11G01G07G08G11G13G15G17G19G22G28G30
 109840783.049 9  85590225.61349  20901999.440
  20901996.100          51.150          49.850
 116444960.590 8  90736317.84647  22158736.360
  22158731.160          47.950          44.350
 126976914.869 7  98943095.42244  24162886.060
  24162882.980          42.800          34.200
 110382560.169 9  86012388.83148  21005094.440
  21005087.360          50.750          47.850
 125252832.969 7  97599593.88245  23834819.660
  23834813.840          43.400          36.950
 133497158.053 5 104023731.62643  25403665.620
  25403658.800          37.200          31.800
 115625550.986 9  90097797.79548  22002803.220
  22002797.140          50.250          46.600
 123045525.188 8  95879614.24846  23414784.900
  23414777.300          46.350          41.200
 132019575.709 7 102872385.28146  25122493.520
  25122484.840          44.550          40.450
 110845228.185 9  86372891.60949  21093136.800
  21093129.660          50.900          49.100
 109221089.595 9  85107352.66649  20784072.140
  20784067.940          51.050          49.150
 16  2 13  3 53 30.0000000  0 11G01G07G08G11G13G15G17G19G22G28G30
 109837680.371 9  85587807.95649  20901409.060
  20901405.620          51.000          50.150
 116545840.013 8  90814925.13247  22177932.900
  22177927.680          47.600          44.550
 127070587.487 7  99016087.12844  24180711.200
  24180707.300          42.100          32.400
 110429548.986 9  86049003.49348  21014036.080
  21014029.080          50.350          48.000
 125293415.847 7  97631216.87144  23842542.400
  23842536.700          43.350          35.950
 133502096.026 5 104027579.46044  25404604.780
  25404599.940          36.850          35.550
 115565617.312 9  90051096.26548  21991398.180
  21991391.980          50.100          46.900
 122949655.939 8  95804910.98847  23396541.560
  23396534.440          45.700          42.850
 131997742.721 7 102855372.55146  25118338.760
  25118330.240          43.600          39.950
 110807724.912 9  86343668.28049  21086000.160
  21085993.020          50.700          49.250
 109273828.366 9  85148447.77949  20794108.020
  20794103.720          50.950          49.400
 16  2 13  3 54  0.0000000  0 11G01G07G08G11G13G15G17G19G22G28G30
 109835213.279 9  85585885.55949  20900939.460
  20900936.160          50.900          49.900
 116647025.437 8  90893770.87447  22197187.860
  22197182.680          48.200          43.700
 127164281.432 6  99089095.32144  24198540.500
  24198536.740          40.250          34.950
 110477079.747 9  86086040.44948  21023080.820
  21023073.900          50.800          47.550
 125334482.536 7  97663216.86444  23850356.960
  23850351.160          43.100          35.250
 133507528.789 5 104031812.87444  25405638.280
  25405632.140          36.650          35.150
 115505964.711 9  90004613.75048  21980046.600
  21980040.320          50.100          46.900
 122854011.059 8  95730382.57847  23378340.700
  23378333.960          45.050          43.050
 131976326.289 7 102838684.43046  25114263.160
  25114254.620          42.250          40.050
 110770407.631 9  86314589.88149  21078899.000
  21078891.820          51.050          49.350
 109327094.564 9  85189953.83248  20804244.180
  20804240.000          50.850          48.750
 16  2 13  3 54 30.0000000  0 11G01G07G08G11G13G15G17G19G22G28G30
 109833379.732 9  85584456.82749  20900590.400
  20900587.340          50.950          50.100
 116748512.209 8  90972851.43447  22216500.420
  22216495.040          48.700          44.000
 127257994.036 7  99162118.14644  24216373.620
  24216369.920          42.100          34.750
 110525148.502 9  86123496.61848  21032228.000
  21032221.000          50.550          47.600
 125376029.185 7  97695590.88444  23858263.280
  23858257.440          43.600          34.600
 133513453.626 6 104036429.63144  25406765.100
  25406759.940          40.200          33.800
 115446590.795 9  89958348.40448  21968748.100
  21968741.840          50.050          46.950
 122758589.608 8  95656028.24947  23360182.460
  23360175.780          46.000          42.300
 131955325.917 6 102822320.47545  25110266.840
  25110258.500          41.950          38.900
 110733275.280 9  86285655.58149  21071833.020
  21071825.900          50.950          49.600
 109380884.915 9  85231868.38648  20814480.120
  20814475.960          50.900          48.850
 16  2 13  3 55  0.0000000  0 11G01G07G08G11G13G15G17G19G22G28G30
 109832180.719 9  85583522.53749  20900362.180
  20900359.260          50.900          50.200
 116850298.825 8  91052165.65347  22235870.120
  22235864.480          48.300          44.600
 127351725.042 6  99235155.27945  24234210.320
  24234206.400          41.700          36.800
 110573754.464 9  86161371.39648  21041477.340
  21041470.360          50.300          47.550
 125418054.447 7  97728337.78544  23866260.340
  23866254.720          43.550          35.800
 133519870.931 5 104041430.13844  25407986.200
  25407981.200          38.750          35.250
 115387497.312 9  89912301.55648  21957503.000
  21957496.340          50.050          47.000
 122663393.647 8  95581849.62947  23342067.320
  23342060.640          45.700          42.950
 131934744.147 7 102806282.77646  25106350.180
  25106341.800          42.400          40.800
 110696329.974 9  86256867.02749  21064802.580
  21064795.460          50.750          49.600
 109435198.894 9  85274191.00149  20824815.680
  20824811.680          50.700          49.000
 16  2 13  3 55 30.0000000  0 11G01G07G08G11G13G15G17G19G22G28G30
 109831617.203 9  85583083.44649  20900255.000
  20900252.020          50.850          50.000
 116952384.040 8  91131712.53347  22255296.120
  22255290.460          47.200          42.800
 127445474.142 6  99308206.45844  24252050.220
  24252046.320          41.800          34.850
 110622896.463 9  86199663.85648  21050828.660
  21050821.780          50.550          47.200
 125460557.103 7  97761456.74344  23874348.620
  23874342.940          43.700          34.650
 133526780.696 6 104046814.44244  25409301.080
  25409296.280          40.250          34.850
 115328685.383 9  89866474.10748  21946311.400
  21946304.760          49.950          46.850
 122568425.555 8  95507848.54146  23323995.760
  23323988.820          45.200          40.800
 131914583.346 6 102790573.05046  25102513.400
  25102505.460          40.150          39.100
 110659573.762 9  86228225.82549  21057808.100
  21057800.980          50.800          49.700
 109490035.930 9  85316921.18249  20835250.780
  20835247.000          50.800          49.000
 16  2 13  3 56  0.0000000  0 11G01G07G08G11G13G15G17G19G22G28G30
 109831689.602 9  85583139.86549  20900268.800
  20900265.720          51.050          49.850
 117054765.442 8  91211490.20247  22274778.420
  22274772.860          47.900          43.750
 127539241.216 6  99381271.72644  24269893.380
  24269889.800          39.850          34.600
 110672573.459 9  86238373.19848  21060281.820
  21060275.020          50.200          47.150
 125503535.358 7  97794946.25244  23882527.320
  23882521.780          44.300          34.750
 133534182.862 6 104052582.31944  25410709.740
  25410704.960          40.250          32.700
 115270155.691 9  89820866.57648  21935173.560
  21935166.980          50.200          47.050
 122473686.767 8  95434026.12746  23305967.600
  23305960.200          46.100          40.000
 131894845.162 6 102775192.61246  25098757.340
  25098749.580          41.350          40.600
 110623008.274 9  86199733.22949  21050849.980
  21050842.840          50.800          49.350
 109545395.088 9  85360058.19449  20845785.300
  20845781.700          50.950          49.450
