     2.11           OBSERVATION DATA    G (GPS)             RINEX VERSION / TYPE
teqc  2016Nov7      root                20180417 16:16:38UTCPGM / RUN BY / DATE
Linux 2.4.21-27.ELsmp|Opteron|gcc|Linux x86_64|=+           COMMENT
     2.11           OBSERVATION DATA    G (GPS)             COMMENT
teqc  2015Nov6      NOAA/NOS/NGS/CORS   20160214 01:36:16UTCCOMMENT
Solaris x86 5.10|AMD64|cc SC5.8 -xarch=amd64|=+|=+          COMMENT
teqc  2015Nov6      NOAA/NOS/NGS/CORS   20160214 01:35:24UTCCOMMENT
BIT 2 OF LLI FLAGS DATA COLLECTED UNDER A/S CONDITION       COMMENT
 SNR is mapped to RINEX snr flag value [0-9]                COMMENT
  L1 & L2: min(max(int(snr_dBHz/6), 0), 9)                  COMMENT
teqc edited: all SBAS satellites excluded                   COMMENT
teqc edited: all Compass satellites excluded                COMMENT
teqc edited: all QZSS satellites excluded                   COMMENT
Forced Modulo Decimation to 30 seconds                      COMMENT
SBCH                                                        MARKER NAME
SBCH                                                        MARKER NUMBER
Randy Osborne       LASU                                    OBSERVER / AGENCY
5051K72720          TRIMBLE NETR9       5.10                REC # / TYPE / VERS
5000117521          TRM57971.00     NONE                    ANT # / TYPE
    31569.9070 -5535449.0960  3157696.7490                  APPROX POSITION XYZ
        0.0000        0.0000        0.0000                  ANTENNA: DELTA H/E/N
     1     1                                                WAVELENGTH FACT L1/2
     8    L1    L2    C1    C2    P1    P2    S1    S2      # / TYPES OF OBSERV
    30.0000                                                 INTERVAL
teqc.w windowed: start @ 2016 Feb 13 00:00:00.000           COMMENT
teqc.w windowed:  end  @ 2016 Feb 13 05:00:00.000           COMMENT
teqc.w edited: all GLONASS satellites excluded              COMMENT
  2016     2    13     0    50    0.0000000     GPS         TIME OF FIRST OBS
                                                            END OF HEADER
 16  2 13  0 50  0.0000000  0 10G30G07G08G11G16G27G01G28G09G23
 124715056.737 6  97180603.218 6  23732478.250    23732485.203
  23732484.918          39.800          40.300
 113442043.618 7  88396448.043 7  21587282.070    21587285.773
  21587286.277          47.100          44.800
 107624706.673 8  83863508.037 8  20480273.211    20480278.496
  20480278.207          50.400          50.000
 123162236.436 6  95970616.75544  23436980.414
  23436984.277          41.500          24.900
 127759857.231 6  99553224.32243  24311862.398
  24311866.754          38.800          19.600
 114048318.681 7  88868937.486 7  21702645.609    21702650.422
  21702650.082          47.900          46.500
 132119795.764 6 102950529.303 5  25141563.023    25141570.738
  25141572.238          36.400          35.900
 128159026.321 6  99864225.29542  24387848.711
  24387851.332          39.900          16.300
 108781845.096 8  84764939.196 8  20700430.070    20700435.336
  20700435.910          49.100          49.900
 112281306.402 7  87492006.74345  21366399.813
  21366402.195          47.800          35.300
 16  2 13  0 50 30.0000000  0 10G30G07G08G11G16G27G01G28G09G23
 124633013.454 7  97116673.493 6  23716866.625    23716873.559
  23716873.832          42.400          41.800
 113376327.865 7  88345240.998 7  21574776.820    21574780.305
  21574780.617          47.800          45.500
 107630263.002 8  83867837.650 8  20481330.094    20481336.070
  20481335.762          50.300          50.000
 123069981.034 6  95898729.49844  23419425.445
  23419430.379          41.800          27.000
 127844497.666 6  99619177.86543  24327969.438
  24327972.824          38.600          19.900
 114114694.754 8  88920659.098 7  21715276.797    21715281.816
  21715281.898          48.200          46.900
 132038925.800 6 102887513.872 5  25126173.984    25126182.402
  25126182.574          37.100          34.900
 128099963.954 6  99818202.75743  24376609.672
  24376612.730          40.500          20.100
 108803167.369 8  84781553.938 8  20704487.328    20704492.461
  20704493.277          49.300          50.400
 112361354.776 8  87554382.08745  21381632.906
  21381634.801          48.300          35.600
 16  2 13  0 51  0.0000000  0 10G30G07G08G11G16G27G01G28G09G23
 124550943.134 6  97052722.682 6  23701248.508    23701256.406
  23701255.969          39.700          40.400
 113310717.517 8  88294116.084 7  21562291.945    21562294.742
  21562294.738          48.100          45.000
 107636396.290 8  83872616.848 8  20482497.383    20482503.039
  20482502.641          50.500          49.700
 122977800.808 7  95826900.81044  23401884.539
  23401888.902          43.900          27.400
 127929060.571 6  99685071.10143  24344061.875
  24344063.938          41.000          19.600
 114181519.041 8  88972729.968 7  21727993.086    21727998.145
  21727998.406          48.000          47.300
 131957857.314 5 102824343.733 6  25110746.164    25110754.676
  25110755.113          32.400          36.700
 128041087.629 6  99772325.27643  24365404.664
  24365410.621          38.800          20.600
 108825067.108 8  84798618.660 8  20708654.969    20708659.930
  20708660.391          49.600          49.700
 112441810.244 8  87617074.66046  21396943.008
  21396945.109          48.700          36.400
 16  2 13  0 51 30.0000000  0 10G30G07G08G11G16G27G01G28G09G23
 124468846.729 6  96988751.531 6  23685625.828    23685631.883
  23685631.465          41.700          38.700
 113245214.206 7  88243074.585 7  21549826.844    21549829.703
  21549829.508          47.400          45.200
 107643105.701 8  83877844.970 8  20483774.086    20483779.641
  20483779.465          50.800          50.100
 122885698.807 7  95755133.03343  23384357.648
  23384360.652          42.700          23.600
 128013545.464 6  99750903.47843  24360137.688
  24360141.617          38.200          21.700
 114248789.135 7  89025148.217 7  21740793.781    21740799.094
  21740798.984          47.800          47.100
 131876592.613 5 102761020.806 5  25095282.547    25095291.316
  25095291.199          34.600          35.200
 127982397.010 6  99726592.45343  24354236.211
  24354241.586          39.900          19.600
 108847543.543 8  84816132.760 8  20712932.375    20712937.168
  20712937.270          49.200          49.500
 112522670.405 7  87680082.56145  21412330.188
  21412331.887          47.800          35.900
 16  2 13  0 52  0.0000000  0 10G30G07G08G11G16G27G01G28G09G23
 124386725.386 7  96924760.918 6  23669999.922    23670005.785
  23670005.375          43.400          40.200
 113179819.625 7  88192117.798 7  21537382.891    21537386.152
  21537386.293          47.600          45.300
 107650391.195 8  83883521.988 8  20485160.383    20485166.066
  20485165.824          50.800          50.000
 122793677.952 6  95683428.51343  23366845.734
  23366849.145          41.700          23.800
 128097951.765 6  99816674.57743  24376200.188
  24376203.801          40.400          21.100
 114316502.743 8  89077912.067 7  21753679.305    21753684.137
  21753683.637          48.700          46.300
 131795134.364 5 102697546.945 5  25079781.828    25079789.055
  25079789.469          35.800          34.800
 127923892.040 6  99681004.30443  24343104.422
  24343106.793          40.800          18.600
 108870595.927 8  84834095.644 8  20717318.938    20717323.590
  20717323.512          48.500          49.300
 112603932.551 7  87743403.68945  21427793.875
  21427795.250          47.200          35.700
 16  2 13  0 52 30.0000000  0 10G30G07G08G11G16G27G01G28G09G23
 124304579.892 7  96860751.523 7  23654367.531    23654374.859
  23654374.746          42.800          42.300
 113114535.483 7  88141247.065 7  21524959.055    21524962.297
  21524962.754          47.300          45.900
 107658251.558 8  83889646.950 8  20486656.266    20486662.082
  20486661.824          50.000          49.800
 122701741.043 7  95611789.41044  23349352.133
  23349355.957          43.200          27.000
 128182278.820 6  99882383.92843  24392247.836
  24392251.355          40.900          22.300
 114384657.066 7  89131019.337 7  21766649.539    21766654.441
  21766654.055          47.400          47.000
 131713484.578 6 102633923.769 5  25064244.164    25064251.715
  25064250.973          36.500          34.100
 127865571.943 6  99635560.12842  24332006.086
  24332007.152          41.500          17.800
 108894223.166 8  84852506.479 8  20721814.617    20721819.789
  20721819.332          49.200          48.900
 112685593.569 7  87807035.65445  21443334.008
  21443335.453          47.800          35.800
 16  2 13  0 53  0.0000000  0 10G30G07G08G11G16G27G01G28G09G23
 124222410.906 6  96796723.849 6  23638730.898    23638737.602
  23638737.676          41.400          40.900
 113049363.447 7  88090463.695 7  21512557.117    21512560.992
  21512560.844          47.500          45.100
 107666686.216 8  83896219.429 8  20488261.391    20488266.492
  20488266.109          51.300          49.500
 122609890.948 7  95540217.96644  23331873.461
  23331877.758          42.400          26.400
 128266525.798 6  99948030.99443  24408279.242
  24408282.281          38.400          20.600
 114453249.442 8  89184467.938 7  21779701.813    21779707.367
  21779707.520          48.200          47.000
 131631645.255 5 102570153.061 6  25048670.281    25048678.438
  25048678.273          34.900          36.100
 127807436.557 6  99590259.89742  24320941.867
  24320945.695          38.700          17.400
 108918424.177 8  84871364.406 8  20726420.367    20726425.105
  20726424.641          49.800          49.000
 112767650.902 7  87870976.40745  21458948.523
  21458950.219          47.300          35.000
 16  2 13  0 53 30.0000000  0 10G30G07G08G11G16G27G01G28G09G23
 124140219.997 7  96732679.045 6  23623090.625    23623095.793
  23623095.656          42.100          39.700
 112984305.565 7  88039769.290 7  21500177.539    21500180.602
  21500180.309          46.500          45.000
 107675694.948 8  83903239.237 8  20489975.414    20489980.898
  20489980.699          51.300          49.400
 122518131.156 6  95468716.88844  23314411.125
  23314414.230          41.100          25.000
 128350692.166 6 100013615.18843  24424294.148
  24424297.445          39.400          18.600
 114522277.852 7  89238256.297 7  21792836.766    21792842.125
  21792842.406          47.800          47.100
 131549619.418 6 102506236.858 6  25033060.922    25033069.934
  25033069.766          36.900          36.900
 127749485.712 6  99545103.54443  24309915.078
  24309920.410          39.500          21.700
 108943198.479 8  84890669.044 8  20731134.531    20731139.824
  20731139.434          48.900          48.800
 112850102.307 7  87935224.25245  21474638.789
  21474639.570          47.800          35.100
 16  2 13  0 54  0.0000000  0 10G30G07G08G11G16G27G01G28G09G23
 124058007.584 6  96668617.447 6  23607445.977    23607452.715
  23607452.711          41.600          41.300
 112919363.291 8  87989164.936 7  21487819.820    21487822.523
  21487822.734          48.600          45.900
 107685276.149 8  83910705.123 8  20491798.969    20491804.598
  20491803.973          51.000          49.600
 122426464.120 7  95397288.05044  23296968.688
  23296970.504          43.400          25.500
 128434777.103 6 100079135.91343  24440296.813
  24440298.730          40.500          22.200
 114591739.241 8  89292382.057 7  21806055.758    21806060.609
  21806060.418          48.400          46.000
 131467408.959 5 102442176.882 5  25017417.523    25017424.684
  25017425.750          34.400          34.600
 127691718.798 6  99500090.49443  24298922.906
  24298926.844          41.200          20.600
 108968544.579 8  84910419.238 8  20735957.813    20735962.898
  20735962.645          48.500          48.700
 112932944.456 7  87999776.57945  21490402.313
  21490404.559          47.900          35.800
 16  2 13  0 54 30.0000000  0 10G30G07G08G11G16G27G01G28G09G23
 123975775.004 6  96604540.210 6  23591796.445    23591804.504
  23591804.762          39.000          41.700
 112854538.518 7  87938652.150 7  21475483.852    21475486.973
  21475487.176          47.600          46.000
 107695429.817 8  83918617.089 8  20493731.336    20493736.570
  20493736.129          51.200          49.600
 122334892.846 6  95325933.85444  23279541.992
  23279546.863          41.500          26.800
 128518779.652 6 100144592.43243  24456281.711
  24456285.336          40.200          21.800
 114661631.380 8  89346843.474 7  21819355.406    21819360.512
  21819360.121          48.200          46.400
 131385016.250 5 102377974.869 5  25001736.859    25001746.711
  25001747.172          32.400          35.900
 127634135.611 6  99455220.56643  24287964.625
  24287967.629          40.100          19.600
 108994461.799 7  84930614.454 8  20740889.531    20740895.129
  20740895.504          47.500          49.400
 113016175.028 7  88064631.53845  21506240.555
  21506243.184          46.100          35.300
 16  2 13  0 55  0.0000000  0 10G30G07G08G11G16G27G01G28G09G23
 123893523.294 6  96540448.089 6  23576145.281    23576153.043
  23576152.793          40.800          41.900
 112789833.196 7  87888232.465 7  21463169.969    21463173.613
  21463173.922          47.000          45.800
 107706154.897 8  83926974.314 8  20495771.844    20495777.375
  20495776.695          51.200          49.600
 122243420.666 6  95254656.92444  23262135.719
  23262139.980          41.300          26.000
 128602700.042 6 100209984.89643  24472249.953
  24472254.492          37.900          19.300
 114731951.831 8  89401638.631 7  21832736.906    21832742.313
  21832742.457          48.000          46.700
 131302444.023 6 102313632.916 5  24986025.703    24986032.289
  24986033.230          37.900          33.600
 127576735.751 6  99410493.46143  24277041.633
  24277043.367          38.700          19.600
 109020949.186 7  84951253.961 8  20745929.820    20745935.246
  20745935.602          47.800          49.500
 113099791.305 8  88129787.06845  21522152.695
  21522154.473          48.900          35.300
 16  2 13  0 55 30.0000000  0 10G30G07G08G11G16G27G01G28G09G23
 123811253.285 7  96476341.627 6  23560489.641    23560496.020
  23560495.230          42.900          39.000
 112725248.827 7  87837907.028 7  21450880.453    21450883.602
  21450883.414          47.400          45.200
 107717450.623 8  83935776.196 8  20497921.867    20497927.129
  20497926.586          51.300          49.800
 122152050.289 7  95183459.25844  23244749.383
  23244751.750          43.600          26.100
 128686537.199 6 100275312.56043  24488204.125
  24488206.523          39.600          19.600
 114802697.750 8  89456765.306 7  21846199.727    21846204.141
  21846204.602          48.100          46.900
 131219694.420 6 102249152.794 6  24970278.359    24970287.719
  24970287.914          36.900          37.600
 127519518.525 6  99365908.71343  24266153.180
  24266156.871          40.500          20.400
 109048005.512 8  84972336.804 8  20751078.969    20751084.020
  20751084.430          48.800          50.000
 113183790.319 7  88195240.83445  21538136.828
  21538138.441          47.400          34.600
 16  2 13  0 56  0.0000000  0 10G30G07G08G11G16G27G01G28G09G23
 123728965.791 6  96412221.528 6  23544830.789    23544838.012
  23544837.262          40.900          40.500
 112660786.830 7  87787676.911 7  21438613.508    21438616.465
  21438615.797          47.800          44.600
 107729315.808 8  83945021.808 8  20500179.313    20500184.871
  20500184.230          51.400          49.500
 122060784.578 7  95112343.11544  23227381.750
  23227384.012          42.400          25.100
 128770290.090 6 100340574.59043  24504142.852
  24504145.164          41.200          21.300
 114873866.424 8  89512221.406 7  21859742.438    21859747.273
  21859747.195          48.300          45.700
 131136769.653 5 102184536.195 5  24954497.781    24954505.793
  24954507.289          35.200          35.500
 127462483.417 6  99321465.85943  24255300.141
  24255304.613          41.100          21.100
 109075629.465 7  84993861.948 8  20756335.063    20756340.070
  20756340.523          47.800          48.800
 113268169.210 8  88260990.58645  21554193.977
  21554196.105          48.600          35.000
 16  2 13  0 56 30.0000000  0 10G30G07G08G11G16G27G01G28G09G23
 123646662.452 7  96348089.171 7  23529169.164    23529176.836
  23529177.250          42.300          43.000
 112596449.703 7  87737544.096 7  21426371.039    21426373.945
  21426373.996          47.900          45.200
 107741750.439 8  83954711.137 8  20502545.570    20502550.680
  20502550.078          51.100          49.800
 121969627.011 6  95041311.31544  23210034.289
  23210038.660          40.800          25.600
 128853959.005 6 100405771.15043  24520063.500
  24520067.363          38.900          20.400
 114945455.879 8  89568005.418 7  21873365.281    21873370.496
  21873369.848          48.400          46.100
 131053672.792 6 102119785.464 5  24938685.555    24938693.594
  24938693.926          36.900          34.700
 127405630.781 6  99277165.21043  24244480.844
  24244484.945          39.500          19.600
 109103820.561 8  85015829.021 8  20761700.000    20761705.191
  20761705.371          48.300          49.500
 113352925.614 7  88327034.52345  21570322.359
  21570324.543          47.600          34.900
 16  2 13  0 57  0.0000000  0 10G30G07G08G11G16G27G01G28G09G23
 123564343.743 7  96283944.812 7  23513504.648    23513511.621
  23513511.477          44.200          42.000
 112532238.787 7  87687509.646 7  21414151.727    21414155.090
  21414155.773          47.600          45.600
 107754752.866 8  83964842.927 8  20505019.891    20505025.109
  20505024.668          51.200          49.100
 121878580.130 7  94970365.76744  23192709.953
  23192712.672          43.900          28.700
 128937542.553 6 100470901.13543  24535968.125
  24535973.191          38.600          18.300
 115017462.942 7  89624114.814 7  21887067.719    21887073.023
  21887072.859          47.200          47.300
 130970405.652 6 102054902.025 5  24922840.719    24922846.359
  24922847.508          38.900          33.200
 127348959.498 6  99233005.85143  24233696.055
  24233699.930          39.100          20.100
 109132577.129 8  85038236.730 8  20767172.180    20767177.324
  20767177.023          48.600          49.100
 113438056.495 7  88393370.24045  21586522.063
  21586523.414          47.900          34.200
 16  2 13  0 57 30.0000000  0 10G30G07G08G11G16G27G01G28G09G23
 123482011.189 7  96219789.624 6  23497835.750    23497843.883
  23497842.652          42.000          39.800
 112468156.363 8  87637575.350 7  21401957.813    21401960.652
  21401961.273          48.000          46.100
 107768322.730 8  83975416.867 8  20507602.258    20507607.750
  20507607.191          51.100          49.400
 121787647.117 7  94899508.87844  23175405.258
  23175407.258          42.600          26.700
 129021040.762 6 100535964.65043  24551858.664
  24551861.453          40.500          19.900
 115089885.478 7  89680547.945 7  21900849.547    21900854.887
  21900855.258          47.800          47.100
 130886971.144 6 101989888.100 6  24906963.414    24906971.215
  24906971.719          37.800          37.000
 127292469.583 6  99188987.78843  24222946.547
  24222949.473          39.700          20.100
 109161898.436 8  85061084.486 8  20772751.836    20772757.148
  20772756.781          48.100          48.900
 113523559.301 8  88459995.79745  21602793.523
  21602795.305          48.300          34.800
 16  2 13  0 58  0.0000000  0 10G30G07G08G11G16G27G01G28G09G23
 123399665.412 7  96155624.142 6  23482166.586    23482173.441
  23482172.512          42.100          40.300
 112404203.865 8  87587742.259 7  21389787.586    21389790.680
  21389790.793          49.000          45.500
 107782458.779 8  83986431.974 8  20510292.164    20510297.090
  20510296.637          50.600          49.500
 121696830.732 7  94828742.89844  23158121.867
  23158125.371          42.200          25.600
 129104452.356 6 100600960.78043  24567730.703
  24567733.402          38.800          19.300
 115162720.499 7  89737302.497 7  21914709.445    21914714.262
  21914714.336          47.300          46.600
 130803371.203 6 101924745.434 6  24891054.047    24891063.066
  24891062.594          36.600          39.100
 127236160.186 6  99145110.43443  24212230.844
  24212234.805          38.800          20.900
 109191782.971 8  85084371.124 8  20778438.391    20778443.992
  20778443.398          49.000          49.000
 113609430.749 8  88526908.59645  21619133.797
  21619136.063          48.200          35.000
 16  2 13  0 58 30.0000000  0 10G30G07G08G11G16G27G01G28G09G23
 123317308.136 7  96091449.716 7  23466495.438    23466502.340
  23466502.531          44.500          42.100
 112340383.645 8  87538012.231 7  21377643.500    21377645.770
  21377645.184          49.000          45.000
 107797160.661 8  83997888.003 8  20513089.898    20513095.051
  20513094.594          50.800          49.500
 121606134.574 7  94758070.64344  23140864.539
  23140868.945          42.200          27.200
 129187777.767 6 100665889.66043  24583586.961
  24583590.371          38.600          18.300
 115235965.944 7  89794376.884 7  21928647.609    21928653.055
  21928652.355          47.500          45.500
 130719609.083 6 101859476.362 6  24875116.000    24875123.547
  24875123.992          38.900          36.700
 127180031.601 6  99101373.98743  24201549.539
  24201554.195          39.400          19.600
 109222230.118 8  85108096.169 8  20784232.344    20784238.078
  20784237.723          48.500          49.100
 113695669.069 7  88594107.25145  21635544.070
  21635546.016          47.300          34.200
 16  2 13  0 59  0.0000000  0 10G30G07G08G11G16G27G01G28G09G23
 123234939.562 7  96027266.499 7  23450820.367    23450828.051
  23450828.059          43.000          42.200
 112276696.887 7  87488386.207 7  21365523.563    21365526.430
  21365525.930          47.900          45.500
 107812426.404 8  84009783.395 8  20515994.281    20515999.805
  20515999.367          50.900          48.900
 121515560.684 7  94687493.59644  23123629.500
  23123632.012          42.600          27.900
 129271015.409 6 100730750.10843  24599426.289
  24599430.098          37.800          19.000
 115309618.419 7  89851768.420 7  21942663.258    21942668.723
  21942668.320          46.900          46.300
 130635686.384 6 101794082.015 5  24859146.109    24859152.566
  24859153.078          39.700          33.600
 127124082.451 6  99057777.36643  24190903.430
  24190906.898          39.200          19.600
 109253237.746 8  85132257.943 8  20790133.289    20790138.129
  20790138.313          48.900          50.000
 113782270.071 7  88661588.55445  21652024.484
  21652025.461          47.800          35.800
 16  2 13  0 59 30.0000000  0 10G30G07G08G11G16G27G01G28G09G23
 123152561.144 7  95963075.618 6  23435143.547    23435150.855
  23435150.262          42.100          39.900
 112213145.480 8  87438865.664 7  21353430.508    21353433.426
  21353433.547          48.600          45.900
 107828255.720 8  84022117.934 8  20519006.680    20519012.848
  20519012.090          50.300          49.400
 121425113.087 6  94617014.98844  23106416.266
  23106418.977          41.300          26.900
 129354165.185 6 100795542.19543  24615250.461
  24615252.555          40.700          19.600
 115383675.717 7  89909475.392 7  21956756.258    21956761.340
  21956761.730          47.400          46.800
 130551605.872 5 101728564.769 6  24843144.219    24843154.000
  24843153.684          34.900          38.900
 127068312.871 6  99014320.60243  24180290.898
  24180293.840          39.400          19.300
 109284805.086 8  85156855.860 8  20796140.063    20796145.375
  20796145.598          49.600          50.000
 113869231.555 7  88729350.72845  21668572.109
  21668574.715          47.200          34.900
 16  2 13  1  0  0.0000000  0 10G30G07G08G11G16G27G01G28G09G23
 123070174.051 7  95898877.896 6  23419467.258    23419472.508
  23419472.023          44.200          40.800
 112149731.396 8  87389452.126 7  21341363.789    21341366.223
  21341366.777          48.700          46.100
 107844647.406 8  84034890.719 8  20522125.891    20522131.586
  20522131.090          50.000          48.800
 121334794.254 7  94546636.71044  23089229.781
  23089232.578          42.500          26.200
 129437226.384 6 100860265.23943  24631055.789
  24631058.918          38.700          19.000
 115458135.099 7  89967495.684 7  21970924.898    21970930.277
  21970930.547          47.300          45.400
 130467370.066 6 101662926.615 6  24827115.352    24827123.977
  24827124.477          36.000          38.000
 127012722.191 6  98971003.23343  24169711.875
  24169715.172          38.800          19.600
 109316930.853 8  85181888.916 8  20802253.750    20802258.840
  20802259.379          48.800          49.800
 113956550.698 8  88797391.57345  21685188.719
  21685190.191          48.300          34.400
 16  2 13  1  0 30.0000000  0 10G30G07G08G11G16G27G01G28G09G23
 122987779.605 7  95834674.489 7  23403787.719    23403794.754
  23403794.938          43.200          43.100
 112086457.033 8  87340147.466 7  21329322.578    21329325.172
  21329325.652          49.300          46.100
 107861600.534 8  84048100.958 8  20525351.961    20525357.371
  20525356.941          50.200          48.700
 121244607.367 7  94476361.25744  23072068.336
  23072071.934          43.300          26.700
 129520198.848 6 100924919.09642  24646844.070
  24646848.281          39.000          17.400
 115532994.218 7  90025827.463 7  21985169.781    21985174.871
  21985174.504          46.600          45.100
 130382981.753 6 101597169.570 6  24811058.180    24811065.254
  24811065.148          39.200          38.100
 126957310.156 6  98927825.12943  24159166.547
  24159171.918          38.800          20.100
 109349613.965 8  85207356.253 8  20808472.828    20808478.391
  20808479.145          48.700          49.900
 114044224.843 8  88865709.09445  21701873.047
  21701873.656          48.400          34.700
 16  2 13  1  1  0.0000000  0 10G30G07G08G11G16G27G01G28G09G23
 122905378.655 7  95770466.058 7  23388106.500    23388114.977
  23388114.625          42.300          42.500
 112023323.616 8  87290952.622 7  21317308.117    21317311.129
  21317310.906          48.300          45.300
 107879114.220 8  84061748.003 8  20528684.711    20528690.199
  20528689.480          49.600          49.100
 121154555.458 6  94406190.98644  23054930.844
  23054934.961          41.700          25.900
 129603081.619 6 100989503.02243  24662617.188
  24662619.895          40.800          19.600
 115608250.175 7  90084468.471 7  21999491.086    21999495.813
  21999495.316          47.100          46.100
 130298443.284 6 101531295.504 6  24794970.078    24794978.398
  24794978.613          37.000          37.100
 126902075.815 6  98884785.50943  24148656.852
  24148660.707          40.200          21.100
 109382852.862 8  85233256.676 8  20814797.797    20814803.742
  20814804.039          49.100          49.200
 114132251.006 7  88934300.89545  21718622.836
  21718625.707          46.900          34.900
 16  2 13  1  1 30.0000000  0 10G30G07G08G11G16G27G01G28G09G23
 122822972.156 7  95706253.277 6  23372426.141    23372432.070
  23372431.484          43.800          40.100
 111960332.760 8  87241868.865 7  21305321.602    21305324.434
  21305323.883          48.500          45.000
 107897186.596 8  84075830.383 8  20532123.234    20532128.828
  20532128.273          49.400          49.100
 121064641.086 7  94336127.88744  23037821.523
  23037822.961          42.600          26.200
 129685874.462 6 101054016.95043  24678372.070
  24678374.277          40.800          18.300
 115683900.106 7  90143416.475 7  22013886.766    22013891.973
  22013892.320          47.600          46.300
 130213756.819 5 101465306.062 5  24778853.469    24778860.344
  24778861.215          35.800          33.700
 126847019.005 6  98841884.20143  24138179.984
  24138183.109          41.400          20.400
 109416646.006 8  85259588.980 8  20821228.891    20821233.941
  20821233.828          48.600          49.600
 114220625.857 7  89003164.39545  21735441.258
  21735442.645          47.300          34.200
 16  2 13  1  2  0.0000000  0 10G30G07G08G11G16G27G01G28G09G23
 122740561.781 7  95642037.391 6  23356744.008    23356749.926
  23356749.277          43.400          40.900
 111897487.208 8  87192898.326 7  21293362.883    21293365.449
  21293365.164          48.200          45.700
 107915817.578 8  84090348.044 8  20535669.297    20535674.723
  20535674.043          49.900          48.900
 120974868.144 7  94266174.95644  23020738.109
  23020740.555          43.900          28.100
 129768577.321 6 101118460.79742  24694109.367
  24694111.699          38.200          16.300
 115759941.823 7  90202669.739 7  22028356.578    22028362.223
  22028362.547          46.900          46.000
 130128925.395 6 101399203.753 6  24762712.375    24762720.383
  24762720.543          39.200          39.300
 126792139.539 6  98799121.01243  24127735.539
  24127739.184          40.100          19.900
 109450992.509 8  85286352.471 8  20827764.969    20827770.441
  20827769.824          48.900          48.200
 114309347.420 7  89072298.06745  21752323.742
  21752325.008          47.500          34.200
 16  2 13  1  2 30.0000000  0 10G30G07G08G11G16G27G01G28G09G23
 122658148.029 6  95577818.951 7  23341059.492    23341067.652
  23341067.391          40.400          42.800
 111834788.009 7  87144041.841 7  21281430.969    21281434.012
  21281434.211          47.800          45.300
 107935005.180 8  84105299.427 8  20539320.016    20539325.844
  20539325.348          49.800          49.000
 120885238.893 7  94196334.01144  23003681.953
  23003686.133          42.700          26.900
 129851188.664 6 101182833.22242  24709829.852
  24709833.086          37.700          17.400
 115836372.114 7  90262225.798 7  22042901.148    22042905.531
  22042905.309          47.500          44.900
 130043951.107 6 101332990.114 6  24746542.281    24746550.512
  24746550.820          39.200          39.900
 126737436.175 6  98756495.11643  24117325.711
  24117329.363          39.800          19.000
 109485890.330 8  85313545.588 8  20834405.922    20834410.730
  20834410.324          50.100          48.900
 114398412.001 7  89141699.02845  21769272.109
  21769274.168          47.600          34.600
 16  2 13  1  3  0.0000000  0 10G30G07G08G11G16G27G01G28G09G23
 122575732.576 7  95513599.215 7  23325377.836    23325384.195
  23325384.758          42.800          42.900
 111772237.720 7  87095301.386 7  21269528.313    21269531.348
  21269531.676          47.300          46.000
 107954748.625 8  84120683.947 8  20543077.195    20543082.734
  20543082.461          50.200          49.200
 120795756.816 7  94126607.76644  22986653.859
  22986657.785          42.600          26.500
 129933708.806 6 101247134.61343  24725532.938
  24725536.500          40.000          20.400
 115913188.826 7  90322083.007 7  22057518.805    22057523.746
  22057522.801          47.300          45.100
 129958836.924 6 101266667.471 6  24730344.336    24730352.723
  24730353.035          36.600          36.000
 126682909.072 6  98714006.56643  24106950.414
  24106954.664          41.400          20.900
 109521338.739 8  85341167.728 8  20841151.352    20841156.617
  20841156.492          49.900          49.500
 114487817.308 7  89211365.47745  21786285.773
  21786288.117          47.800          34.400
 16  2 13  1  3 30.0000000  0 10G30G07G08G11G16G27G01G28G09G23
 122493316.458 7  95449378.923 6  23309694.305    23309700.676
  23309699.949          44.000          40.900
 111709838.131 7  87046678.366 7  21257653.734    21257656.406
  21257656.395          47.000          45.200
 107975046.806 8  84136500.726 8  20546939.789    20546945.184
  20546944.906          50.200          49.100
 120706424.718 7  94056998.37244  22969656.016
  22969656.801          43.900          26.700
 130016137.151 6 101311364.48343  24741218.773
  24741222.625          36.700          18.300
 115990389.011 7  90382239.002 7  22072209.016    22072214.836
  22072214.949          47.200          46.200
 129873585.103 6 101200237.528 5  24714122.109    24714128.551
  24714129.234          36.900          34.800
 126628557.368 6  98671654.66943  24096608.500
  24096611.992          41.400          22.800
 109557335.901 8  85369217.456 8  20848000.766    20848006.543
  20848006.750          50.100          49.900
 114577559.988 7  89281294.80645  21803363.102
  21803364.184          47.400          33.500
 16  2 13  1  4  0.0000000  0 10G30G07G08G11G16G27G01G28G09G23
 122410900.680 6  95385158.841 6  23294010.344    23294017.418
  23294016.070          41.800          40.900
 111647590.865 8  86998174.016 7  21245808.898    21245811.563
  21245811.305          48.000          45.400
 107995898.276 8  84152748.634 8  20550907.922    20550913.098
  20550912.637          50.500          48.700
 120617245.881 7  93987508.37844  22952684.398
  22952687.273          43.400          26.800
 130098473.084 6 101375522.31642  24756886.000
  24756889.188          36.500          16.300
 116067969.914 7  90442691.621 7  22086972.656    22086977.711
  22086978.191          47.200          46.200
 129788198.382 6 101133702.405 6  24697873.648    24697881.051
  24697881.133          37.700          38.100
 126574380.405 6  98629438.93443  24086297.984
  24086302.156          40.500          20.900
 109593880.378 8  85397693.656 8  20854955.414    20854960.660
  20854961.508          49.700          49.300
 114667637.098 7  89351484.76345  21820504.539
  21820505.637          47.200          33.700
 16  2 13  1  4 30.0000000  0 10G30G07G08G11G16G27G01G28G09G23
 122328486.658 7  95320940.187 6  23278328.055    23278334.973
  23278335.105          44.000          41.800
 111585498.043 7  86949790.023 7  21233992.875    21233995.617
  21233995.074          47.500          46.100
 108017302.072 8  84169426.942 8  20554980.797    20554986.723
  20554986.234          50.300          49.000
 120528223.161 7  93918140.08044  22935743.188
  22935747.543          43.200          25.800
 130180715.986 6 101439607.72742  24772537.383
  24772538.617          38.400          16.300
 116145929.038 7  90503438.988 7  22101807.961    22101812.297
  22101811.770          47.000          45.100
 129702679.329 5 101067064.263 6  24681598.969    24681607.918
  24681608.398          34.600          40.500
 126520378.049 6  98587359.27843  24076020.141
  24076024.340          38.500          19.000
 109630970.864 8  85426595.310 8  20862013.570    20862019.152
  20862019.910          49.700          49.700
 114758045.822 7  89421933.09745  21837708.406
  21837711.109          46.700          34.300
 16  2 13  1  5  0.0000000  0 10G30G07G08G11G16G27G01G28G09G23
 122246075.540 7  95256723.801 7  23262646.352    23262652.773
  23262653.004          44.900          43.000
 111523561.653 7  86901527.935 7  21222206.484    21222209.246
  21222209.480          46.900          45.700
 108039256.958 8  84186534.654 8  20559158.563    20559164.121
  20559163.828          50.200          49.100
 120439359.637 7  93848895.81844  22918834.008
  22918837.449          42.200          26.500
 130262865.742 6 101503620.54443  24788170.203
  24788173.379          38.100          18.300
 116224263.602 7  90564478.941 7  22116714.016    22116719.453
  22116718.266          46.900          45.000
 129617030.505 5 101000325.063 6  24665299.852    24665308.297
  24665308.719          34.300          37.300
 126466549.796 6  98545415.27043  24065778.758
  24065781.016          39.700          19.300
 109668605.761 8  85455921.189 8  20869175.297    20869180.570
  20869181.012          50.000          50.200
 114848783.557 7  89492637.78345  21854975.320
  21854977.297          46.800          33.700
 16  2 13  1  5 30.0000000  0 10G30G07G08G11G16G27G01G28G09G23
 122163668.523 7  95192510.605 6  23246964.258    23246969.977
  23246969.980          42.600          41.700
 111461783.602 7  86853389.231 7  21210450.578    21210453.512
  21210453.512          47.600          46.000
 108061761.693 8  84204070.820 8  20563441.383    20563446.480
  20563446.113          50.200          49.300
 120350658.422 7  93779778.01744  22901954.375
  22901957.461          43.600          26.200
 130344921.951 6 101567560.38642  24803784.805
  24803788.688          37.500          17.800
 116302970.868 7  90625809.266 7  22131692.180    22131697.586
  22131697.660          47.200          46.600
 129531254.501 6 100933486.656 6  24648978.969    24648985.332
  24648985.980          38.100          36.400
 126412894.726 6  98503606.19143  24055568.617
  24055571.789          40.900          21.800
 109706783.476 8  85485670.053 8  20876440.539    20876445.488
  20876445.383          50.500          49.300
 114939847.288 7  89563596.54845  21872304.539
  21872304.559          47.500          33.600
 16  2 13  1  6  0.0000000  0 10G30G07G08G11G16G27G01G28G09G23
 122081266.820 7  95128301.522 6  23231283.836    23231289.543
  23231288.895          42.200          40.800
 111400165.780 7  86805375.369 7  21198725.352    21198728.207
  21198728.074          47.600          45.200
 108084814.947 8  84222034.413 8  20567828.195    20567833.469
  20567832.973          49.200          50.000
 120262122.557 7  93710789.04244  22885106.391
  22885110.352          43.700          28.700
 130426884.386 6 101631427.19642  24819381.469
  24819385.164          36.900          14.800
 116382048.229 7  90687427.978 7  22146740.148    22146745.270
  22146745.691          47.600          46.700
 129445354.067 6 100866551.221 6  24632631.211    24632639.527
  24632639.305          36.400          37.000
 126359412.282 6  98461931.65343  24045390.977
  24045394.754          40.900          22.500
 109745502.540 8  85515840.757 8  20883808.633    20883813.766
  20883813.426          49.100          48.800
 115031234.089 7  89634807.02545  21889693.859
  21889696.750          45.800          33.500
 16  2 13  1  6 30.0000000  0 10G30G07G08G11G16G27G01G28G09G23
 121998871.774 7  95064097.632 7  23215605.055    23215611.063
  23215610.563          43.100          42.200
 111338710.134 7  86757487.866 7  21187030.172    21187033.449
  21187033.188          46.100          45.800
 108108415.519 8  84240424.481 8  20572319.047    20572324.926
  20572324.551          48.200          49.100
 120173755.046 7  93641931.29644  22868291.688
  22868294.965          43.900          28.600
 130508752.310 6 101695220.49942  24834960.805
  24834962.461          38.700          16.300
 116461493.027 7  90749332.998 7  22161857.500    22161862.797
  22161862.602          47.300          45.900
 129359331.656 5 100799520.895 6  24616260.977    24616270.316
  24616270.379          34.600          38.400
 126306102.086 6  98420391.36043  24035244.781
  24035249.316          39.000          19.600
 109784761.457 8  85546432.122 8  20891279.141    20891284.281
  20891283.727          48.900          49.300
 115122941.187 7  89706267.05545  21907146.086
  21907148.398          47.500          34.200
 16  2 13  1  7  0.0000000  0 10G30G07G08G11G16G27G01G28G09G23
 121916484.205 7  94999899.603 7  23199925.438    23199933.316
  23199932.926          43.200          42.800
 111277418.399 7  86709728.101 7  21175367.063    21175370.160
  21175370.262          47.400          45.600
 108132561.581 8  84259239.608 8  20576913.766    20576919.293
  20576918.633          49.500          49.400
 120085558.648 7  93573206.85544  22851507.328
  22851510.398          42.600          27.600
 130590524.925 6 101758939.36742  24850520.977
  24850523.758          36.400          16.900
 116541302.105 7  90811521.908 7  22177044.852    22177049.840
  22177048.727          47.100          44.600
 129273189.808 6 100732397.450 6  24599870.484    24599877.602
  24599878.059          36.900          37.800
 126252963.454 6  98378984.67743  24025133.539
  24025137.066          40.600          20.900
 109824558.183 8  85577442.550 8  20898852.531    20898857.730
  20898857.445          50.400          49.600
 115214965.027 7  89777973.94645  21924656.805
  21924657.785          46.700          33.000
 16  2 13  1  7 30.0000000  0 10G30G07G08G11G16G27G01G28G09G23
 121834105.737 7  94935708.661 7  23184249.906    23184256.887
  23184256.316          42.100          42.000
 111216293.161 7  86662098.079 7  21163735.195    21163737.855
  21163738.445          47.500          45.900
 108157252.457 8  84278479.261 8  20581612.102    20581618.047
  20581617.598          49.600          49.400
 119997536.695 7  93504618.34444  22834757.563
  22834760.395          44.700          28.200
 130672202.348 5 101822584.02042  24866063.500
  24866067.621          35.400          17.400
 116621473.135 7  90873992.850 7  22192300.805    22192306.445
  22192306.375          47.400          45.900
 129186931.382 6 100665183.122 5  24583455.281    24583462.246
  24583462.352          36.900          35.400
 126199996.169 7  98337711.51843  24015055.242
  24015057.723          42.000          20.600
 109864891.520 8  85608871.104 8  20906527.102    20906532.641
  20906533.141          49.600          49.400
 115307303.067 7  89849925.65045  21942228.492
  21942230.711          47.200          32.900
 16  2 13  1  8  0.0000000  0 10G30G07G08G11G16G27G01G28G09G23
 121751737.692 7  94871525.785 7  23168576.109    23168582.164
  23168581.559          44.600          42.000
 111155335.853 7  86614598.898 7  21152135.711    21152138.102
  21152138.445          47.600          46.400
 108182486.459 8  84298142.127 8  20586413.977    20586419.801
  20586419.188          48.800          48.800
 119909692.420 7  93436168.29644  22818040.961
  22818045.355          43.800          29.000
 130753784.156 6 101886154.26043  24881588.641
  24881592.273          37.900          18.600
 116702003.404 7  90936743.683 7  22207624.672    22207631.164
  22207631.867          46.900          46.000
 129100559.074 6 100597880.053 5  24567019.359    24567027.324
  24567027.125          36.700          35.900
 126147199.483 6  98296571.32343  24005008.023
  24005011.156          40.900          22.200
 109905759.825 8  85640716.515 8  20914304.477    20914309.531
  20914310.250          50.300          50.000
 115399952.080 7  89922119.66145  21959859.266
  21959862.086          47.500          33.700
 16  2 13  1  8 30.0000000  0 10G30G07G08G11G16G27G01G28G09G23
 121669381.331 7  94807352.040 7  23152903.938    23152910.664
  23152910.543          43.100          42.800
 111094548.574 7  86567232.215 7  21140568.188    21140571.016
  21140570.898          47.700          45.800
 108208262.541 8  84318227.402 8  20591319.188    20591324.914
  20591324.629          49.100          48.900
 119822028.795 7  93367859.01044  22801359.375
  22801363.609          42.900          28.500
 130835269.962 6 101949649.65542  24897095.172
  24897097.734          39.200          14.800
 116782890.243 7  90999772.365 7  22223017.445    22223022.707
  22223022.773          47.200          45.300
 129014075.550 6 100530490.383 6  24550562.352    24550570.145
  24550569.934          36.500          38.600
 126094572.949 6  98255563.72343  23994991.789
  23994997.340          40.500          20.900
 109947161.432 8  85672977.495 8  20922183.227    20922188.180
  20922188.637          50.800          49.300
 115492909.414 7  89994553.91645  21977548.148
  21977549.711          45.900          32.100
 16  2 13  1  9  0.0000000  0 10G30G07G08G11G16G27G01G28G09G23
 121587037.608 7  94743188.197 7  23137234.000    23137241.664
  23137241.398          42.300          43.000
 111033933.257 7  86519999.514 7  21129033.734    21129036.148
  21129035.938          47.200          45.700
 108234578.813 8  84338733.595 8  20596326.656    20596333.219
  20596332.516          49.600          49.100
 119734548.450 7  93299692.55844  22784712.570
  22784715.352          44.300          28.800
 130916659.169 6 102013069.80942  24912582.977
  24912585.137          37.000          14.800
 116864130.490 7  91063076.479 7  22238476.859    22238482.590
  22238481.770          47.500          44.800
 128927483.182 6 100463015.900 6  24534084.469    24534092.176
  24534092.500          38.400          38.400
 126042115.432 6  98214687.84843  23985010.281
  23985013.953          40.600          20.900
 109989094.357 8  85705652.494 8  20930162.258    20930167.613
  20930167.758          50.200          48.600
 115586171.837 7  90067225.93145  21995295.672
  21995297.219          47.200          33.900
 16  2 13  1  9 30.0000000  0 10G30G07G08G11G16G27G01G28G09G23
 121504708.283 7  94679035.519 7  23121568.125    23121574.457
  23121573.605          43.900          42.300
 110973492.402 7  86472902.766 7  21117531.766    21117534.504
  21117534.648          47.700          46.800
 108261434.173 8  84359659.861 8  20601437.281    20601443.277
  20601442.543          48.800          49.600
 119647255.291 7  93231671.90744  22768101.867
  22768103.551          44.600          29.000
 130997952.108 6 102076414.96743  24928051.703
  24928055.703          38.900          18.300
 116945721.989 7  91126654.285 7  22254003.438    22254008.996
  22254009.059          47.500          46.100
 128840785.096 6 100395458.956 5  24517585.648    24517592.703
  24517592.875          36.500          34.600
 125989826.887 6  98173943.57343  23975060.484
  23975062.938          41.700          19.900
 110031557.360 8  85738740.555 8  20938243.109    20938247.875
  20938247.453          50.200          48.300
 115679736.579 7  90140133.50745  22013100.172
  22013103.094          47.000          33.200
 16  2 13  1 10  0.0000000  0 10G30G07G08G11G16G27G01G28G09G23
 121422394.168 7  94614894.667 6  23105903.781    23105909.746
  23105909.059          43.600          41.900
 110913227.332 7  86425942.994 7  21106063.586    21106066.859
  21106067.398          47.000          46.400
 108288827.017 8  84381004.948 8  20606649.953    20606655.828
  20606655.352          48.200          49.100
 119560151.449 7  93163798.79144  22751525.656
  22751529.734          43.200          29.900
 131079147.610 6 102139684.14043  24943503.547
  24943507.078          38.300          18.600
 117027661.417 7  91190503.151 7  22269596.086    22269601.852
  22269602.367          47.600          46.200
 128753983.431 5 100327821.338 6  24501068.180    24501075.645
  24501075.344          35.500          37.600
 125937706.057 6  98133329.95943  23965142.156
  23965143.836          40.800          19.900
 110074548.142 8  85772239.861 8  20946423.508    20946428.824
  20946428.238          50.000          48.500
 115773600.499 7  90213274.19445  22030961.719
  22030964.195          46.400          31.800
 16  2 13  1 10 30.0000000  0 10G30G07G08G11G16G27G01G28G09G23
 121340097.194 7  94550767.228 7  23090243.125    23090250.234
  23090250.129          42.800          43.500
 110853140.608 7  86379122.206 7  21094629.578    21094632.328
  21094632.688          47.600          46.300
 108316756.130 8  84402767.898 8  20611964.594    20611970.586
  20611970.152          49.500          49.400
 119473240.853 7  93096076.31444  22734986.703
  22734992.066          43.000          29.700
 131160245.799 5 102202877.50342  24958935.391
  24958939.313          35.400          16.900
 117109946.683 8  91254621.540 7  22285254.500    22285259.289
  22285259.375          48.200          45.400
 128667081.730 6 100260105.797 6  24484531.734    24484539.172
  24484539.754          37.700          38.100
 125885753.298 6  98092847.37243  23955255.547
  23955258.551          40.800          21.500
 110118065.652 8  85806149.592 8  20954704.797    20954709.594
  20954709.746          50.200          49.200
 115867761.045 7  90286646.06445  22048880.148
  22048881.180          47.300          32.500
 16  2 13  1 11  0.0000000  0 10G30G07G08G11G16G27G01G28G09G23
 121257818.183 7  94486653.788 7  23074586.563    23074593.566
  23074593.266          43.700          42.900
 110793233.985 7  86332441.748 7  21083229.672    21083232.473
  21083232.477          46.900          46.300
 108345219.905 8  84424947.480 8  20617381.180    20617387.387
  20617387.031          49.400          50.000
 119386526.095 7  93028506.42445  22718486.656
  22718489.543          45.000          31.200
 131241246.466 5 102265994.90542  24974349.391
  24974352.609          35.500          16.300
 117192574.560 7  91319006.926 7  22300977.547    22300982.680
  22300982.539          47.600          44.900
 128580082.047 5 100192313.928 6  24467974.773    24467983.707
  24467983.672          35.700          38.600
 125833967.283 6  98052494.72143  23945400.344
  23945404.777          40.000          22.500
 110162107.596 8  85840467.975 8  20963085.758    20963090.621
  20963090.961          50.500          49.300
 115962214.799 7  90360246.37145  22066853.703
  22066856.625          45.800          31.900
 16  2 13  1 11 30.0000000  0 10G30G07G08G11G16G27G01G28G09G23
 121175558.650 7  94422555.502 6  23058932.227    23058939.059
  23058938.492          43.700          41.900
 110733509.779 7  86285903.431 7  21071864.617    21071867.559
  21071867.281          47.400          45.600
 108374216.805 8  84447542.467 8  20622899.344    20622904.895
  20622904.266          49.300          49.900
 119300009.977 7  92961091.26144  22702022.922
  22702024.578          45.000          28.700
 131322149.145 6 102329035.94242  24989745.211
  24989747.645          37.300          17.400
 117275542.465 7  91383657.222 7  22316766.203    22316771.465
  22316771.621          46.500          46.300
 128492987.202 6 100124447.915 6  24451401.461    24451409.836
  24451410.145          36.600          36.600
 125782347.727 6  98012271.76743  23935578.016
  23935582.488          40.700          22.900
 110206672.263 8  85875193.674 8  20971566.133    20971571.418
  20971571.828          50.500          49.800
 116056958.778 7  90434072.79445  22084883.508
  22084885.844          46.800          32.600
 16  2 13  1 12  0.0000000  0 10G30G07G08G11G16G27G01G28G09G23
 121093319.952 7  94358473.436 6  23043282.109    23043289.332
  23043288.238          42.400          41.300
 110673969.662 8  86239508.540 7  21060534.430    21060537.375
  21060537.277          48.200          45.900
 108403745.435 8  84470551.799 8  20628518.313    20628524.145
  20628523.863          49.300          49.500
 119213696.219 7  92893833.81645  22685597.391
  22685600.914          44.300          30.900
 131402953.332 6 102392000.22942  25005121.656
  25005124.930          38.000          17.400
 117358847.648 8  91448570.335 7  22332619.234    22332624.402
  22332624.777          48.200          46.300
 128405800.077 6 100056509.878 6  24434810.789    24434818.109
  24434817.375          36.800          36.900
 125730893.970 6  97972177.98943  23925786.289
  23925790.004          40.200          20.400
 110251758.023 8  85910325.416 8  20980145.352    20980150.512
  20980151.125          49.600          49.000
 116151990.383 7  90508123.39145  22102967.297
  22102968.629          46.700          31.800
 16  2 13  1 12 30.0000000  0 10G30G07G08G11G16G27G01G28G09G23
 121011103.205 7  94294408.491 7  23027638.406    23027643.984
  23027643.785          43.200          43.200
 110614615.272 8  86193258.389 7  21049239.680    21049242.383
  21049242.688          48.800          46.700
 108433803.934 8  84493974.023 8  20634238.750    20634244.121
  20634243.711          49.300          49.600
 119127587.435 7  92826736.11845  22669212.148
  22669216.500          44.700          30.900
 131483658.951 5 102454887.71442  25020478.883
  25020482.367          35.900          16.900
 117442487.038 7  91513743.894 7  22348533.930    22348539.352
  22348539.316          46.800          44.700
 128318523.153 6  99988501.926 6  24418202.922    24418210.156
  24418210.250          36.100          38.900
 125679604.792 6  97932212.45643  23916025.883
  23916028.555          40.600          19.300
 110297362.622 8  85945861.461 8  20988823.563    20988829.539
  20988829.352          49.800          48.100
 116247306.121 7  90582395.36845  22121105.156
  22121107.949          45.900          33.400
 16  2 13  1 13  0.0000000  0 10G30G07G08G11G16G27G01G28G09G23
 120928910.023 7  94230361.911 7  23011996.281    23012003.984
  23012003.777          42.800          43.600
 110555449.197 7  86147154.987 7  21037980.578    21037983.594
  21037983.738          47.300          46.100
 108464390.845 8  84517807.990 8  20640058.875    20640064.426
  20640064.230          49.600          49.100
 119041687.030 7  92759800.77845  22652865.242
  22652869.418          45.100          30.400
 131564265.555 6 102517697.89742  25035817.758
  25035821.004          36.700          16.300
 117526458.280 7  91579176.020 7  22364512.914    22364518.938
  22364518.664          45.800          44.500
 128231159.310 6  99920426.310 6  24401577.773    24401586.133
  24401586.879          36.800          39.700
 125628480.266 6  97892375.17543  23906297.664
  23906300.719          40.200          20.600
 110343484.563 8  85981800.620 8  20997600.563    20997605.840
  20997605.711          50.800          48.100
 116342903.143 7  90656886.52345  22139297.031
  22139299.668          47.000          33.600
 16  2 13  1 13 30.0000000  0 10G30G07G08G11G16G27G01G28G09G23
 120846741.692 7  94166334.716 7  22996360.438    22996366.844
  22996366.531          42.100          42.500
 110496473.910 8  86101200.250 7  21026758.320    21026760.977
  21026761.441          48.600          46.400
 108495504.891 8  84542052.710 8  20645979.813    20645985.090
  20645984.816          49.800          49.600
 118955997.855 7  92693030.01044  22636558.875
  22636561.434          44.200          29.100
 131644772.937 6 102580431.00242  25051138.141
  25051140.438          37.900          14.800
 117610758.456 7  91644864.466 7  22380556.070    22380561.293
  22380561.680          47.300          46.300
 128143711.463 6  99852285.178 6  24384936.188    24384944.258
  24384944.746          36.300          36.000
 125577519.774 6  97852665.79143  23896600.234
  23896604.363          41.100          22.200
 110390121.897 8  86018141.392 8  21006475.102    21006480.184
  21006480.223          50.500          48.600
 116438778.397 7  90731594.49645  22157540.805
  22157542.656          46.900          31.500
 16  2 13  1 14  0.0000000  0 10G30G07G08G11G16G27G01G28G09G23
 120764599.558 7  94102327.879 7  22980729.703    22980735.520
  22980734.676          44.300          42.400
 110437690.506 8  86055395.024 7  21015572.023    21015574.934
  21015574.762          49.100          45.900
 108527144.174 8  84566706.705 8  20652000.563    20652006.313
  20652006.000          49.600          49.400
 118870522.900 7  92626426.17745  22620294.453
  22620296.961          44.500          30.800
 131725180.923 6 102643086.62842  25066439.453
  25066442.172          38.100          17.400
 117695384.754 7  91710807.022 7  22396659.031    22396664.570
  22396664.699          46.600          45.400
 128056182.169 6  99784080.517 6  24368279.813    24368287.141
  24368287.234          37.000          36.600
 125526722.164 6  97813083.31743  23886932.695
  23886938.301          40.500          21.800
 110437272.614 8  86054882.198 8  21015447.727    21015453.105
  21015453.406          49.800          49.100
 116534928.864 7  90806516.92245  22175838.656
  22175840.793          46.600          33.300
 16  2 13  1 14 30.0000000  0 10G30G07G08G11G16G27G01G28G09G23
 120682485.398 7  94038342.858 7  22965103.469    22965110.168
  22965109.645          43.900          42.700
 110379101.725 7  86009741.436 7  21004422.773    21004425.605
  21004425.219          47.700          46.300
 108559307.313 8  84591768.900 8  20658120.969    20658126.367
  20658126.199          48.800          49.600
 118785265.450 7  92559991.82945  22604069.742
  22604074.270          44.900          31.600
 131805489.291 5 102705664.49842  25081720.977
  25081724.707          34.800          16.900
 117780334.790 7  91777001.837 7  22412823.984    22412829.813
  22412829.035          45.600          44.300
 127968574.591 6  99715814.971 6  24351609.242    24351617.406
  24351617.238          37.600          39.300
 125476087.199 6  97773627.58243  23877297.641
  23877302.660          39.500          20.400
 110484935.213 8  86092021.869 8  21024517.273    21024523.277
  21024523.801          49.900          49.300
 116631351.738 7  90881651.60545  22194186.758
  22194189.875          46.400          32.400
 16  2 13  1 15  0.0000000  0 10G30G07G08G11G16G27G01G28G09G23
 120600400.191 7  93974380.439 7  22949482.711    22949489.637
  22949489.484          43.200          43.400
 110320709.565 7  85964241.067 7  20993310.953    20993313.957
  20993313.691          47.500          46.400
 108591992.781 8  84617238.094 8  20664340.531    20664346.258
  20664345.570          49.300          49.200
 118700228.157 7  92493729.05445  22587887.133
  22587891.969          43.400          30.200
 131885697.582 6 102768164.32242  25096984.383
  25096987.531          36.900          14.800
 117865605.376 7  91843446.470 7  22429052.023    22429056.684
  22429056.535          46.800          44.500
 127880891.171 6  99647490.311 6  24334923.930    24334931.816
  24334932.543          37.900          39.500
 125425614.146 6  97734298.02743  23867692.953
  23867696.188          40.300          19.300
 110533107.297 8  86129558.524 8  21033684.242    21033690.188
  21033690.531          49.800          49.400
 116728043.957 7  90956996.15645  22212586.852
  22212588.434          46.600          31.900
 16  2 13  1 15 30.0000000  0 10G30G07G08G11G16G27G01G28G09G23
 120518345.268 7  93910441.590 7  22933869.258    22933875.168
  22933874.730          44.300          42.600
 110262515.715 8  85918895.245 7  20982236.984    20982239.793
  20982240.117          48.500          46.600
 108625198.394 8  84643112.606 8  20670659.852    20670664.844
  20670664.469          48.500          49.400
 118615414.515 7  92427640.52945  22571748.320
  22571750.785          44.300          30.200
 131965805.599 6 102830586.20042  25112228.938
  25112231.105          38.300          16.300
 117951193.712 7  91910138.671 7  22445337.945    22445343.605
  22445344.039          46.400          44.900
 127793134.598 6  99579108.549 6  24318223.195    24318230.930
  24318231.266          36.600          37.100
 125375302.018 6  97695093.78643  23858119.750
  23858121.820          41.700          22.500
 110581786.866 8  86167490.641 8  21042948.016    21042953.555
  21042953.324          50.000          49.100
 116825002.177 7  91032548.02645  22231037.727
  22231039.590          47.500          33.000
 16  2 13  1 16  0.0000000  0 10G30G07G08G11G16G27G01G28G09G23
 120436322.490 7  93846527.749 7  22918259.813    22918266.188
  22918265.832          44.000          42.700
 110204522.708 7  85873705.911 7  20971201.500    20971204.027
  20971204.355          46.900          46.800
 108658922.691 7  84669391.292 8  20677077.078    20677082.309
  20677082.063          47.700          49.000
 118530827.620 7  92361728.68345  22555652.055
  22555654.203          45.000          30.100
 132045812.614 6 102892929.33042  25127453.141
  25127455.824          37.300          14.800
 118037097.362 7  91977076.542 7  22461684.945    22461689.953
  22461690.027          45.800          43.800
 127705307.988 6  99510672.300 6  24301511.313    24301518.672
  24301518.551          37.900          37.900
 125325150.361 6  97656014.63143  23848576.563
  23848579.625          41.400          22.200
 110630972.365 8  86205817.002 8  21052307.539    21052313.098
  21052312.660          50.700          48.400
 116922223.522 7  91108304.87245  22249538.258
  22249541.227          46.700          33.200
 16  2 13  1 16 30.0000000  0 10G30G07G08G11G16G27G01G28G09G23
 120354333.088 7  93782639.970 7  22902657.563    22902664.305
  22902664.516          43.800          43.600
 110146732.593 7  85828674.679 7  20960204.266    20960206.621
  20960207.160          47.800          46.700
 108693164.413 8  84696073.166 8  20683593.016    20683597.703
  20683597.348          48.000          49.600
 118446470.321 7  92295995.74845  22539598.734
  22539603.520          43.700          30.500
 132125719.787 6 102955194.67542  25142659.016
  25142662.867          36.400          16.300
 118123313.429 7  92044257.921 7  22478092.063    22478096.000
  22478095.383          47.300          43.600
 127617414.110 6  99442183.630 6  24284786.164    24284793.895
  24284794.074          38.700          40.500
 125275158.684 6  97617060.16343  23839061.734
  23839067.234          40.100          22.300
 110680661.579 8  86244535.871 8  21061763.320    21061768.891
  21061768.820          50.100          49.400
 117019705.185 7  91184264.58445  22268088.656
  22268089.914          46.700          31.500
 16  2 13  1 17  0.0000000  0 10G30G07G08G11G16G27G01G28G09G23
 120272378.593 7  93718779.391 7  22887062.555    22887069.246
  22887068.969          43.800          42.800
 110089147.417 7  85783803.134 7  20949246.203    20949249.008
  20949249.105          46.800          45.900
 108727921.694 8  84723156.775 8  20690207.039    20690212.941
  20690212.406          48.600          48.700
 118362345.860 7  92230444.27345  22523590.922
  22523594.914          45.300          30.200
 132205526.003 6 103017381.26443  25157845.492
  25157849.836          37.900          18.600
 118209839.199 7  92111680.614 7  22494557.008    22494562.121
  22494561.930          46.100          44.600
 127529455.870 6  99373644.779 6  24268048.172    24268055.777
  24268056.000          37.700          39.200
 125225326.324 6  97578229.87043  23829578.523
  23829584.156          40.100          21.700
 110730852.599 8  86283645.741 8  21071314.281    21071320.094
  21071320.453          49.700          49.600
 117117443.966 7  91260424.69545  22286687.219
  22286688.949          45.900          31.200
 16  2 13  1 17 30.0000000  0 10G30G07G08G11G16G27G01G28G09G23
 120190460.306 7  93654946.991 7  22871474.680    22871480.047
  22871478.742          44.300          42.000
 110031769.209 8  85739092.867 7  20938327.406    20938330.445
  20938330.297          48.000          46.700
 108763192.543 8  84750640.563 8  20696919.117    20696924.254
  20696923.816          48.000          49.000
 118278457.122 7  92165076.45045  22507627.508
  22507630.609          44.600          30.400
 132285230.894 6 103079488.94542  25173013.617
  25173017.188          38.000          16.900
 118296671.749 7  92179342.287 7  22511080.359    22511085.738
  22511086.184          45.800          44.800
 127441435.746 5  99305057.735 6  24251296.703    24251305.348
  24251305.207          35.800          36.400
 125175652.059 7  97539522.70243  23820126.813
  23820129.922          42.000          21.100
 110781543.171 8  86323144.867 8  21080960.219    21080965.813
  21080966.828          49.700          49.800
 117215436.731 7  91336782.64045  22305334.406
  22305337.664          45.900          32.700
 16  2 13  1 18  0.0000000  0 10G30G07G08G11G16G27G01G28G09G23
 120108579.573 7  93591143.867 7  22855892.359    22855898.574
  22855898.105          43.200          42.400
 109974600.111 7  85694545.537 7  20927448.813    20927451.539
  20927451.711          47.600          47.000
 108798975.252 8  84778523.209 8  20703728.367    20703733.168
  20703732.855          48.500          49.400
 118194807.226 7  92099894.71344  22491708.711
  22491711.773          44.400          29.700
 132364834.569 5 103141517.84542  25188161.664
  25188165.594          35.900          15.600
 118383808.199 7  92247240.829 7  22527662.844    22527666.453
  22527666.184          46.700          44.100
 127353356.683 6  99236424.658 6  24234537.953    24234544.473
  24234543.496          38.200          38.300
 125126135.515 6  97500938.40843  23810704.617
  23810706.555          41.600          20.100
 110832731.182 8  86363031.602 8  21090701.234    21090706.621
  21090707.289          50.300          49.900
 117313680.258 7  91413336.00745  22324030.461
  22324031.930          47.000          31.800
 16  2 13  1 18 30.0000000  0 10G30G07G08G11G16G27G01G28G09G23
 120026738.240 7  93527371.463 7  22840319.125    22840325.750
  22840325.777          43.400          43.600
 109917641.959 8  85650162.584 7  20916609.422    20916612.629
  20916612.730          48.100          46.900
 108835268.363 8  84806803.561 8  20710634.070    20710639.957
  20710639.445          48.800          48.600
 118111399.231 7  92034901.49945  22475836.977
  22475841.152          43.800          30.500
 132444336.888 5                  25203289.648
                        33.900
 118471246.116 7  92315374.295 7  22544300.594    22544305.914
  22544305.559          45.300          43.000
 127265221.875 6  99167748.224 7  24217765.656    24217774.359
  24217774.914          38.400          42.600
 125076775.998 6  97462476.48343  23801311.117
  23801314.215          41.300          21.300
 110884414.870 8  86403304.598 8  21100536.180    21100541.719
  21100541.625          50.400          49.300
 117412171.937 7  91490082.76244  22342771.172
  22342773.043          45.000          29.700
 16  2 13  1 19  0.0000000  0 10G30G07G08G11G16G27G01G28G09G23
 119944937.362 7  93463630.574 7  22824752.313    22824759.402
  22824759.090          44.100          43.200
 109860896.694 7  85605945.513 7  20905811.477    20905814.160
  20905814.270          47.600          46.800
 108872069.782 8  84835480.004 8  20717637.023    20717642.598
  20717642.148          48.600          48.800
 118028235.963 7  91970098.97645  22460012.867
  22460015.809          45.100          31.700
 132523737.295 6 103265140.08442  25218399.297
  25218402.984          37.500          15.600
 118558982.370 7  92383740.184 7  22560996.828    22561002.285
  22561002.406          46.000          45.200
 127177033.652 6  99099030.237 6  24200982.164    24200992.113
  24200992.758          37.100          40.500
 125027572.644 6  97424136.31743  23791947.523
  23791952.121          39.300          21.800
 110936591.755 8  86443961.918 8  21110465.141    21110470.824
  21110470.305          50.300          48.500
 117510908.214 7  91567020.09645  22361561.781
  22361563.863          46.000          32.700
 16  2 13  1 19 30.0000000  0 10G30G07G08G11G16G27G01G28G09G23
 119863179.081 7  93399922.878 7  22809194.000    22809200.395
  22809199.512          44.200          42.500
 109804367.472 8  85561896.792 7  20895054.203    20895056.895
  20895056.496          48.000          46.600
 108909378.055 8  84864551.405 8  20724736.516    20724742.516
  20724742.023          49.100          48.500
 117945321.211 7  91905490.08445  22444233.422
  22444236.965          44.900          30.500
 132603036.125 6 103326931.33342  25233489.836
  25233494.133          38.300          17.800
 118647014.738 7  92452336.818 7  22577748.883    22577753.977
  22577754.066          45.900          44.700
 127088795.617 6  99030273.409 6  24184192.336    24184198.711
  24184199.480          37.800          36.300
 124978525.367 6  97385917.72143  23782615.063
  23782619.031          41.100          22.600
 110989260.364 8  86485002.382 8  21120487.453    21120493.344
  21120493.453          48.800          48.500
 117609886.314 7  91644145.85545  22380395.641
  22380397.980          45.300          31.000
 16  2 13  1 20  0.0000000  0 10G30G07G08G11G16G27G01G28G09G23
 119781464.097 7  93336248.890 7  22793645.086    22793650.438
  22793650.047          46.000          43.200
 109748055.377 8  85518017.261 7  20884338.578    20884341.234
  20884340.828          48.500          46.300
 108947190.845 8  84894015.923 8  20731932.391    20731938.051
  20731937.297          49.000          48.100
 117862657.138 7  91841076.55344  22428502.422
  22428505.449          43.900          28.800
 132682232.583 5 103388642.71942  25248560.219
  25248564.012          34.200          15.600
 118735339.753 7  92521161.516 7  22594556.797    22594561.523
  22594561.254          45.800          44.200
 127000509.849 6  98961479.216 6  24167392.680    24167399.473
  24167398.918          38.600          38.200
 124929632.721 6  97347819.63443  23773311.430
  23773313.758          41.300          21.800
 111042417.769 8  86526423.714 8  21130603.188    21130608.723
  21130609.445          50.000          49.400
 117709103.214 7  91721457.69845  22399276.516
  22399277.621          45.900          30.100
 16  2 13  1 20 30.0000000  0 10G30G07G08G11G16G27G01G28G09G23
 119699794.217 7  93272610.068 7  22778102.906    22778109.820
  22778109.957          44.000          44.200
 109691962.919 8  85474308.866 7  20873664.656    20873667.168
  20873667.164          48.300          46.400
 108985506.571 8  84923872.344 8  20739223.367    20739228.855
  20739228.238          49.300          48.600
 117780247.155 7  91776861.00345  22412821.961
  22412824.402          45.900          30.600
 132761326.915 5                  25263610.789
                        35.100
 118823954.851 7  92590212.247 7  22611419.141    22611424.285
  22611424.055          46.000          44.100
 126912179.455 6  98892650.379 6  24150583.258    24150591.887
  24150592.063          36.200          40.500
 124880894.261 6  97309841.63743  23764036.297
  23764038.465          40.500          20.900
 111096062.047 8  86568224.431 8  21140811.539    21140816.930
  21140817.859          49.900          49.900
 117808555.720 7  91798953.17045  22418201.688
  22418204.391          46.100          31.500
 16  2 13  1 21  0.0000000  0 10G30G07G08G11G16G27G01G28G09G23
 119618171.319 7  93209007.895 7  22762570.477    22762577.313
  22762577.426          43.700          43.600
 109636092.379 8  85430773.402 7  20863032.086    20863035.004
  20863035.398          48.900          46.800
 109024323.636 8  84954119.410 8  20746610.148    20746615.664
  20746614.961          49.400          48.300
 117698094.829 7  91712846.21745  22397188.758
  22397192.531          46.800          31.600
 132840319.028 6                  25278643.320
                        38.100
 118912857.627 7  92659487.135 7  22628336.969    22628342.637
  22628343.113          45.600          44.600
 126823807.620 5  98823789.364 7  24133766.570    24133776.309
  24133776.789          35.500          42.600
 124832309.410 6  97271983.37243  23754790.234
  23754793.277          39.200          21.100
 111150191.493 8  86610403.202 8  21151111.141    21151117.387
  21151117.793          49.400          49.400
 117908241.195 7  91876630.12345  22437170.820
  22437173.180          44.600          30.000
 16  2 13  1 21 30.0000000  0 10G30G07G08G11G16G27G01G28G09G23
 119536596.641 7  93145443.260 7  22747047.766    22747053.250
  22747052.754          44.700          43.300
 109580445.953 8  85387412.574 7  20852443.102    20852445.660
  20852446.246          49.100          47.300
 109063639.962 8  84984755.522 8  20754091.969    20754097.359
  20754096.727          48.700          49.100
 117616202.735 7  91649034.21645  22381603.797
  22381608.277          43.600          30.200
 132919208.263 6 103573299.24842  25293656.047
  25293659.082          37.100          16.300
 119002044.992 7  92728983.752 7  22645308.180    22645313.613
  22645313.918          44.000          44.500
 126735397.190 6  98754898.199 6  24116943.750    24116950.102
  24116950.938          38.900          38.200
 124783877.195 6  97234244.05643  23745573.781
  23745578.008          39.800          22.600
 111204803.520 8  86652958.010 8  21161504.070    21161509.887
  21161509.555          49.400          48.700
 118008156.370 7  91954486.10845  22456184.430
  22456185.199          45.900          30.000
 16  2 13  1 22  0.0000000  0 10G30G07G08G11G16G27G01G28G09G23
 119455071.530 7  93081917.207 7  22731534.117    22731539.176
  22731538.688          44.700          43.200
 109525025.133 8  85344227.547 7  20841896.859    20841899.824
  20841899.742          48.600          46.800
 109103453.436 8  85015779.017 8  20761668.156    20761673.902
  20761673.266          48.900          48.300
 117534573.599 7  91585427.13845  22366070.773
  22366072.922          44.300          30.000
 132997995.092 5 103634691.44642  25308646.992
  25308652.094          32.600          15.600
 119091514.025 7  92798699.872 7  22662333.977    22662338.902
  22662338.457          45.300          43.700
 126646950.686 6  98685978.764 5  24100111.930    24100118.293
  24100117.223          36.600          35.900
 124735596.713 6  97196622.97544  23736387.273
  23736391.492          41.200          25.800
 111259895.733 8  86695887.007 8  21171987.766    21171993.219
  21171993.078          49.600          48.700
 118108297.742 7  92032518.35445  22475240.180
  22475243.391          44.800          30.900
 16  2 13  1 22 30.0000000  0 10G30G07G08G11G16G27G01G28G09G23
 119373598.037 7  93018431.431 7  22716029.727    22716036.418
  22716036.539          43.400          44.200
 109469832.736 8  85301220.501 7  20831394.320    20831396.742
  20831396.246          48.200          46.400
 109143762.795 8  85047188.908 8  20769338.656    20769344.359
  20769343.746          49.100          48.500
 117453211.253 7  91522027.90445  22350588.750
  22350590.730          45.800          31.400
 133076679.746 6 103696004.14842  25323621.391
  25323625.055          36.200          13.900
 119181262.398 7  92868633.684 7  22679413.078    22679418.074
  22679417.828          45.300          44.100
 126558471.553 5  98617034.019 6  24083273.914    24083283.160
  24083283.039          35.300          41.400
 124687467.702 6  97159119.92443  23727228.320
  23727231.965          41.400          22.200
 111315466.511 8  86739188.906 8  21182562.898    21182568.199
  21182568.324          49.400          49.300
 118208662.691 7  92110724.74345  22494339.430
  22494341.813          45.700          30.400
 16  2 13  1 23  0.0000000  0 10G30G07G08G11G16G27G01G28G09G23
 119292177.098 7  92954986.625 7  22700536.727    22700542.383
  22700542.262          44.100          43.400
 109414870.375 8  85258392.702 7  20820935.492    20820937.887
  20820937.668          48.700          46.400
 109184565.448 8  85078983.189 8  20777103.078    20777108.945
  20777108.449          48.500          49.300
 117372118.090 7  91458838.43945  22335156.664
  22335160.727          45.600          31.700
 133155260.792 6 103757236.27242  25338574.484
  25338577.453          38.100          13.900
 119271286.822 7  92938782.548 7  22696543.016    22696548.945
  22696549.191          44.400          44.300
 126469962.068 6  98548065.705 7  24066432.039    24066441.180
  24066441.258          39.100          42.200
 124639489.152 6  97121734.08643  23718097.852
  23718100.949          40.600          21.700
 111371512.915 8  86782861.413 8  21193228.063    21193233.227
  21193234.133          49.000          48.600
 118309247.418 7  92189102.47344  22513480.633
  22513480.332          46.000          29.300
 16  2 13  1 23 30.0000000  0 10G30G07G08G11G16G27G01G28G09G23
 119210810.864 7  92891584.380 7  22685053.273    22685058.469
  22685058.055          44.600          43.000
 109360140.637 8  85215746.159 7  20810521.055    20810523.066
  20810523.109          48.800          46.500
 109225860.068 8  85111160.822 8  20784961.578    20784967.531
  20784967.070          49.000          48.900
 117291297.581 7  91395861.47345  22319776.664
  22319780.711          44.600          31.100
 133233739.013 6 103818388.19942  25353508.273
  25353511.566          36.400          16.300
 119361584.927 7  93009144.693 7  22713727.008    22713731.641
  22713731.684          45.100          44.100
 126381425.824 6  98479076.504 6  24049584.398    24049591.734
  24049591.781          39.300          38.400
 124591660.298 6  97084464.89643  23708996.141
  23708998.574          40.400          20.400
 111428033.193 8  86826903.166 8  21203983.234    21203988.934
  21203989.719          48.200          48.500
 118410049.776 7  92267649.73745  22532660.961
  22532664.859          44.500          30.100
 16  2 13  1 24  0.0000000  0 10G30G07G08G11G16G27G01G28G09G23
 119129500.890 7  92828225.981 7  22669579.086    22669585.816
  22669585.508          43.900          43.300
 109305645.640 8  85173282.547 7  20800151.133    20800153.352
  20800153.750          49.800          46.700
 109267644.897 8  85143720.436 8  20792912.758    20792918.719
  20792918.129          50.000          48.800
 117210752.632 7  91333099.21745  22304449.531
  22304451.977          46.000          30.400
 133312114.176 5 103879459.67742  25368422.930
  25368427.000          32.400          14.800
 119452154.052 7  93079718.067 7  22730961.266    22730966.750
  22730966.055          44.000          43.200
 126292865.638 6  98410068.541 6  24032730.406    24032738.168
  24032737.574          38.200          37.000
 124543980.658 6  97047311.98243  23699924.031
  23699926.695          41.800          22.800
 111485025.166 7  86871312.469 8  21214828.492    21214833.789
  21214833.918          47.900          48.400
 118511066.754 7  92346364.22245  22551885.602
  22551888.070          45.900          31.600
 16  2 13  1 24 30.0000000  0 10G30G07G08G11G16G27G01G28G09G23
 119048248.804 7  92764912.749 7  22654118.070    22654124.184
  22654124.113          44.100          44.500
 109251387.764 8  85131003.711 7  20789825.664    20789828.246
  20789828.445          48.700          46.400
 109309917.599 8  85176660.208 8  20800956.953    20800962.953
  20800962.449          49.900          49.100
 117130486.484 7  91270554.16745  22289175.820
  22289178.039          46.600          31.200
 133390386.794 6 103940451.26642  25383317.148
  25383321.230          36.700          16.900
 119542991.479 7  93150500.453 7  22748246.805    22748252.484
  22748252.805          43.700          44.100
 126204284.597 6  98341044.349 6  24015874.742    24015883.477
  24015883.570          38.000          40.700
 124496449.552 7  97010274.81744  23690878.813
  23690882.625          42.000          24.600
 111542486.533 8  86916087.564 7  21225763.578    21225768.730
  21225768.418          48.400          47.700
 118612295.101 7  92425243.45744  22571147.523
  22571148.629          44.400          29.000
 16  2 13  1 25  0.0000000  0  9G30G07G08G11G27G01G28G09G23
 118967056.495 7  92701646.051 7  22638667.828    22638673.445
  22638673.043          45.300          43.400
 109197369.443 8  85088911.534 7  20779546.445    20779548.641
  20779548.965          49.500          47.000
 109352676.770 8  85209979.051 8  20809094.172    20809099.945
  20809099.477          49.300          49.100
 117050502.360 7  91208228.89145  22273954.344
  22273958.730          44.800          30.700
 119634094.563 7  93221489.852 7  22765584.125    22765589.043
  22765589.379          45.200          43.100
 126115685.789 6  98272006.419 7  23999015.016    23999023.977
  23999024.441          39.000          42.000
 124449066.157 6  96973352.77343  23681861.563
  23681865.805          41.100          22.800
 111600415.172 7  86961226.763 8  21236786.461    21236792.066
  21236792.246          47.900          48.500
 118713732.007 7  92504285.18545  22590451.156
  22590453.207          45.800          30.800
 16  2 13  1 25 30.0000000  0  9G30G07G08G11G27G01G28G09G23
 118885924.726 7  92638426.511 7  22623227.828    22623234.664
  22623233.961          43.700          42.900
 109143592.104 8  85047007.129 7  20769313.023    20769315.484
  20769315.258          49.300          46.300
 109395919.320 8  85243674.551 8  20817322.531    20817328.328
  20817327.789          48.900          49.600
 116970802.434 7  91146125.09845  22258788.219
  22258792.453          44.300          30.900
 119725459.865 7  93292683.605 7  22782969.953    22782974.285
  22782973.879          43.900          42.600
 126027071.584 6  98202956.467 6  23982153.094    23982159.863
  23982161.203          40.300          38.600
 124401829.222 6  96936544.83543  23672872.680
  23672876.211          41.300          22.200
 111658808.075 7  87006727.704 8  21247898.359    21247904.012
  21247904.207          47.600          48.800
 118815373.399 7  92583486.24345  22609792.914
  22609795.707          45.100          30.500
 16  2 13  1 26  0.0000000  0  9G30G07G08G11G27G01G28G09G23
 118804855.419 7  92575255.676 7  22607801.500    22607807.285
  22607807.063          44.700          44.100
 109090057.974 8  85005292.233 7  20759125.539    20759128.293
  20759128.020          49.300          46.400
 109439643.950 8  85277745.691 8  20825642.984    20825648.988
  20825648.770          48.800          49.100
 116891390.745 7  91084245.87445  22243677.008
  22243679.758          46.500          32.200
 119817084.881 7  93364079.715 7  22800405.094    22800410.676
  22800410.512          42.700          43.800
 125938444.975 6  98133896.771 6  23965287.039    23965293.828
  23965294.387          39.300          36.700
 124354738.436 6  96899850.75743  23663911.859
  23663913.844          40.400          22.300
 111717663.108 8  87052588.742 8  21259098.500    21259103.645
  21259103.832          48.100          48.700
 118917216.736 7  92662844.65145  22629172.648
  22629174.273          44.600          30.400
 16  2 13  1 26 30.0000000  0  9G30G07G08G11G27G01G28G09G23
 118723850.199 7  92512134.771 7  22592386.984    22592393.238
  22592393.199          45.400          44.300
 109036769.184 8  84963768.509 7  20748985.086    20748987.340
  20748987.676          48.800          46.200
 109483848.299 8  85312190.646 8  20834054.789    20834060.457
  20834060.188          49.600          48.800
 116812269.419 7  91022592.89045  22228620.719
  22228622.770          46.200          31.800
 119908966.715 7  93435675.948 7  22817890.797    22817895.500
  22817895.793          44.700          44.400
 125849809.087 6  98064829.870 6  23948420.000    23948427.883
  23948427.168          37.500          39.400
 124307792.646 6  96863269.65243  23654978.445
  23654980.719          41.600          22.600
 111776977.908 8  87098808.067 8  21270385.531    21270390.672
  21270390.750          48.900          48.100
 119019258.750 7  92742357.91845  22648591.133
  22648593.125          45.900          30.600
 16  2 13  1 27  0.0000000  0  9G30G07G08G11G27G01G28G09G23
 118642910.915 7  92449065.251 7  22576984.242    22576990.824
  22576990.160          44.300          43.600
 108983728.204 8  84922437.892 7  20738891.617    20738894.020
  20738894.172          49.000          47.200
 109528530.635 8  85347008.056 8  20842557.531    20842563.105
  20842562.750          49.300          49.300
 116733441.694 7  90961168.72545  22213620.086
  22213623.727          45.600          30.600
 120001102.937 7  93507470.395 7  22835422.859    22835428.051
  22835427.945          43.900          43.600
 125761167.034 6  97995758.231 6  23931552.781    23931560.512
  23931560.949          39.600          40.800
 124260991.504 6  96826801.28543  23646071.711
  23646075.809          40.900          23.400
 111836750.271 8  87145383.940 7  21281760.039    21281765.020
  21281764.863          48.400          47.600
 119121496.803 7  92822023.89345  22668045.789
  22668048.961          45.200          30.900
 16  2 13  1 27 30.0000000  0  9G30G07G08G11G27G01G28G09G23
 118562038.940 7  92386048.164 7  22561595.008    22561600.457
  22561599.637          44.100          42.700
 108930936.950 8  84881301.862 7  20728846.086    20728848.223
  20728848.633          49.400          47.500
 109573689.031 8  85382196.424 8  20851150.625    20851156.742
  20851156.168          48.500          49.200
 116654910.731 7  90899975.81045  22198676.781
  22198680.008          46.700          32.700
 120093490.575 7  93579460.757 7  22853003.945    22853008.805
  22853008.434          43.600          43.100
 125672521.768 6  97926684.013 6  23914684.594    23914691.191
  23914691.914          40.800          39.600
 124214333.726 6  96790444.65143  23637192.594
  23637198.078          39.700          22.900
 111896977.646 7  87192314.343 7  21293220.281    21293226.340
  21293226.516          47.300          47.900
 119223927.569 7  92901840.04544  22687538.422
  22687539.340          45.800          29.600
 16  2 13  1 28  0.0000000  0  9G30G07G08G11G27G01G28G09G23
 118481235.918 7  92323084.797 7  22546219.500    22546224.574
  22546224.488          46.400          44.100
 108878397.691 8  84840362.188 7  20718848.305    20718850.133
  20718850.363          49.100          47.000
 109619320.994 8  85417753.799 8  20859834.461    20859840.117
  20859839.859          48.900          48.800
 116576679.304 7  90839016.25845  22183789.633
  22183792.984          47.000          32.900
 120186126.707 7  93651644.765 7  22870632.242    22870637.324
  22870637.219          44.300          43.900
 125583876.001 6  97857609.422 6  23897814.133    23897821.926
  23897822.152          38.700          37.900
 124167818.791 6  96754199.33143  23628341.852
  23628345.730          40.600          23.200
 111957657.506 7  87239597.333 8  21304767.695    21304773.090
  21304773.402          47.900          48.500
 119326547.714 7  92981803.80944  22707066.109
  22707068.160          45.200          28.900
 16  2 13  1 28 30.0000000  0  9G30G07G08G11G27G01G28G09G23
 118400503.670 7  92260176.603 7  22530855.617    22530862.059
  22530861.629          45.600          44.100
 108826112.538 8  84799620.525 7  20708898.617    20708900.773
  20708900.621          49.000          46.600
 109665424.745 8  85453678.796 8  20868607.539    20868613.613
  20868613.383          49.300          49.100
 116498750.479 7  90778292.52745  22168960.000
  22168963.047          46.800          31.800
 120279008.774 7  93724020.365 7  22888306.750    22888312.223
  22888312.305          43.700          44.200
 125495232.915 6  97788536.934 6  23880947.391    23880954.117
  23880954.109          40.500          38.400
 124121445.874 6  96718064.62443  23619517.047
  23619520.504          41.300          22.600
 112018787.568 8  87287231.137 8  21316399.984    21316405.473
  21316405.477          48.300          48.400
 119429354.400 7  93061912.85645  22726629.430
  22726631.516          46.000          30.700
 16  2 13  1 29  0.0000000  0  9G30G07G08G11G27G01G28G09G23
 118319844.073 7  92197325.043 7  22515506.938    22515512.805
  22515512.211          43.800          43.400
 108774084.256 8  84759079.022 7  20698997.734    20699000.141
  20699000.320          49.800          46.600
 109711998.342 8  85489969.914 8  20877469.891    20877475.980
  20877475.836          49.700          49.300
 116421128.071 7  90717807.56745  22154188.992
  22154191.332          45.600          32.700
 120372134.300 7  93796585.711 7  22906028.125    22906033.066
  22906032.855          44.100          43.200
 125406595.940 6  97719469.176 6  23864080.578    23864087.184
  23864086.895          40.500          38.700
 124075214.499 6  96682040.19743  23610720.023
  23610722.199          41.400          22.300
 112080365.695 7  87335214.081 7  21328118.063    21328123.871
  21328123.422          47.800          47.500
 119532344.879 7  93142165.16744  22746228.148
  22746229.855          45.400          28.500
 16  2 13  1 29 30.0000000  0  9G30G07G08G11G27G01G28G09G23
 118239258.114 7  92134530.805 7  22500172.164    22500177.500
  22500176.313          46.800          43.200
 108722313.944 8  84718738.533 7  20689146.195    20689148.508
  20689148.594          49.400          47.200
 109759038.836 8  85526624.850 8  20886421.844    20886427.426
  20886427.160          49.400          49.200
 116343813.752 8  90657562.66745  22139476.930
  22139479.918          48.200          33.700
 120465499.704 7  93869337.982 7  22923794.883    22923799.926
  22923799.922          43.200          43.400
 125317967.162 6  97650407.808 6  23847213.953    23847221.750
  23847221.984          38.800          39.200
 124029122.792 6  96646124.61243  23601948.133
  23601952.000          41.300          21.800
 112142388.647 8  87383543.645 8  21339920.906    21339926.066
  21339926.090          48.200          48.200
 119635515.221 7  93222557.63844  22765860.328
  22765862.715          45.100          28.900
 16  2 13  1 30  0.0000000  0  9G30G07G08G11G27G01G28G09G23
 118158748.422 7  92071796.002 7  22484851.359    22484857.250
  22484857.039          45.800          44.300
 108670804.915 8  84678601.633 7  20679344.242    20679346.672
  20679347.215          49.900          47.400
 109806545.459 8  85563642.994 8  20895462.039    20895468.047
  20895467.332          49.400          49.000
 116266811.030 7  90597560.56945  22124823.219
  22124827.453          47.500          32.700
 120559103.299 7  93942275.818 7  22941606.805    22941612.609
  22941612.816          43.800          44.500
 125229350.596 6  97581356.024 6  23830351.477    23830358.809
  23830359.504          39.700          38.700
 123983171.180 6  96610318.23343  23593204.094
  23593208.277          41.600          23.200
 112204854.914 8  87432218.652 8  21351808.016    21351813.488
  21351813.727          49.100          48.400
 119738863.186 7  93303088.49545  22785527.602
  22785530.422          46.200          30.000
 16  2 13  1 30 30.0000000  0  9G30G07G08G11G27G01G28G09G23
 118078316.254 7  92009121.668 7  22469545.484    22469551.625
  22469551.359          46.400          44.500
 108619559.146 8  84638669.879 7  20669592.586    20669595.102
  20669595.262          49.800          47.300
 109854515.464 8  85601022.225 8  20904590.734    20904596.445
  20904595.855          50.800          48.600
 116190123.488 7  90537804.07945  22110230.289
  22110233.672          46.600          32.700
 120652941.860 7  94015396.761 7  22959464.070    22959469.359
  22959469.336          43.600          43.800
 125140749.084 6  97512315.913 6  23813492.273    23813498.645
  23813498.820          40.800          39.500
 123937358.499 7  96574620.10944  23584487.563
  23584491.199          42.800          25.300
 112267761.590 7  87481236.822 8  21363778.453    21363784.070
  21363784.637          47.300          48.700
 119842385.535 7  93383755.24044  22805226.336
  22805228.285          44.900          27.700
 16  2 13  1 31  0.0000000  0  9G30G07G08G11G27G01G28G09G23
 117997963.225 7  91946508.958 7  22454255.914    22454260.777
  22454259.969          47.200          43.200
 108568578.428 8  84598944.663 7  20659891.164    20659893.566
  20659893.598          49.300          46.900
 109902946.439 8  85638760.661 8  20913806.742    20913812.000
  20913811.945          50.700          48.800
 116113753.629 7  90478295.12845  22095697.563
  22095700.402          46.800          32.200
 120747012.493 7  94088698.557 7  22977364.297    22977370.332
  22977369.750          43.800          43.200
 125052165.216 6  97443289.552 6  23796633.773    23796640.902
  23796641.309          39.700          38.800
 123891683.716 7  96539029.43344  23575795.461
  23575798.883          42.800          24.500
 112331106.038 7  87530596.099 7  21375832.219    21375838.133
  21375837.953          47.800          47.600
 119946078.838 7  93464555.20544  22824959.156
  22824960.496          45.800          27.500
 16  2 13  1 31 30.0000000  0  9G30G07G08G11G27G01G28G09G23
 117917691.303 7  91883959.394 7  22438979.852    22438985.066
  22438983.766          46.100          42.900
 108517865.110 8  84559427.811 7  20650240.719    20650243.293
  20650243.113          49.100          47.100
 109951836.861 8  85676857.092 8  20923110.328    20923116.090
  20923116.004          50.300          49.400
 116037704.429 7  90419036.00345  22081226.367
  22081228.930          47.100          32.600
 120841312.665 7  94162179.187 7  22995309.953    22995315.512
  22995315.563          43.600          43.400
 124963602.345 6  97374279.563 6  23779780.328    23779787.109
  23779786.707          38.600          37.400
 123846146.331 7  96503545.78543  23567128.852
  23567132.227          42.400          22.500
 112394885.949 8  87580294.716 7  21387969.648    21387974.719
  21387974.320          48.600          47.900
 120049940.217 7  93545486.12845  22844722.898
  22844726.031          44.700          30.000
 16  2 13  1 32  0.0000000  0  9G30G07G08G11G27G01G28G09G23
 117837501.986 7  91821474.264 7  22423719.727    22423725.555
  22423725.801          45.800          44.600
 108467421.422 8  84520121.055 7  20640641.883    20640644.246
  20640643.801          49.800          46.200
 110001184.128 8  85715309.508 8  20932500.727    20932506.227
  20932506.148          50.300          48.900
 115961978.833 7  90360029.06245  22066815.891
  22066818.965          47.300          32.900
 120935839.621 7  94235836.545 7  23013298.078    23013303.133
  23013303.254          44.400          43.600
 124875063.557 6  97305288.326 6  23762933.422    23762939.605
  23762940.512          40.200          39.800
 123800745.382 7  96468168.44043  23558489.305
  23558491.973          42.300          22.500
 112459098.675 8  87630330.597 7  21400189.016    21400194.246
  21400194.094          48.700          47.700
 120153966.582 7  93626545.58044  22864518.398
  22864520.809          44.900          27.300
 16  2 13  1 32 30.0000000  0  9G30G07G08G11G27G01G28G09G23
 117757397.161 7  91759054.983 7  22408477.367    22408482.641
  22408483.078          47.100          45.300
 108417249.455 8  84481026.019 7  20631094.609    20631096.855
  20631096.617          49.900          46.700
 110050986.048 8  85754116.194 8  20941977.711    20941983.367
  20941983.066          49.800          48.900
 115886579.517 7  90301276.39645  22052467.414
  22052471.000          46.000          32.900
 121030590.546 7  94309668.414 7  23031327.305    23031333.184
  23031332.703          43.000          42.800
 124786551.820 6  97236318.197 6  23746088.750    23746096.895
  23746097.910          39.400          40.900
 123755479.822 6  96432896.64343  23549876.086
  23549879.141          41.600          23.600
 112523741.707 8  87680701.771 8  21412490.258    21412495.602
  21412495.953          48.200          48.100
 120258154.935 7  93707731.31244  22884345.984
  22884346.707          45.500          27.700
 16  2 13  1 33  0.0000000  0  9G30G07G08G11G27G01G28G09G23
 117677378.658 7  91696702.934 7  22393249.313    22393255.207
  22393254.488          46.000          43.500
 108367351.431 8  84442144.449 7  20621598.953    20621601.738
  20621601.750          49.200          47.500
 110101240.809 8  85793275.755 8  20951540.820    20951546.727
  20951546.078          50.300          48.800
 115811510.207 8  90242780.85945  22038182.680
  22038185.324          48.200          33.600
 121125562.826 7  94383672.789 7  23049400.820    23049406.238
  23049406.035          44.200          43.500
 124698070.191 6  97167371.551 6  23729250.953    23729258.703
  23729258.980          38.900          38.600
 123710349.127 7  96397729.92344  23541287.633
  23541291.598          43.400          24.500
 112588812.597 8  87731406.330 7  21424872.844    21424878.523
  21424878.820          48.500          47.900
 120362502.157 7  93789040.82644  22904201.367
  22904205.301          44.300          28.600
 16  2 13  1 33 30.0000000  0  9G30G07G08G11G27G01G28G09G23
 117597448.051 7  91634419.366 7  22378038.531    22378044.297
  22378042.973          45.800          43.500
 108317729.762 8  84403478.225 7  20612156.969    20612158.770
  20612158.801          49.700          47.900
 110151945.955 8  85832786.269 8  20961189.789    20961195.344
  20961194.684          50.200          48.600
 115736773.598 8  90184544.55745  22023960.789
  22023963.523          48.000          33.100
 121220753.678 7  94457847.457 7  23067514.367    23067520.277
  23067520.273          44.100          43.600
 124609621.843 6  97098450.723 6  23712420.680    23712426.961
  23712426.152          40.100          37.900
 123665352.298 7  96362667.51944  23532725.180
  23532729.762          42.900          25.000
 112654308.704 8  87782442.245 7  21437336.352    21437341.156
  21437341.246          48.800          47.800
 120467005.332 7  93870471.82544  22924087.945
  22924090.172          44.600          27.700
 16  2 13  1 34  0.0000000  0  9G30G07G08G11G27G01G28G09G23
 117517607.321 7  91572205.849 7  22362845.813    22362851.996
  22362851.934          46.100          45.100
 108268386.904 8  84365029.261 7  20602766.398    20602768.699
  20602769.094          49.200          47.700
 110203099.387 8  85872646.088 8  20970923.570    20970929.262
  20970928.941          49.600          48.700
 115662372.380 7  90126569.63445  22009802.328
  22009805.750          46.700          33.000
 121316160.517 7  94532190.418 7  23085670.359    23085675.102
  23085675.195          43.800          43.200
 124521209.897 6  97029558.294 6  23695596.180    23695604.332
  23695604.707          39.400          41.300
 123620488.858 7  96327709.04943  23524187.633
  23524192.199          42.100          23.000
 112720227.493 8  87833807.536 7  21449880.047    21449885.727
  21449885.594          48.300          47.300
 120571661.181 7  93952021.85644  22944003.117
  22944004.301          44.100          28.000
 16  2 13  1 34 30.0000000  0  9G30G07G08G11G27G01G28G09G23
 117437858.067 7  91510063.616 7  22347670.102    22347676.461
  22347676.801          46.800          45.300
 108219324.650 8  84326798.950 7  20593430.406    20593432.648
  20593432.766          49.300          47.000
 110254698.635 8  85912853.294 8  20980742.367    20980747.977
  20980747.738          50.100          48.900
 115588309.412 7  90068858.28045  21995708.609
  21995712.234          46.800          32.700
 121411780.337 7  94606699.377 7  23103866.813    23103871.508
  23103871.164          44.400          42.700
 124432837.210 6  96960696.557 6  23678778.273    23678786.961
  23678787.824          38.900          40.700
 123575757.611 7  96292853.59144  23515675.672
  23515678.770          42.300          24.100
 112786566.202 7  87885500.022 8  21462503.867    21462509.367
  21462509.465          47.800          48.000
 120676466.626 7  94033688.39044  22963946.297
  22963950.691          43.900          28.000
 16  2 13  1 35  0.0000000  0  9G30G07G08G11G27G01G28G09G23
 117358202.658 7  91447994.527 7  22332511.898    22332518.102
  22332517.945          44.700          44.700
 108170545.728 8  84288789.411 7  20584147.617    20584150.410
  20584150.184          48.800          47.500
 110306742.605 8  85953407.031 8  20990646.375    20990651.793
  20990651.449          50.300          49.000
 115514588.594 7  90011413.52945  21981680.578
  21981683.121          47.900          33.600
 121507611.155 7  94681372.712 7  23122102.320    23122108.102
  23122108.031          43.900          43.400
 124344507.540 6  96891868.288 6  23661970.734    23661978.043
  23661978.590          39.200          38.100
 123531158.290 6  96258100.87943  23507189.281
  23507190.906          41.800          23.400
 112853322.900 8  87937518.214 7  21475207.617    21475212.852
  21475213.289          48.300          47.600
 120781419.262 7  94115469.61944  22983919.039
  22983921.945          45.000          27.500
 16  2 13  1 35 30.0000000  0  9G30G07G08G11G27G01G28G09G23
 117278642.013 7  91385999.233 7  22317372.555    22317377.961
  22317376.453          45.300          43.900
 108122051.655 8  84251001.826 7  20574919.648    20574922.594
  20574922.207          48.800          47.000
 110359227.828 8  85994304.617 8  21000633.992    21000640.047
  21000639.621          49.700          48.700
 115441211.748 7  89954236.78945  21967716.813
  21967719.578          47.900          32.500
 121603649.339 7  94756207.617 7  23140377.625    23140383.508
  23140383.500          44.000          43.400
 124256223.366 6  96823075.410 6  23645169.727    23645177.191
  23645175.852          39.600          38.100
 123486689.333 7  96223449.79244  23498726.641
  23498729.902          43.200          24.200
 112920494.052 8  87989859.363 8  21487989.617    21487994.934
  21487995.066          48.100          48.200
 120886514.969 7  94197362.37744  23003917.719
  23003919.598          43.900          26.000
 16  2 13  1 36  0.0000000  0  9G30G07G08G11G27G01G28G09G23
 117199178.668 7  91324079.751 7  22302251.430    22302257.086
  22302256.844          46.700          45.300
 108073845.346 8  84213438.484 7  20565746.984    20565749.020
  20565749.313          49.300          47.200
 110412152.677 8  86035544.759 8  21010705.305    21010710.500
  21010710.082          49.300          48.100
 115368182.557 7  89897330.96145  21953819.789
  21953822.676          46.700          31.800
 121699892.923 7  94831202.625 7  23158691.914    23158697.148
  23158696.762          43.600          42.800
 124167988.025 6  96754320.646 6  23628380.031    23628388.086
  23628388.359          39.000          41.300
 123442350.422 7  96188900.03444  23490289.516
  23490292.699          42.300          25.100
 112988077.669 7  88042521.912 7  21500850.141    21500855.652
  21500855.770          47.900          47.300
 120991751.451 7  94279364.80544  23023944.406
  23023947.281          45.100          29.100
 16  2 13  1 36 30.0000000  0  9G30G07G08G11G27G01G28G09G23
 117119813.940 7  91262237.162 7  22287147.797    22287154.656
  22287155.059          45.100          46.300
 108025928.555 8  84176100.734 7  20556628.336    20556630.320
  20556630.633          49.500          47.600
 110465514.479 8  86077125.376 7  21020859.250    21020865.516
  21020865.043          50.000          47.900
 115295503.294 7  89840697.80745  21939989.695
  21939992.426          47.500          32.600
 121796338.681 7  94906355.159 7  23177045.086    23177050.504
  23177050.195          43.300          43.600
 124079804.391 6  96685606.179 6  23611599.641    23611607.180
  23611608.020          40.400          41.800
 123398140.403 6  96154450.72943  23481875.781
  23481879.992          41.600          23.200
 113056070.719 7  88095503.494 7  21513789.141    21513794.590
  21513794.570          47.700          47.300
 121097124.989 7  94361474.00544  23043995.055
  23043998.438          43.400          26.800
 16  2 13  1 37  0.0000000  0  9G30G07G08G11G27G01G28G09G23
 117040549.969 7  91200473.100 7  22272064.930    22272071.215
  22272071.148          44.600          45.400
 107978303.635 8  84138990.424 7  20547565.430    20547567.543
  20547567.742          48.000          47.500
 110519311.356 8  86119045.024 8  21031096.820    21031102.316
  21031102.008          49.800          48.500
 115223177.521 7  89784340.07645  21926226.469
  21926229.332          47.300          33.000
 121892984.280 7  94981663.392 7  23195436.508    23195442.152
  23195442.477          44.100          43.400
 123991675.807 6  96616934.580 6  23594828.141    23594836.082
  23594836.477          39.400          38.900
 123354058.598 7  96120101.33044  23473487.258
  23473491.254          42.100          24.300
 113124470.787 8  88148802.246 7  21526805.422    21526810.598
  21526810.844          48.100          47.300
 121202633.554 7  94443688.46944  23064073.883
  23064074.746          43.900          26.400
 16  2 13  1 37 30.0000000  0  9G30G07G08G11G27G01G28G09G23
 116961388.582 7  91138788.908 7  22257000.648    22257006.328
  22257005.305          45.800          45.000
 107930973.010 8  84102109.427 7  20538558.953    20538561.621
  20538561.516          48.600          47.800
 110573541.040 8  86161301.928 8  21041416.570    21041422.137
  21041421.684          49.700          48.500
 115151207.650 7  89728259.67345  21912530.992
  21912533.051          47.300          32.300
 121989826.947 7  95057125.192 7  23213865.000    23213870.004
  23213869.844          43.700          42.400
 123903605.595 6  96548308.439 6  23578069.938    23578076.613
  23578076.277          40.500          40.600
 123310104.053 7  96085851.07743  23465123.664
  23465126.188          42.900          23.800
 113193275.204 7  88202416.082 7  21539898.594    21539903.270
  21539903.121          47.600          47.000
 121308273.282 7  94526005.13344  23084176.492
  23084179.195          43.300          28.400
 16  2 13  1 38  0.0000000  0 10G30G07G08G11G17G27G01G28G09G23
 116882331.395 7  91077185.927 7  22241955.766    22241963.117
  22241962.629          43.900          45.500
 107883938.562 7  84065459.221 7  20529608.508    20529610.516
  20529610.406          47.800          47.300
 110628200.826 8  86203893.961 8  21051817.703    21051822.914
  21051822.641          49.300          48.000
 115079596.694 7  89672458.95345  21898903.367
  21898905.789          47.700          32.700
 132232136.52516 103038054.84515  25162939.844    25162944.563
  25162945.527          38.600          34.400
 122086863.843 7  95132738.356 7  23232331.078    23232335.559
  23232335.223          44.400          42.400
 123815596.518 6  96479729.979 7  23561322.016    23561330.379
  23561331.066          40.500          42.700
 123266275.928 7  96051699.29244  23456782.883
  23456785.895          42.200          25.300
 113262481.077 7  88256342.724 7  21553067.477    21553072.980
  21553072.523          47.500          47.200
 121414041.243 7  94608421.66144  23104302.813
  23104305.598          43.000          26.800
 16  2 13  1 38 30.0000000  0 10G30G07G08G11G17G27G01G28G09G23
 116803380.377 7  91015665.729 7  22226932.875    22226938.758
  22226939.313          45.000          46.300
 107837202.499 8  84029041.522 7  20520715.180    20520717.137
  20520717.031          48.200          47.200
 110683288.734 8  86246819.613 7  21062300.461    21062306.086
  21062305.680          49.600          47.800
 115008347.354 7  89616940.01145  21885345.242
  21885347.895          46.600          32.400
 132128290.726 6 102957136.065 6  25143177.883    25143183.566
  25143184.191          38.100          36.100
 122184092.377 7  95208500.831 7  23250832.211    23250838.535
  23250838.340          44.100          44.100
 123727651.829 6  96411201.743 7  23544586.289    23544595.215
  23544595.793          40.400          42.300
 123222573.591 7  96017645.57344  23448466.688
  23448470.508          42.900          24.600
 113332085.825 7  88310580.170 7  21566313.070    21566318.473
  21566318.676          47.400          47.300
 121519934.648 7  94690936.03344  23124454.055
  23124455.113          44.100          27.300
 16  2 13  1 39  0.0000000  0 10G30G07G08G11G17G27G01G28G09G23
 116724537.561 7  90954229.801 7  22211929.297    22211935.160
  22211935.066          45.500          45.700
 107790767.530 8  83992858.438 7  20511878.258    20511881.195
  20511881.223          48.300          47.300
 110738802.462 8  86290077.071 8  21072864.523    21072870.109
  21072869.773          49.400          48.700
 114937462.990 7  89561705.46345  21871856.797
  21871859.578          47.700          32.600
 132024542.522 5 102876293.560 6  25123433.859    25123441.559
  25123441.199          35.000          37.700
 122281510.043 7  95284410.660 7  23269370.258    23269375.770
  23269376.141          43.600          42.500
 123639774.810 6  96342726.203 6  23527864.594    23527870.855
  23527871.355          40.900          40.100
 123178996.269 6  95983689.27844  23440173.422
  23440178.449          41.900          25.500
 113402086.846 7  88365126.410 7  21579633.594    21579639.426
  21579639.883          47.500          47.900
 121625950.218 7  94773545.55044  23144627.578
  23144630.746          43.400          28.300
 16  2 13  1 39 30.0000000  0 10G30G07G08G11G17G27G01G28G09G23
 116645804.645 7  90892879.500 7  22196946.797    22196953.148
  22196951.910          45.900          44.700
 107744635.136 8  83956911.139 8  20503099.805    20503102.387
  20503102.555          48.300          48.100
 110794739.540 8  86333664.406 8  21083508.891    21083514.746
  21083514.363          49.800          48.600
 114866946.239 7  89506757.36845  21858436.859
  21858440.234          47.300          33.400
 131920893.931 6 102795528.596 6  25103711.820    25103717.656
  25103717.898          39.700          37.600
 122379113.995 7  95360465.686 7  23287944.414    23287948.320
  23287948.168          45.300          42.000
 123551968.518 6  96274305.673 6  23511155.273    23511162.176
  23511161.313          41.300          39.200
 123135542.566 7  95949829.30744  23431905.305
  23431909.523          43.500          24.700
 113472481.354 7  88419979.256 7  21593029.117    21593034.926
  21593034.824          47.900          47.900
 121732085.103 7  94856247.99244  23164824.711
  23164827.719          44.400          26.600
 16  2 13  1 40  0.0000000  0 10G30G07G08G11G17G27G01G28G09G23
 116567183.322 7  90831616.165 7  22181985.695    22181991.906
  22181991.902          46.300          45.800
 107698808.051 8  83921201.742 7  20494379.195    20494381.859
  20494382.180          48.000          47.900
 110851097.703 8  86377579.857 8  21094233.641    21094239.531
  21094238.672          49.300          48.200
 114796799.770 7  89452097.80245  21845088.898
  21845091.598          46.000          32.600
 131817346.868 6 102714842.645 5  25084006.008    25084012.258
  25084013.605          36.200          34.200
 122476901.419 7  95436663.683 7  23306552.195    23306557.309
  23306557.309          43.800          42.800
 123464235.833 6  96205942.598 7  23494460.234    23494468.816
  23494469.262          40.800          42.800
 123092211.882 7  95916065.17044  23423660.156
  23423663.219          43.900          24.600
 113543266.409 8  88475136.425 7  21606499.148    21606504.719
  21606504.055          48.000          46.600
 121838335.646 7  94939040.63943  23185044.055
  23185044.820          43.500          23.900
 16  2 13  1 40 30.0000000  0 10G30G07G08G11G17G27G01G28G09G23
 116488676.010 7  90770441.673 7  22167046.641    22167052.859
  22167053.078          46.700          46.300
 107653288.519 8  83885731.989 8  20485717.477    20485719.660
  20485720.094          48.600          48.300
 110907874.806 8  86421821.755 7  21105037.984    21105043.727
  21105042.977          49.100          47.700
 114727026.872 7  89397729.33545  21831812.141
  21831814.004          47.200          32.800
 131713903.671 6 102634237.732 6  25064322.438    25064328.164
  25064328.398          36.900          37.200
 122574870.146 7  95513002.909 7  23325194.969    23325200.367
  23325200.957          44.300          42.800
 123376580.443 6  96137639.783 7  23477780.344    23477788.305
  23477789.238          41.300          42.800
 123049003.739 7  95882396.48944  23415436.977
  23415439.594          43.200          24.400
 113614439.719 8  88530596.148 7  21620043.211    21620048.344
  21620048.367          48.100          47.300
 121944699.669 7  95021921.67444  23205284.117
  23205287.223          44.200          27.800
 16  2 13  1 41  0.0000000  0 10G30G07G08G11G17G27G01G28G09G23
 116410284.000 7  90709357.037 7  22152128.172    22152134.277
  22152134.277          46.100          45.500
 107608078.306 8  83850503.263 7  20477114.023    20477116.508
  20477116.664          48.200          47.800
 110965068.169 8  86466388.023 8  21115922.000    21115927.133
  21115926.738          49.700          48.700
 114657629.845 8  89343653.74445  21818605.711
  21818608.570          48.000          33.500
 131610566.330 6 102553715.249 6  25044656.852    25044663.246
  25044663.992          38.300          36.700
 122673016.894 7  95589480.892 6  23343872.500    23343876.480
  23343876.914          44.100          41.700
 123289004.972 6  96069399.190 6  23461115.961    23461122.180
  23461122.297          41.600          39.900
 123005916.810 6  95848822.29044  23407237.750
  23407240.418          41.600          25.800
 113685997.956 7  88586355.785 7  21633660.164    21633665.980
  21633666.496          47.100          47.500
 122051173.579 7  95104888.30944  23225545.953
  23225548.555          43.900          27.700
 16  2 13  1 41 30.0000000  0 10G30G07G08G11G17G27G01G28G09G23
 116332009.404 7  90648363.875 7  22137233.688    22137239.473
  22137238.191          45.500          44.400
 107563179.968 7  83815517.557 7  20468569.789    20468571.945
  20468572.109          46.600          47.500
 111022675.830 8  86511277.113 8  21126883.883    21126889.559
  21126889.383          48.700          48.400
 114588611.740 8  89289873.43245  21805472.117
  21805475.438          48.600          33.500
 131507335.993 5 102473276.194 5  25025011.266    25025018.348
  25025018.918          33.500          33.200
 122771339.392 7  95666095.824 6  23362581.195    23362586.668
  23362586.156          43.100          41.600
 123201512.824 6  96001223.459 6  23444465.438    23444472.344
  23444471.793          40.400          38.400
 122962950.312 6  95815341.95044  23399061.789
  23399065.063          40.400          26.000
 113757938.721 7  88642413.480 7  21647350.016    21647355.793
  21647355.816          47.000          47.300
 122157754.531 7  95187938.40644  23245827.117
  23245827.375          43.200          26.000
 16  2 13  1 42  0.0000000  0 10G30G07G08G11G17G27G01G28G09G23
 116253854.645 7  90587464.081 7  22122361.602    22122366.492
  22122366.617          47.200          45.400
 107518595.989 7  83780776.801 7  20460085.680    20460088.172
  20460087.758          47.900          47.700
 111080695.715 8  86556487.406 8  21137924.688    21137930.539
  21137930.301          48.200          48.300
 114519975.912 7  89236391.00745  21792410.922
  21792414.500          47.300          33.000
 131404216.001 6 102392923.054 6  25005390.000    25005394.797
  25005394.746          39.300          36.400
 122869835.262 7  95742845.825 7  23381325.172    23381331.004
  23381330.918          44.100          42.700
 123114107.545 6  95933115.494 6  23427833.367    23427841.152
  23427841.266          41.600          41.800
 122920103.620 7  95781954.97944  23390908.781
  23390912.270          44.600          27.600
 113830259.535 7  88698767.347 7  21661112.516    21661118.176
  21661117.430          47.400          47.000
 122264439.871 7  95271069.83744  23266128.852
  23266131.945          44.800          27.100
 16  2 13  1 42 30.0000000  0 10G30G07G08G11G17G27G01G28G09G23
 116175820.492 7  90526658.290 7  22107511.211    22107517.895
  22107518.398          47.200          46.400
 107474327.707 7  83746282.043 7  20451662.055    20451664.832
  20451664.574          47.900          47.700
 111139124.335 8  86602016.191 8  21149042.883    21149048.941
  21149048.078          49.000          48.300
 114451724.077 8  89183207.79745  21779423.523
  21779425.668          48.500          33.700
 131301206.865 6 102312656.340 6  24985787.984    24985793.953
  24985794.363          38.900          37.600
 122968500.772 7  95819728.034 6  23400101.063    23400105.836
  23400106.047          44.500          41.600
 123026791.276 7  95865076.917 7  23411218.070    23411225.359
  23411225.957          42.400          43.000
 122877375.040 7  95748660.03244  23382778.023
  23382781.836          42.000          27.500
 113902956.540 7  88755414.373 7  21674946.313    21674951.879
  21674951.402          47.800          46.600
 122371225.399 7  95354279.27444  23286449.125
  23286452.695          43.700          25.200
 16  2 13  1 43  0.0000000  0 10G30G07G08G11G17G27G01G28G09G23
 116097910.173 7  90465949.000 7  22092685.641    22092692.004
  22092691.652          46.600          45.300
 107430378.871 8  83712036.200 8  20443298.773    20443301.281
  20443301.414          49.800          48.300
 111197960.292 8  86647862.399 8  21160239.375    21160245.137
  21160244.121          48.900          48.000
 114383860.157 8  89130326.84445  21766509.602
  21766511.512          49.000          35.100
 131198312.060 6 102232478.735 5  24966207.711    24966212.082
  24966213.223          37.100          33.800
 123067334.830 7  95896741.566 6  23418907.602    23418912.785
  23418912.309          42.900          40.300
 122939568.462 6  95797111.113 6  23394618.883    23394626.199
  23394626.688          40.500          39.800
 122834765.213 7  95715457.60944  23374669.836
  23374671.773          44.800          26.700
 113976028.330 7  88812353.389 7  21688851.070    21688856.820
  21688857.328          47.000          47.500
 122478109.342 7  95437565.46144  23306788.859
  23306790.223          44.600          24.700
 16  2 13  1 43 30.0000000  0 10G30G07G08G11G17G27G01G28G09G23
 116020124.757 7  90405336.996 7  22077884.750    22077889.473
  22077888.301          47.600          44.500
 107386749.968 8  83678039.665 8  20434996.664    20434999.031
  20434999.270          48.800          48.500
 111257200.726 8  86694023.780 8  21171512.344    21171518.020
  21171517.332          49.400          48.300
 114316386.164 8  89077749.73445  21753669.242
  21753671.359          48.500          34.200
 131095532.650 6 102152390.943 6  24946650.195    24946655.012
  24946654.805          40.200          36.300
 123166333.718 7  95973883.564 6  23437747.281    23437752.160
  23437751.859          43.600          41.600
 122852441.369 6  95729219.882 6  23378039.664    23378046.523
  23378046.313          40.300          40.600
 122792271.915 7  95682345.98644  23366583.258
  23366585.496          44.100          25.100
 114049471.133 7  88869581.523 7  21702827.422    21702832.563
  21702833.090          47.300          47.400
 122585087.821 7  95520925.34044  23327146.414
  23327149.289          44.000          25.900
 16  2 13  1 44  0.0000000  0 10G30G07G08G11G17G27G01G28G09G23
 115942466.808 7  90344824.321 7  22063106.172    22063111.891
  22063111.727          47.200          45.300
 107343444.366 8  83644295.049 8  20426755.570    20426758.117
  20426758.375          49.400          48.100
 111316844.056 8  86740499.098 8  21182862.156    21182868.172
  21182868.051          49.200          48.200
 114249305.677 8  89025479.27245  21740903.930
  21740907.527          48.000          34.000
 130992871.089 6 102072395.082 6  24927113.828    24927119.063
  24927119.293          38.400          37.800
 123265495.445 7  96051152.435 6  23456616.148    23456621.961
  23456621.914          42.200          41.100
 122765413.909 6  95661406.273 7  23361479.156    23361486.516
  23361487.082          40.700          42.500
 122749894.896 7  95649324.96244  23358519.008
  23358521.020          44.600          24.800
 114123282.789 7  88927097.101 7  21716873.047    21716877.949
  21716877.750          47.400          46.700
 122692158.799 7  95604357.18644  23347521.352
  23347525.078          44.500          27.600
 16  2 13  1 44 30.0000000  0 10G30G07G08G11G17G27G01G28G09G23
 115864937.580 7  90284411.978 7  22048353.102    22048358.625
  22048359.020          47.200          45.800
 107300463.713 8  83610803.644 7  20418576.266    20418579.375
  20418579.406          49.000          47.900
 111376886.864 8  86787285.689 8  21194288.289    21194293.836
  21194293.613          49.700          48.400
 114182620.511 8  88973516.84245  21728214.484
  21728217.637          48.900          34.400
 130890328.891 6 101992492.244 5  24907601.211    24907604.910
  24907605.891          40.900          35.500
 123364816.796 7  96128545.675 6  23475516.641    23475521.945
  23475521.242          42.800          41.600
 122678488.505 6  95593672.255 7  23344936.914    23344945.270
  23344946.004          39.600          42.800
 122707632.876 7  95616393.56644  23350476.555
  23350479.109          44.400          27.100
 114197459.779 7  88984897.347 7  21730988.180    21730993.922
  21730993.309          45.800          46.200
 122799318.140 7  95687857.98644  23367913.477
  23367913.508          44.900          24.500
 16  2 13  1 45  0.0000000  0 10G30G07G08G11G17G27G01G28G09G23
 115787539.698 7  90224101.983 7  22033624.461    22033629.906
  22033629.727          47.400          45.300
 107257810.832 8  83577567.645 8  20410460.336    20410462.984
  20410462.848          49.000          48.200
 111437327.349 8  86834382.172 8  21205789.680    21205795.070
  21205794.941          49.800          48.300
 114116334.165 8  88921865.19245  21715600.594
  21715603.762          48.800          35.000
 130787908.756 6 101912684.364 5  24888110.547    24888115.688
  24888115.559          38.600          35.300
 123464295.698 7  96206061.717 7  23494447.375    23494452.434
  23494452.109          43.700          42.900
 122591669.013 6  95526020.768 6  23328415.953    23328423.727
  23328423.918          39.300          40.800
 122665485.699 7  95583551.66644  23342456.148
  23342459.676          44.100          26.600
 114271999.910 7  89042980.534 7  21745172.359    21745178.281
  21745178.570          47.200          46.800
 122906563.724 7  95771425.95444  23388321.227
  23388322.813          43.900          24.800
 16  2 13  1 45 30.0000000  0 10G30G07G08G11G17G27G01G28G09G23
 115710274.763 8  90163895.547 7  22018921.867    22018927.016
  22018925.688          48.000          44.400
 107215487.132 8  83544588.143 8  20402406.211    20402408.641
  20402408.789          48.300          48.500
 111498162.924 8  86881786.524 7  21217366.305    21217371.750
  21217371.488          49.100          47.900
 114050448.949 8  88870526.09445  21703062.961
  21703065.469          48.700          34.300
 130685611.952 6 101832972.767 6  24868644.023    24868649.828
  24868650.398          39.400          37.900
 123563929.267 6  96283698.222 7  23513405.891    23513412.098
  23513412.176          41.800          42.300
 122504958.333 6  95458453.987 6  23311916.336    23311922.656
  23311922.484          41.400          41.500
 122623451.890 7  95550798.11344  23334457.313
  23334460.852          44.300          26.000
 114346899.955 7  89101344.190 7  21759425.453    21759431.418
  21759431.715          46.400          47.300
 123013891.946 7  95855058.29244  23408744.898
  23408748.184          44.100          27.900
 16  2 13  1 46  0.0000000  0 10G30G07G08G11G17G27G01G28G09G23
 115633145.001 7  90103794.439 7  22004244.836    22004249.512
  22004248.848          47.600          45.300
 107173495.381 8  83511867.308 7  20394415.508    20394418.262
  20394418.156          48.500          47.900
 111559391.500 8  86929497.093 8  21229017.836    21229023.402
  21229022.934          48.900          48.600
 113984968.159 7  88819502.14445  21690602.211
  21690605.273          47.900          35.100
 130583440.983 6 101753359.183 5  24849202.141    24849206.582
  24849206.855          40.600          35.800
 123663715.182 7  96361453.463 6  23532395.898    23532400.863
  23532400.770          43.600          41.300
 122418359.873 6  95390974.700 7  23295436.094    23295444.086
  23295444.500          40.300          42.400
 122581531.015 7  95518132.52644  23326480.188
  23326482.961          43.800          25.100
 114422157.374 7  89159986.314 7  21773746.719    21773752.176
  21773752.059          45.600          46.600
 123121300.476 7  95938753.21643  23429183.086
  23429185.910          43.300          23.400
 16  2 13  1 46 30.0000000  0 10G30G07G08G11G17G27G01G28G09G23
 115556152.219 7  90043800.097 7  21989593.531    21989598.305
  21989598.734          47.700          45.400
 107131837.722 8  83479406.794 8  20386487.938    20386490.734
  20386490.922          48.900          48.200
 111621010.252 8  86977511.700 8  21240743.219    21240748.715
  21240748.609          49.300          48.200
 113919894.175 8  88768795.16845  21678218.883
  21678222.469          48.200          34.800
 130481397.192 6 101673844.582 5  24829781.977    24829787.352
  24829787.918          36.600          35.000
 123763650.533 7  96439325.182 7  23551413.172    23551418.023
  23551417.801          42.900          42.600
 122331876.504 6  95323585.136 7  23278978.594    23278986.602
  23278987.164          40.700          42.500
 122539721.806 7  95485553.99444  23318524.164
  23318526.078          44.400          25.800
 114497769.044 7  89218904.488 7  21788135.695    21788140.660
  21788140.441          45.500          46.400
 123228785.808 7  96022508.02544  23449638.180
  23449639.629          43.900          26.400
 16  2 13  1 47  0.0000000  0 10G30G07G08G11G17G27G01G28G09G23
 115479298.217 8  89983913.897 7  21974968.352    21974973.473
  21974973.195          48.000          44.900
 107090515.960 8  83447208.022 7  20378624.906    20378627.633
  20378627.719          48.100          47.800
 111683016.704 8  87025828.417 8  21252542.992    21252548.961
  21252548.469          49.300          48.200
 113855229.532 7  88718407.17245  21665913.805
  21665917.137          47.500          34.500
 130379482.699 6 101594430.815 6  24810390.273    24810394.035
  24810394.188          41.800          36.900
 123863732.767 7  96517311.277 7  23570457.328    23570463.164
  23570463.277          42.400          42.500
 122245511.522 6  95256287.739 6  23262544.867    23262551.242
  23262551.359          40.900          41.100
 122498023.615 7  95453061.92244  23310589.609
  23310591.176          44.200          26.100
 114573731.976 7  89278096.369 7  21802590.602    21802596.086
  21802596.527          45.800          47.000
 123336344.803 7  96106320.14844  23470106.164
  23470109.871          43.400          27.000
 16  2 13  1 47 30.0000000  0 10G30G07G08G11G17G27G01G28G09G23
 115402585.444 8  89924137.732 7  21960370.273    21960375.051
  21960374.258          48.100          44.500
 107049532.986 8  83415273.248 8  20370826.078    20370828.316
  20370828.605          48.500          48.100
 111745408.820 8  87074445.652 8  21264415.719    21264421.254
  21264420.688          49.000          48.200
 113790977.388 8  88668340.60645  21653687.555
  21653690.574          48.100          35.500
 130277700.190 6 101515119.926 6  24791020.438    24791025.613
  24791024.902          39.000          37.000
 123963959.590 7  96595410.089 7  23589530.063    23589535.086
  23589535.234          43.500          42.100
 122159268.467 6  95189085.353 7  23246133.141    23246140.254
  23246140.047          41.100          42.200
 122456435.519 7  95420655.63744  23302674.953
  23302678.059          43.800          27.400
 114650043.725 7  89337560.043 7  21817112.859    21817117.578
  21817117.953          46.000          46.800
 123443974.894 7  96190187.70543  23490586.391
  23490589.340          42.200          22.200
 16  2 13  1 48  0.0000000  0 10G30G07G08G11G17G27G01G28G09G23
 115326016.066 8  89864473.277 7  21945799.469    21945804.395
  21945803.680          48.300          45.100
 107008891.147 8  83383604.294 8  20363092.289    20363094.813
  20363095.172          48.300          48.600
 111808184.375 8  87123361.659 8  21276361.141    21276366.914
  21276366.297          48.800          48.300
 113727140.700 8  88618597.75945  21641539.094
  21641541.926          48.100          34.600
 130176050.897 6 101435912.757 5  24771676.805    24771680.957
  24771680.980          39.500          33.600
 124064328.616 6  96673619.734 7  23608629.453    23608635.211
  23608634.957          41.700          42.600
 122073150.624 6  95121980.589 7  23229745.391    23229752.996
  23229753.504          40.900          43.600
 122414956.802 7  95388334.61444  23294781.570
  23294785.605          42.600          25.700
 114726701.535 7  89397293.389 7  21831699.758    21831705.164
  21831704.793          46.800          45.900
 123551673.131 7  96274108.47144  23511081.477
  23511082.504          43.500          25.700
 16  2 13  1 48 30.0000000  0 10G30G07G08G11G17G27G01G28G09G23
 115249591.492 8  89804921.679 7  21931256.109    21931261.945
  21931262.004          48.200          45.800
 106968591.551 7  83352202.017 7  20355423.523    20355425.918
  20355425.969          47.600          47.900
 111871340.195 8  87172573.976 7  21288379.156    21288385.246
  21288384.797          48.700          47.400
 113663721.337 7  88569180.09145  21629471.023
  21629473.516          47.800          34.800
 130074536.895 6 101356811.025 6  24752359.859    24752364.008
  24752364.891          39.800          37.200
 124164836.741 7  96751937.695 7  23627755.703    23627761.621
  23627761.469          42.600          43.300
 121987160.804 7  95054975.585 6  23213382.672    23213389.641
  23213389.930          43.300          41.700
 122373586.358 7  95356097.97744  23286908.945
  23286912.547          43.400          25.800
 114803701.966 7  89457293.743 7  21846352.406    21846358.055
  21846358.125          46.200          47.000
 123659436.320 7  96358079.72744  23531587.898
  23531591.309          42.200          25.500
 16  2 13  1 49  0.0000000  0 10G30G07G08G11G17G27G01G28G09G23
 115173313.687 7  89745484.478 7  21916740.938    21916746.621
  21916746.469          47.800          45.500
 106928636.683 8  83321068.359 7  20347820.195    20347822.758
  20347822.566          48.100          47.900
 111934873.909 8  87222080.767 7  21300469.180    21300475.262
  21300474.844          49.100          47.500
 113600722.143 8  88520089.82645  21617482.477
  21617485.793          48.300          34.800
 129973159.674 6 101277815.955 6  24733067.547    24733073.016
  24733073.063          38.600          37.500
 124265481.283 7  96830361.993 7  23646908.008    23646913.215
  23646913.371          43.000          43.200
 121901302.083 7  94988072.667 6  23197043.945    23197050.871
  23197050.727          42.500          40.400
 122332322.862 7  95323944.64644  23279057.789
  23279059.801          43.100          25.700
 114881042.024 7  89517558.698 7  21861069.477    21861075.371
  21861075.918          46.600          46.900
 123767261.192 7  96442099.05644  23552106.781
  23552108.965          43.000          25.300
 16  2 13  1 49 30.0000000  0 10G30G07G08G11G17G27G01G28G09G23
 115097185.575 8  89686163.878 7  21902255.008    21902259.770
  21902258.883          48.700          45.100
 106889029.604 7  83290205.710 8  20340283.375    20340285.930
  20340285.734          47.400          48.500
 111998784.025 8  87271880.853 7  21312630.977    21312637.137
  21312636.520          48.600          47.800
 113538146.462 7  88471329.58345  21605574.508
  21605577.926          47.400          34.400
 129871922.338 6 101198929.814 5  24713803.000    24713806.840
  24713807.293          41.400          34.600
 124366260.684 6  96908891.386 7  23666084.695    23666090.012
  23666089.734          41.300          42.600
 121815578.476 6  94921275.081 6  23180730.375    23180738.203
  23180738.203          41.300          41.700
 122291166.719 7  95291874.93644  23271226.383
  23271227.164          43.700          25.900
 114958719.655 7  89578086.693 7  21875851.508    21875857.441
  21875857.426          46.700          47.000
 123875145.809 6  96526165.04543  23572635.945
  23572637.117          41.000          22.000
 16  2 13  1 50  0.0000000  0 10G30G07G08G11G17G27G01G28G09G23
 115021208.452 8  89626960.913 7  21887796.281    21887801.742
  21887801.063          48.600          44.700
 106849771.730 7  83259615.158 7  20332812.328    20332815.500
  20332815.172          47.200          47.800
 112063067.090 8  87321971.546 7  21324863.539    21324869.375
  21324868.957          48.800          47.200
 113475996.299 7  88422900.92045  21593748.023
  21593751.938          47.900          35.000
 129770826.176 6 101120153.612 6  24694564.086    24694570.211
  24694569.660          38.200          36.100
 124467171.575 7  96987523.235 7  23685288.047    23685294.316
  23685294.121          43.400          43.400
 121729992.604 7  94854584.834 7  23164445.281    23164452.113
  23164452.715          43.200          43.300
 122250116.239 7  95259887.55444  23263413.977
  23263415.531          42.900          26.200
 115036731.170 7  89638874.878 7  21890697.156    21890702.059
  21890701.754          46.900          46.700
 123983086.405 7  96610274.57344  23593176.969
  23593179.160          42.500          25.100
 16  2 13  1 50 30.0000000  0 10G30G07G08G11G17G27G01G28G09G23
 114945384.574 7  89567877.412 7  21873367.484    21873373.324
  21873372.938          47.600          45.800
 106810865.395 7  83229298.533 8  20325409.516    20325411.387
  20325411.480          47.600          48.300
 112127720.859 8  87372351.093 7  21337167.188    21337172.703
  21337172.199          48.900          47.800
 113414274.741 8  88374806.23045  21582002.820
  21582006.219          48.300          35.400
 129669873.569 6 101041489.447 6  24675354.070    24675359.027
  24675359.484          39.000          36.500
 124568211.581 7  97066255.681 7  23704515.398    23704521.566
  23704521.895          42.400          43.300
 121644547.897 6  94788004.577 7  23148185.031    23148192.148
  23148192.574          41.800          42.800
 122209170.236 7  95227981.60444  23255621.250
  23255624.941          43.200          25.600
 115115073.904 7  89699921.135 7  21905604.398    21905610.441
  21905610.430          46.400          46.400
 124091080.017 7  96694425.41043  23613727.328
  23613729.645          43.100          22.900
 16  2 13  1 51  0.0000000  0 10G30G07G08G11G17G27G01G28G09G23
 114869716.033 8  89508914.941 7  21858969.063    21858973.539
  21858973.453          49.600          45.500
 106772313.114 7  83199257.800 8  20318073.008    20318075.074
  20318075.395          47.500          48.400
 112192743.171 8  87423017.824 7  21349540.211    21349545.992
  21349545.609          49.000          47.800
 113352984.157 8  88327047.36645  21570339.602
  21570342.434          48.200          35.800
 129569065.707 6 100962937.913 5  24656171.742    24656174.871
  24656174.816          40.700          34.400
 124669378.351 7  97145086.897 6  23723766.805    23723772.141
  23723772.285          42.700          41.400
 121559247.516 6  94721536.765 6  23131952.156    23131959.273
  23131959.070          41.600          40.800
 122168328.218 6  95196156.74844  23247849.344
  23247854.195          41.200          25.400
 115193744.978 7  89761223.217 7  21920575.242    21920581.020
  21920581.688          46.800          47.300
 124199124.164 7  96778615.69243  23634286.914
  23634288.316          42.000          22.200
 16  2 13  1 51 30.0000000  0 10G30G07G08G11G17G27G01G28G09G23
 114794204.795 8  89450075.015 7  21844598.766    21844603.863
  21844603.496          48.200          45.500
 106734116.434 8  83169494.153 8  20310804.359    20310806.473
  20310806.871          48.900          48.200
 112258131.265 8  87473969.587 8  21361983.336    21361989.164
  21361988.656          49.100          48.100
 113292127.109 8  88279626.31345  21558758.930
  21558761.633          48.100          35.300
 129468404.605 6 100884500.770 6  24637014.805    24637020.652
  24637019.766          36.800          36.700
 124770669.163 7  97224014.834 7  23743042.211    23743047.477
  23743047.555          43.400          42.600
 121474094.688 7  94655183.941 7  23115749.422    23115756.195
  23115756.191          42.800          42.700
 122127589.244 7  95164412.15544  23240097.570
  23240101.566          44.100          26.900
 115272741.341 7  89822778.789 7  21935607.531    21935613.402
  21935613.988          47.300          47.000
 124307215.246 7  96862842.49244  23654856.695
  23654858.789          43.000          24.700
 16  2 13  1 52  0.0000000  0 10G30G07G08G11G17G27G01G28G09G23
 114718853.068 7  89391359.410 7  21830259.586    21830264.684
  21830264.180          47.900          45.200
 106696277.895 8  83140009.581 8  20303603.945    20303606.445
  20303606.762          48.700          48.700
 112323882.966 8  87525204.678 8  21374495.500    21374501.852
  21374500.898          49.500          48.100
 113231706.491 8  88232545.33745  21547260.961
  21547263.910          48.300          34.500
 129367892.421 6 100806179.738 6  24617889.148    24617894.020
  24617894.332          40.300          38.100
 124872081.739 7  97303037.582 7  23762339.609    23762346.551
  23762346.609          42.000          43.200
 121389092.911 6  94588948.832 7  23099573.750    23099580.539
  23099581.063          41.800          42.700
 122086952.706 7  95132747.36444  23232365.297
  23232367.891          44.500          27.100
 115352060.228 7  89884585.714 7  21950700.953    21950706.922
  21950706.289          45.800          45.800
 124415350.752 7  96947103.88843  23675433.133
  23675436.484          42.200          22.300
 16  2 13  1 52 30.0000000  0 10G30G07G08G11G17G27G01G28G09G23
 114643662.480 8  89332769.368 7  21815951.805    21815957.238
  21815957.289          48.600          46.300
 106658799.401 8  83110805.565 8  20296472.273    20296474.520
  20296474.688          48.100          48.300
 112389995.061 8  87576720.577 7  21387076.375    21387082.102
  21387081.727          50.000          47.900
 113171724.206 7  88185805.91445  21535846.836
  21535849.867          47.300          35.000
 129267530.849 6 100727975.972 5  24598791.023    24598795.156
  24598794.637          40.000          35.600
 124973613.149 7  97382152.942 7  23781661.359    23781665.824
  23781666.113          42.700          42.200
 121304244.782 6  94522833.449 7  23083426.180    23083434.203
  23083434.676          41.000          42.500
 122046417.257 7  95101161.30944  23224651.188
  23224652.762          45.100          26.100
 115431698.229 7  89946641.309 7  21965856.172    21965861.902
  21965861.941          46.900          46.400
 124523527.367 6  97031397.35443  23696018.938
  23696020.586          40.800          22.000
 16  2 13  1 53  0.0000000  0 10G30G07G08G11G17G27G01G28G09G23
 114568635.964 8  89274307.165 7  21801674.828    21801679.988
  21801679.684          48.300          45.300
 106621683.999 8  83081884.478 7  20289409.195    20289412.012
  20289411.887          48.400          47.500
 112456466.196 8  87628516.260 8  21399725.297    21399731.004
  21399730.500          49.700          48.000
 113112183.667 8  88139410.72745  21524516.453
  21524519.539          48.100          35.600
 129167322.782 6 100649891.854 5  24579721.273    24579725.691
  24579725.391          39.400          34.700
 125075261.549 7  97461359.549 6  23801004.289    23801009.234
  23801008.680          43.000          41.600
 121219554.459 7  94456841.000 6  23067312.172    23067318.141
  23067317.848          42.400          41.100
 122005982.364 7  95069653.62544  23216956.883
  23216957.531          44.100          24.900
 115511653.143 7  90008943.819 7  21981071.578    21981077.277
  21981077.969          47.100          47.500
 124631742.727 6  97115721.03444  23716611.953
  23716613.844          41.800          25.400
 16  2 13  1 53 30.0000000  0 10G30G07G08G11G17G27G01G28G09G23
 114493774.893 7  89215973.889 7  21787428.438    21787433.457
  21787432.957          47.400          45.700
 106584932.779 7  83053247.171 8  20282415.422    20282417.609
  20282417.730          47.700          48.000
 112523293.013 8  87680589.099 7  21412442.148    21412447.676
  21412447.020          48.600          47.800
 113053086.979 7  88093361.38245  21513270.859
  21513273.566          47.500          35.200
 129067268.996 6 100571927.933 6  24560682.453    24560687.305
  24560687.414          41.300          38.400
 125177023.926 6  97540654.874 7  23820368.078    23820374.855
  23820375.199          41.500          43.300
 121135024.487 7  94390973.493 7  23051226.469    23051233.422
  23051233.840          42.200          43.000
 121965646.968 7  95038223.46744  23209280.281
  23209282.441          44.900          27.100
 115591921.411 7  90071490.475 7  21996345.266    21996351.457
  21996351.777          45.400          46.100
 124739993.475 6  97200072.21643  23737209.766
  23737213.406          41.300          22.300
 16  2 13  1 54  0.0000000  0 10G30G07G08G11G17G27G01G28G09G23
 114419081.487 8  89157771.262 7  21773215.313    21773220.559
  21773219.922          48.000          45.700
 106548548.076 8  83024895.458 8  20275492.047    20275494.148
  20275494.098          49.300          48.200
 112590473.287 8  87732937.353 8  21425225.961    21425231.820
  21425231.387          48.500          48.000
 112994436.648 7  88047659.84045  21502110.273
  21502113.000          47.800          35.000
 128967371.597 6 100494085.889 6  24541670.922    24541676.898
  24541676.621          39.700          38.000
 125278897.924 7  97620037.196 7  23839755.391    23839760.453
  23839760.336          43.200          42.600
 121050658.355 6  94325233.720 7  23035171.023    23035178.855
  23035179.281          41.400          42.800
 121925409.933 7  95006869.97344  23201624.063
  23201627.418          44.300          26.400
 115672500.096 7  90134279.040 7  22011679.602    22011684.789
  22011684.402          47.500          45.500
 124848276.763 7  97284448.83843  23757817.008
  23757817.758          42.200          23.000
 16  2 13  1 54 30.0000000  0 10G30G07G08G11G17G27G01G28G09G23
 114344558.399 8  89099701.329 7  21759034.531    21759039.438
  21759039.207          49.100          46.300
 106512532.686 8  82996831.515 8  20268638.672    20268640.785
  20268640.648          48.800          48.000
 112658004.860 8  87785559.349 7  21438076.648    21438082.656
  21438082.398          49.000          47.900
 112936235.878 7  88002308.60545  21491034.547
  21491037.879          47.200          35.200
 128867632.571 6 100416367.210 5  24522692.281    24522696.734
  24522696.129          40.900          35.900
 125380881.504 6  97699504.973 6  23859160.781    23859166.195
  23859165.684          41.900          41.000
 120966459.645 6  94259624.386 6  23019149.070    23019155.750
  23019156.055          41.300          41.900
 121885271.226 7  94975593.10544  23193985.617
  23193990.172          44.500          28.500
 115753386.740 7  90197307.597 7  22027071.961    22027077.395
  22027077.590          46.700          47.100
 124956590.190 6  97368848.91543  23778427.477
  23778430.980          40.700          22.300
 16  2 13  1 55  0.0000000  0 10G30G07G08G11G17G27G01G28G09G23
 114270207.257 7  89041765.387 7  21744885.313    21744891.074
  21744890.609          47.600          45.400
 106476888.374 8  82969056.727 8  20261855.523    20261858.137
  20261858.074          48.300          48.500
 112725884.780 8  87838452.788 8  21450993.719    21450999.289
  21450998.910          48.200          48.000
 112878486.916 8  87957309.42845  21480045.688
  21480048.504          48.100          34.900
 128768054.243 6 100338773.773 6  24503743.586    24503747.953
  24503748.641          41.600          37.900
 125482971.807 7  97779055.837 7  23878588.398    23878594.535
  23878594.168          42.200          42.700
 120882431.260 7  94194147.719 6  23003158.938    23003165.578
  23003165.668          43.000          41.300
 121845229.462 7  94944391.78244  23186365.609
  23186370.402          44.100          27.500
 115834577.996 7  90260573.461 7  22042521.445    22042527.555
  22042528.566          45.000          47.200
 125064930.330 6  97453269.74443  23799044.344
  23799047.281          40.900          22.300
 16  2 13  1 55 30.0000000  0 10G30G07G08G11G17G27G01G28G09G23
 114196029.842 7  88983964.840 7  21730769.578    21730774.957
  21730774.828          47.900          45.700
 106441616.995 8  82941572.523 8  20255143.313    20255146.055
  20255146.074          49.100          49.000
 112794110.280 7  87891615.494 7  21463976.516    21463982.348
  21463982.078          47.800          47.000
 112821191.872 7  87912663.96245  21469142.797
  21469145.816          46.800          35.900
 128668638.428 6 100261307.003 6  24484823.781    24484829.723
  24484829.965          39.700          37.600
 125585165.989 7  97858687.647 7  23898035.648    23898041.266
  23898041.543          42.700          42.800
 120798576.130 6  94128806.106 7  22987201.656    22987208.957
  22987209.148          41.600          42.900
 121805283.707 7  94913265.28444  23178764.078
  23178768.008          43.500          26.700
 115916070.531 7  90324074.109 7  22058028.883    22058034.559
  22058034.621          46.200          46.000
 125173293.980 6  97537708.98643  23819665.508
  23819666.934          41.400          21.800
 16  2 13  1 56  0.0000000  0 10G30G07G08G11G17G27G01G28G09G23
 114122029.116 8  88926301.946 7  21716688.586    21716693.250
  21716693.137          48.700          46.100
 106406721.180 8  82914380.969 8  20248503.461    20248505.422
  20248505.738          48.400          49.000
 112862679.903 8  87945046.363 7  21477025.063    21477030.641
  21477030.180          48.500          47.000
 112764353.712 8  87868374.50946  21458326.891
  21458329.785          48.300          36.300
 128569386.429 6 100183967.804 5  24465937.750    24465942.016
  24465941.984          40.800          35.900
 125687462.439 6  97938399.139 6  23917501.070    23917506.484
  23917506.676          40.700          40.700
 120714898.255 6  94063602.620 7  22971278.461    22971285.695
  22971286.410          41.800          43.600
 121765433.512 7  94882213.22544  23171181.102
  23171183.949          44.100          25.000
 115997862.096 7  90387807.841 7  22073593.680    22073599.148
  22073598.496          46.900          45.300
 125281678.878 6  97622164.74143  23840290.109
  23840293.066          39.700          23.000
 16  2 13  1 56 30.0000000  0 10G30G07G08G11G17G27G01G28G09G23
 114048206.734 8  88868778.017 7  21702640.023    21702645.887
  21702645.672          48.100          46.300
 106372202.759 8  82887483.505 8  20241934.305    20241937.613
  20241937.590          48.500          48.700
 112931590.235 8  87998742.723 7  21490138.406    21490144.035
  21490143.398          48.400          47.000
 112707974.512 7  87824442.68545  21447597.953
  21447600.781          47.900          35.400
 128470300.081 6 100106757.713 6  24447082.578    24447087.414
  24447087.883          40.600          38.500
 125789858.284 7  98018188.123 6  23936987.547    23936992.613
  23936992.293          42.400          41.900
 120631400.493 7  93998539.462 6  22955389.539    22955395.207
  22955395.863          42.600          41.200
 121725677.370 7  94851234.42644  23163616.477
  23163617.922          44.200          25.600
 116079949.268 7  90451771.849 7  22089213.781    22089220.461
  22089220.922          45.700          46.700
 125390081.590 6  97706634.33443  23860919.453
  23860921.488          41.200          23.400
 16  2 13  1 57  0.0000000  0 10G30G07G08G11G17G27G01G28G09G23
 113974565.020 7  88811394.903 7  21688626.242    21688632.121
  21688631.785          47.600          45.900
 106338064.352 7  82860882.157 8  20235437.758    20235440.223
  20235440.691          47.900          48.800
 113000839.100 8  88052702.865 7  21503316.195    21503321.414
  21503320.930          48.100          46.900
 112652056.996 8  87780870.60445  21436957.500
  21436959.965          48.200          35.700
 128371381.724 7 100029678.543 6  24428258.727    24428263.832
  24428264.250          42.000          39.000
 125892351.251 6  98098052.763 7  23956490.906    23956497.656
  23956497.527          40.900          43.000
 120548086.283 7  93933619.290 6  22939535.016    22939541.574
  22939541.133          42.600          41.200
 121686014.673 7  94820328.45144  23156069.109
  23156071.465          44.700          27.900
 116162329.202 7  90515963.962 7  22104890.875    22104896.488
  22104897.770          47.100          46.400
 125498499.912 6  97791116.16043  23881549.852
  23881552.805          39.500          20.600
 16  2 13  1 57 30.0000000  0 10G30G07G08G11G17G27G01G28G09G23
 113901105.912 8  88754154.053 7  21674647.922    21674652.984
  21674652.156          49.500          46.000
 106304307.533 7  82834578.155 8  20229014.383    20229016.965
  20229017.055          47.800          49.400
 113070424.006 8  88106924.858 7  21516557.453    21516563.535
  21516562.777          49.000          46.900
 112596603.255 8  87737659.92046  21426405.063
  21426408.086          48.500          36.000
 128272633.048 6  99952731.557 6  24409466.422    24409471.723
  24409471.957          39.800          36.900
 125994938.774 6  98177991.031 6  23976012.195    23976017.660
  23976018.270          40.900          40.900
 120464958.653 7  93868844.543 7  22923716.547    22923723.613
  22923724.172          42.300          44.000
 121646444.410 7  94789494.51844  23148538.523
  23148542.480          43.600          28.500
 116244998.650 7  90580381.705 7  22120622.805    22120627.652
  22120627.477          46.600          45.500
 125606930.586 6  97875607.57243  23902183.383
  23902186.590          40.900          22.900
 16  2 13  1 58  0.0000000  0 10G30G07G08G11G17G27G01G28G09G23
 113827831.436 8  88697057.045 7  21660704.523    21660709.328
  21660708.625          49.400          46.400
 106270934.041 8  82808572.839 8  20222663.406    20222666.297
  20222666.352          48.100          48.600
 113140342.294 8  88161406.648 7  21529862.953    21529868.012
  21529867.406          48.900          46.900
 112541616.112 8  87694812.81745  21415941.258
  21415943.828          48.900          35.500
 128174055.768 6  99875918.151 6  24390708.852    24390713.344
  24390713.137          40.900          37.600
 126097618.175 7  98258001.007 6  23995552.297    23995557.020
  23995556.391          42.400          40.300
 120382020.743 7  93804217.653 7  22907933.828    22907941.383
  22907942.203          42.100          43.000
 121606965.602 7  94758731.87944  23141025.305
  23141029.402          42.600          27.600
 116327954.528 7  90645022.632 7  22136407.961    22136413.727
  22136413.191          45.500          45.300
 125715370.516 6  97960106.18643  23922818.930
  23922822.691          41.200          22.000
 16  2 13  1 58 30.0000000  0 10G30G07G08G11G17G27G01G28G09G23
 113754744.181 8  88640105.956 7  21646795.656    21646800.980
  21646800.980          48.500          46.100
 106237946.601 8  82782868.340 8  20216387.031    20216389.246
  20216389.367          48.200          49.100
 113210591.467 8  88216146.264 7  21543230.688    21543236.355
  21543235.691          48.700          46.700
 112487098.173 8  87652331.32245  21405567.305
  21405569.746          48.800          35.500
 128075651.889 7  99799239.842 6  24371983.680    24371988.848
  24371988.902          42.300          39.600
 126200387.648 6  98338081.097 7  24015108.047    24015114.352
  24015114.730          40.100          42.200
 120299276.234 7  93739741.452 6  22892188.156    22892194.211
  22892194.281          42.100          41.400
 121567577.832 7  94728040.17344  23133530.367
  23133534.168          43.300          27.100
 116411194.283 7  90709884.750 7  22152248.922    22152254.410
  22152255.012          46.800          47.500
 125823817.274 6  98044610.13943  23943455.859
  23943457.457          41.200          20.900
 16  2 13  1 59  0.0000000  0 10G30G07G08G11G17G27G01G28G09G23
 113681846.150 8  88583302.328 7  21632924.078    21632929.160
  21632928.973          49.000          46.600
 106205347.599 8  82757466.517 8  20210182.883    20210185.832
  20210185.621          48.400          48.700
 113281169.173 8  88271141.867 7  21556661.547    21556667.020
  21556666.375          48.800          47.300
 112433051.560 8  87610217.10045  21395281.938
  21395284.988          48.900          35.500
 127977423.260 6  99722698.170 6  24353290.484    24353295.590
  24353296.188          40.100          38.300
 126303244.578 6  98418229.260 7  24034680.992    24034687.578
  24034687.773          40.900          42.200
 120216728.291 7  93675418.376 7  22876479.938    22876485.566
  22876485.602          42.600          42.200
 121528280.194 7  94697418.66744  23126052.523
  23126055.055          44.400          28.000
 116494714.681 7  90774965.558 7  22168142.406    22168147.336
  22168148.266          47.000          46.200
 125932267.912 6  98129117.16343  23964093.602
  23964096.250          41.300          23.200
 16  2 13  1 59 30.0000000  0 10G30G07G08G11G17G27G01G28G09G23
 113609139.219 8  88526647.576 7  21619088.797    21619092.879
  21619092.215          49.300          46.300
 106173138.414 8  82732368.456 8  20204054.258    20204056.270
  20204056.359          48.900          48.500
 113352072.284 8  88326391.038 7  21570153.711    21570159.152
  21570158.801          49.300          47.000
 112379478.298 8  87568471.71445  21385087.547
  21385089.910          49.100          35.900
 127879371.597 6  99646294.292 6  24334632.875    24334636.172
  24334636.422          41.500          37.700
 126406186.207 6  98498443.558 6  24054270.914    24054275.148
  24054274.938          41.400          40.200
 120134379.814 6  93611250.762 7  22860809.320    22860816.902
  22860817.488          41.600          44.500
 121489071.302 7  94666866.29744  23118591.352
  23118593.227          44.400          27.100
 116578512.439 7  90840262.495 7  22184087.773    22184093.516
  22184092.867          45.300          45.100
 126040719.246 6  98213624.62543  23984730.141
  23984735.047          39.400          22.600
 16  2 13  2  0  0.0000000  0 10G30G07G08G11G17G27G01G28G09G23
 113536625.995 8  88470143.766 7  21605289.141    21605294.848
  21605294.305          49.100          46.300
 106141321.525 7  82707576.086 8  20197999.195    20198001.973
  20198002.004          47.600          48.800
 113423299.197 8  88381892.526 7  21583707.563    21583713.398
  21583712.758          48.300          47.700
 112326381.387 8  87527097.51346  21374983.742
  21374985.504          48.500          36.200
 127781499.311 6  99570030.223 6  24316008.352    24316013.383
  24316013.313          41.700          39.400
 126509210.674 6  98578722.362 6  24073874.289    24073881.359
  24073880.813          39.200          41.800
 120052234.496 7  93547241.483 7  22845176.805    22845185.387
  22845186.000          42.000          44.500
 121449950.847 7  94636382.83944  23111146.516
  23111148.977          43.800          28.000
 116662584.881 7  90905773.491 7  22200086.945    22200092.438
  22200092.168          46.900          46.400
 126149168.713 6  98298130.66343  24005368.313
  24005371.031          41.800          20.900
 16  2 13  2  0 30.0000000  0 10G30G07G08G11G17G27G01G28G09G23
 113464308.401 8  88413792.432 7  21591527.945    21591533.102
  21591533.281          49.000          46.200
 106109898.748 7  82683090.805 8  20192019.641    20192022.195
  20192022.371          46.800          49.100
 113494847.042 7  88437644.078 8  21597322.766    21597328.594
  21597328.016          47.600          48.000
 112273762.641 8  87486095.91446  21364970.773
  21364972.719          48.800          36.600
 127683807.418 7  99493906.769 6  24297417.750    24297422.168
  24297422.418          42.000          38.500
 126612315.327 6  98659063.591 7  24093496.344    24093501.855
  24093501.715          41.100          42.100
 119970295.365 7  93483392.853 6  22829585.602    22829591.164
  22829591.508          43.400          41.500
 121410917.662 7  94605967.41044  23103718.445
  23103722.477          43.100          26.900
 116746928.751 7  90971495.962 7  22216137.016    22216142.660
  22216143.191          46.400          46.400
 126257613.497 6  98382633.17643  24026004.055
  24026004.801          40.400          20.100
 16  2 13  2  1  0.0000000  0 10G30G07G08G11G17G27G01G28G09G23
 113392188.803 8  88357595.362 7  21577804.633    21577809.520
  21577809.207          48.900          46.700
 106078872.536 8  82658914.532 8  20186115.617    20186117.922
  20186118.242          48.500          49.000
 113566713.139 8  88493643.625 7  21610998.586    21611004.211
  21611003.727          49.100          47.300
 112221624.958 7  87445469.16646  21355049.250
  21355051.113          47.600          36.200
 127586298.189 7  99417925.606 6  24278863.422    24278866.816
  24278866.875          42.600          37.900
 126715497.983 6  98739465.656 6  24113130.398    24113135.793
  24113135.965          39.600          39.600
 119888565.900 7  93419707.522 6  22814032.430    22814038.895
  22814038.391          43.400          41.400
 121371971.077 7  94575619.49244  23096306.648
  23096311.328          42.600          27.400
 116831541.233 7  91037427.704 7  22232237.414    22232243.426
  22232243.914          45.800          45.600
 126366050.846 6  98467129.75443  24046638.531
  24046642.863          40.800          22.200
 16  2 13  2  1 30.0000000  0 10G30G07G08G11G17G27G01G28G09G23
 113320269.007 8  88301553.964 7  21564118.078    21564123.477
  21564122.895          49.100          46.400
 106048244.344 8  82635048.401 8  20180287.273    20180289.664
  20180289.891          48.400          49.500
 113638894.907 8  88549889.164 7  21624733.977    21624740.004
  21624739.699          48.400          47.300
 112169970.023 8  87405218.58546  21345219.820
  21345222.063          49.300          37.000
 127488972.994 6  99342087.841 6  24260341.492    24260345.996
  24260346.453          40.200          38.300
 126818755.928 6  98819926.397 6  24132779.406    24132785.469
  24132784.637          40.900          40.400
 119807048.869 6  93356187.791 7  22798519.758    22798526.840
  22798527.230          41.700          43.600
 121333109.459 7  94545337.78344  23088912.953
  23088915.961          44.300          28.600
 116916418.832 7  91103566.090 7  22248390.398    22248394.648
  22248394.371          47.100          44.900
 126474477.244 7  98551617.81743  24067272.938
  24067275.098          42.300          21.100
 16  2 13  2  2  0.0000000  0 10G30G07G08G11G17G27G01G28G09G23
 113248551.610 8  88245670.296 7  21550470.664    21550475.699
  21550474.949          49.100          46.600
 106018016.636 8  82611494.343 8  20174534.961    20174537.754
  20174538.043          48.800          49.500
 113711390.011 7  88606378.836 7  21638529.188    21638535.336
  21638534.977          47.000          47.100
 112118800.659 8  87365346.37446  21335482.484
  21335484.906          49.100          37.200
 127391833.955 6  99266395.175 6  24241857.531    24241862.125
  24241862.215          41.400          39.100
 126922087.186 7  98900444.251 7  24152444.391    24152449.633
  24152449.461          42.900          42.900
 119725748.090 7  93292836.601 7  22783048.563    22783056.207
  22783056.930          42.600          44.100
 121294332.992 7  94515122.37844  23081533.602
  23081536.375          43.900          27.900
 117001558.984 7  91169909.083 7  22264591.000    22264597.117
  22264597.203          46.200          45.400
 126582890.850 6  98636096.00243  24087901.430
  24087904.527          39.800          19.600
 16  2 13  2  2 30.0000000  0 10G30G07G08G11G17G27G01G28G09G23
 113177038.565 8  88189945.864 7  21536862.805    21536867.555
  21536867.465          49.400          47.600
 105988191.374 8  82588253.870 8  20168859.945    20168862.055
  20168862.113          48.300          49.500
 113784195.598 8  88663110.443 7  21652383.945    21652389.391
  21652389.191          48.500          47.600
 112068118.838 8  87325854.06346  21325837.664
  21325840.555          49.300          36.500
 127294882.538 7  99190848.651 6  24223408.117    24223411.332
  24223411.660          42.600          36.500
 127025489.197 6  98981017.198 6  24172118.844    24172125.203
  24172125.734          39.400          40.100
 119644666.455 7  93229656.112 7  22767620.508    22767626.215
  22767626.555          44.500          42.800
 121255639.970 7  94484971.98644  23074169.961
  23074172.293          44.600          26.500
 117086958.356 7  91236453.989 7  22280842.094    22280848.254
  22280849.047          45.500          46.600
 126691288.188 6  98720561.44943  24108530.422
  24108533.898          41.400          22.900
 16  2 13  2  3  0.0000000  0 10G30G07G08G11G17G27G01G28G09G23
 113105732.636 8  88134382.819 7  21523293.328    21523298.262
  21523298.250          49.600          47.200
 105958771.010 8  82565328.906 8  20163261.000    20163263.281
  20163263.422          48.300          48.600
 113857309.929 8  88720082.646 7  21666297.195    21666302.961
  21666302.336          48.600          46.700
 112017927.559 8  87286743.99046  21316286.852
  21316289.242          48.900          37.000
 127198121.500 6  99115450.509 6  24204993.953    24204998.477
  24204998.113          39.700          38.700
 127128960.169 6  99061643.957 6  24191810.289    24191814.152
  24191813.766          41.500          38.200
 119563807.751 6  93166649.326 6  22752232.086    22752239.434
  22752239.063          41.600          41.600
 121217030.248 7  94454886.50844  23066822.625
  23066824.980          42.500          26.500
 117172614.403 7  91303198.936 7  22297142.219    22297147.422
  22297147.707          46.200          45.300
 126799666.977 6  98805012.37543  24129153.367
  24129157.785          40.200          20.100
 16  2 13  2  3 30.0000000  0 10G30G07G08G11G17G27G01G28G09G23
 113034635.405 8  88078982.404 7  21509763.688    21509769.238
  21509768.867          48.500          47.000
 105929756.862 8  82542720.483 8  20157739.797    20157742.449
  20157742.305          48.700          48.900
 113930729.687 7  88777292.826 7  21680267.836    21680273.750
  21680273.441          46.700          47.100
 111968228.355 7  87248017.36046  21306828.953
  21306831.840          47.900          36.300
 127101551.488 7  99040201.231 6  24186618.820    24186622.605
  24186623.141          42.800          39.500
 127232497.082 6  99142322.090 6  24211512.758    24211518.410
  24211518.301          41.100          41.400
 119483174.668 7  93103818.389 7  22736888.719    22736895.961
  22736896.047          42.400          43.400
 121178502.585 6  94424864.99244  23059490.844
  23059493.816          41.300          27.300
 117258523.487 7  91370141.106 7  22313489.914    22313495.246
  22313494.570          45.600          44.500
 126908023.986 6  98889446.46542  24149773.750
  24149774.238          41.300          17.800
 16  2 13  2  4  0.0000000  0 10G30G07G08G11G17G27G01G28G09G23
 112963749.071 8  88023746.318 7  21496274.906    21496279.980
  21496279.313          49.400          46.700
 105901151.408 8  82520430.517 8  20152296.820    20152299.059
  20152298.832          48.100          48.800
 114004452.417 8  88834739.105 7  21694297.695    21694303.363
  21694302.766          48.400          46.000
 111919023.490 8  87209675.92146  21297465.617
  21297468.012          48.500          36.400
 127005174.664 6  98965102.476 6  24168277.156    24168281.086
  24168281.363          40.800          36.900
 127336097.841 6  99223049.856 6  24231226.422    24231232.684
  24231232.926          38.800          41.000
 119402770.561 7  93041165.853 7  22721589.141    22721595.785
  22721596.289          44.600          44.100
 121140056.063 7  94394906.71144  23052175.336
  23052178.664          44.100          28.100
 117344682.548 7  91437278.003 7  22329884.992    22329891.492
  22329891.750          45.600          46.100
 127016356.295 6  98973861.26443  24170388.719
  24170391.289          40.400          21.800
 16  2 13  2  4 30.0000000  0 10G30G07G08G11G17G27G01G28G09G23
 112893076.460 8  87968676.755 7  21482826.461    21482831.164
  21482830.949          50.100          47.200
 105872956.687 8  82498460.604 8  20146931.273    20146933.758
  20146934.043          48.600          49.100
 114078476.050 8  88892419.861 7  21708383.984    21708388.988
  21708388.496          48.000          46.500
 111870315.708 8  87171721.83046  21288196.891
  21288199.051          48.800          36.800
 126908993.274 7  98890155.978 6  24149975.492    24149979.449
  24149979.613          42.900          38.800
 127439760.465 7  99303825.961 6  24250954.195    24250957.457
  24250957.117          43.000          37.800
 119322599.036 7  92978694.570 7  22706331.477    22706338.863
  22706339.477          42.000          42.500
 121101690.254 7  94365011.32344  23044874.852
  23044878.469          43.700          29.400
 117431089.014 7  91504607.687 7  22346328.219    22346333.918
  22346334.695          45.800          46.000
 127124661.845 6  99058255.09943  24190997.578
  24191001.840          39.700          21.700
 16  2 13  2  5  0.0000000  0 10G30G07G08G11G17G27G01G28G09G23
 112822619.293 8  87913775.086 7  21469418.469    21469423.512
  21469423.734          48.300          47.600
 105845175.155 8  82476812.663 8  20141644.875    20141647.535
  20141647.324          48.700          49.400
 114152797.586 8  88950332.750 7  21722526.430    21722532.242
  21722531.699          48.200          46.500
 111822106.895 8  87134156.53346  21279023.148
  21279025.516          48.700          36.500
 126813008.694 7  98815362.844 6  24131710.227    24131714.824
  24131715.133          42.800          39.900
 127543482.310 6  99384648.231 6  24270690.203    24270697.164
  24270696.387          39.000          39.500
 119242662.963 6  92916406.735 6  22691120.688    22691127.027
  22691126.762          41.300          41.800
 121063404.086 7  94335177.96244  23037588.836
  23037592.285          44.000          29.000
 117517739.424 7  91572127.467 7  22362816.805    22362822.508
  22362822.215          44.100          44.900
 127232937.015 6  99142625.37243  24211603.008
  24211604.176          41.100          19.000
 16  2 13  2  5 30.0000000  0 10G30G07G08G11G17G27G01G28G09G23
 112752379.712 8  87859042.986 7  21456052.133    21456057.645
  21456057.625          48.700          47.000
 105817807.659 8  82455487.339 8  20136436.758    20136439.176
  20136439.105          48.800          49.100
 114227414.538 7  89008475.813 7  21736725.758    21736731.203
  21736730.980          47.800          46.300
 111774399.079 8  87096981.62446  21269944.359
  21269947.000          48.900          36.400
 126717222.718 6  98740724.516 6  24113481.164    24113486.441
  24113486.570          41.100          37.900
 127647261.057 6  99465514.695 7  24290439.813    24290445.527
  24290445.801          40.600          42.000
 119162965.575 7  92854304.868 7  22675955.789    22675961.844
  22675962.090          44.500          43.300
 121025196.411 7  94305405.79644  23030317.742
  23030320.523          43.800          27.200
 117604630.619 7  91639834.885 7  22379351.695    22379357.539
  22379357.273          45.200          44.400
 127341179.207 6  99226969.95343  24232199.703
  24232202.727          38.800          19.900
 16  2 13  2  6  0.0000000  0 10G30G07G08G11G17G27G01G28G09G23
 112682360.594 8  87804482.646 7  21442728.477    21442733.238
  21442732.465          50.100          46.300
 105790857.512 8  82434487.222 8  20131307.711    20131310.508
  20131310.750          48.500          49.100
 114302324.753 7  89066847.410 7  21750980.891    21750986.371
  21750985.922          47.600          46.900
 111727195.156 8  87060199.35846  21260961.875
  21260964.359          48.200          36.800
 126621637.067 7  98666242.195 6  24095293.422    24095296.512
  24095296.141          42.600          37.000
 127751094.874 7  99546424.173 6  24310198.992    24310203.480
  24310203.699          42.600          39.100
 119083510.721 7  92792392.017 7  22660834.563    22660842.566
  22660843.309          42.600          44.600
 120987067.468 7  94275694.95744  23023062.055
  23023064.156          42.600          26.800
 117691760.096 7  91707727.961 7  22395931.938    22395938.730
  22395939.211          44.900          46.100
 127449386.571 6  99311287.31743  24252790.914
  24252794.766          38.400          20.600
 16  2 13  2  6 30.0000000  0 10G30G07G08G11G17G27G01G28G09G23
 112612563.454 8  87750095.257 7  21429445.969    21429451.133
  21429450.711          49.500          46.700
 105764325.271 8  82413812.740 8  20126259.258    20126262.109
  20126261.910          48.700          49.200
 114377525.208 7  89125445.165 7  21765290.750    21765296.520
  21765295.871          47.500          46.100
 111680496.203 8  87023810.57846  21252075.477
  21252078.168          48.200          36.900
 126526252.816 6  98591916.850 6  24077141.641    24077145.793
  24077146.223          41.200          39.700
 127854980.985 6  99627374.446 6  24329966.344    24329972.438
  24329971.340          39.000          39.300
 119004300.940 7  92730670.169 7  22645761.766    22645768.832
  22645768.910          42.700          43.100
 120949014.897 7  94246043.63044  23015821.250
  23015823.516          43.400          26.900
 117779124.089 7  91775803.748 7  22412556.781    22412562.766
  22412563.164          45.200          45.400
 127557555.169 6  99395574.49843  24273376.477
  24273377.355          40.700          19.900
 16  2 13  2  7  0.0000000  0 10G30G07G08G11G17G27G01G28G09G23
 112542991.267 8  87695883.194 7  21416206.773    21416212.324
  21416212.383          48.200          47.300
 105738214.014 8  82393466.306 8  20121290.461    20121292.609
  20121292.766          48.800          49.300
 114453014.177 7  89184267.729 7  21779655.898    21779661.582
  21779660.844          47.000          46.600
 111634305.418 7  86987817.78746  21243285.273
  21243288.180          47.500          36.900
 126431072.916 7  98517750.809 6  24059030.430    24059034.078
  24059034.328          42.900          38.800
 127958917.790 7  99708364.116 7  24349746.188    24349751.953
  24349751.824          42.300          42.200
 118925340.103 7  92669142.244 7  22630737.070    22630742.805
  22630742.020          44.900          42.200
 120911038.933 7  94216451.99344  23008594.680
  23008598.137          43.800          29.100
 117866720.336 7  91844060.556 7  22429226.172    22429231.445
  22429230.863          44.700          44.100
 127665682.918 6  99479829.98243  24293950.898
  24293951.684          38.300          19.600
 16  2 13  2  7 30.0000000  0 10G30G07G08G11G17G27G01G28G09G23
 112473645.589 8  87641847.629 7  21403010.992    21403016.313
  21403016.445          49.400          47.800
 105712525.028 8  82373448.913 8  20116401.828    20116404.469
  20116404.426          48.700          49.300
 114528788.131 7  89243312.359 7  21794075.156    21794080.629
  21794080.398          47.300          46.300
 111588624.002 8  86952221.90046  21234592.188
  21234595.238          49.300          36.300
 126336098.159 7  98443744.473 6  24040957.453    24040960.215
  24040959.680          43.700          37.100
 128062902.256 6  99789390.950 6  24369533.352    24369538.754
  24369539.234          39.900          40.800
 118846630.872 7  92607810.361 7  22615758.594    22615765.152
  22615765.641          44.000          43.300
 120873138.033 7  94186918.86144  23001382.211
  23001385.930          44.600          29.100
 117954544.917 7  91912495.296 7  22445938.414    22445944.613
  22445944.891          44.100          45.200
 127773766.892 6  99564051.16343  24314520.211
  24314522.355          40.200          22.200
 16  2 13  2  8  0.0000000  0 10G30G07G08G11G17G27G01G28G09G23
 112404528.935 8  87587990.503 7  21389858.305    21389863.762
  21389863.363          49.600          46.700
 105687260.421 8  82353762.210 8  20111594.250    20111596.816
  20111596.965          48.700          49.300
 114604845.047 7  89302577.476 7  21808548.398    21808554.336
  21808553.941          47.700          47.000
 111543453.942 8  86917024.47346  21225996.859
  21226000.297          49.200          36.600
 126241330.341 6  98369899.456 6  24022921.945    24022927.551
  24022927.082          41.300          38.800
 128166932.616 6  99870453.564 6  24389329.000    24389334.465
  24389334.012          39.400          38.300
 118768176.614 7  92546677.228 7  22600828.141    22600835.988
  22600836.551          43.000          43.600
 120835311.479 7  94157443.66844  22994183.727
  22994188.242          44.600          28.900
 118042595.148 7  91981105.800 7  22462693.813    22462700.176
  22462700.426          45.400          45.600
 127881804.221 6  99648236.04943  24335079.141
  24335080.824          38.800          19.600
 16  2 13  2  8 30.0000000  0 10G30G07G08G11G17G27G01G28G09G23
 112335643.817 8  87534313.789 7  21376749.813    21376755.082
  21376754.566          49.800          46.900
 105662422.524 8  82334408.009 8  20106867.641    20106870.242
  20106870.355          49.000          49.500
 114681182.790 7  89362061.417 7  21823074.461    21823081.090
  21823080.473          47.300          46.900
 111498798.369 8  86882227.94946  21217499.266
  21217502.258          49.000          36.600
 126146771.687 7  98296217.467 6  24004929.625    24004933.707
  24004933.242          43.200          39.800
 128271006.668 6  99951550.248 6  24409134.797    24409140.918
  24409140.984          39.800          41.700
 118689980.904 7  92485745.551 7  22585949.344    22585954.973
  22585955.684          44.200          42.700
 120797558.556 7  94128025.84044  22986999.430
  22987003.434          43.900          27.900
 118130868.116 7  92049889.927 7  22479492.266    22479497.086
  22479496.945          46.000          44.300
 127989792.664 6  99732382.89143  24355627.570
  24355628.152          37.800          18.300
 16  2 13  2  9  0.0000000  0 10G30G07G08G11G17G27G01G28G09G23
 112266992.134 8  87480818.986 7  21363685.938    21363691.496
  21363691.434          49.000          47.300
 105638012.690 8  82315387.354 8  20102222.773    20102225.355
  20102225.344          48.700          49.100
 114757798.106 7  89421761.655 7  21837654.352    21837660.203
  21837659.637          47.300          46.900
 111454658.659 8  86847833.38646  21209099.398
  21209102.727          48.200          36.300
 126052423.717 7  98222699.576 6  23986974.867    23986978.660
  23986978.375          42.500          37.700
 128375121.932 6 100032678.976 6  24428946.203    24428953.234
  24428953.402          37.600          41.200
 118612046.674 7  92425017.552 6  22571118.656    22571124.672
  22571124.160          45.200          41.900
 120759878.394 7  94098664.71344  22979830.117
  22979832.191          43.800          26.700
 118219360.381 7  92118844.957 7  22496331.141    22496336.914
  22496336.406          44.500          44.500
 128097728.899 6  99816489.06543  24376167.578
  24376169.195          40.400          21.700
 16  2 13  2  9 30.0000000  0 10G30G07G08G11G17G27G01G28G09G23
 112198576.503 8  87427508.121 8  21350667.195    21350672.375
  21350672.504          49.400          48.000
 105614033.248 8  82296702.071 8  20097659.586    20097662.352
  20097662.012          49.300          48.800
 114834688.826 7  89481676.491 7  21852286.203    21852292.184
  21852291.820          47.800          47.200
 111411036.932 8  86813842.45346  21200799.391
  21200801.656          48.800          36.700
 125958288.267 6  98149347.305 6  23969061.367    23969065.785
  23969065.391          41.100          39.400
 128479276.608 6 100113838.423 6  24448766.805    24448771.512
  24448771.859          39.600          38.300
 118534377.412 7  92364496.055 7  22556337.906    22556345.098
  22556345.543          43.700          43.600
 120722270.487 7  94069359.86044  22972673.797
  22972674.680          44.900          27.500
 118308069.296 7  92187968.729 7  22513212.375    22513218.156
  22513218.594          45.000          45.600
 128205610.719 6  99900552.79943  24396696.625
  24396699.031          39.400          19.000
 16  2 13  2 10  0.0000000  0 10G30G07G08G11G17G27G01G28G09G23
 112130398.880 8  87374382.716 7  21337692.906    21337698.309
  21337698.422          49.700          47.500
 105590485.966 8  82278353.530 8  20093178.625    20093180.965
  20093181.027          49.300          48.600
 114911852.111 7  89541803.717 7  21866969.523    21866975.871
  21866975.496          47.400          47.200
 111367935.106 8  86780256.61746  21192596.805
  21192599.730          49.200          37.300
 125864366.530 7  98076161.596 6  23951189.313    23951193.730
  23951193.855          43.000          40.000
 128583468.084 6 100195026.688 6  24468593.781    24468599.578
  24468599.441          40.100          40.100
 118456976.040 7  92304183.355 7  22541609.570    22541616.785
  22541617.535          44.700          44.100
 120684733.538 7  94040110.29944  22965530.383
  22965532.387          43.700          28.600
 118396991.328 7  92257258.589 7  22530133.648    22530138.977
  22530139.316          45.900          45.000
 128313435.031 6  99984571.74643  24417214.945
  24417216.742          40.900          18.600
 16  2 13  2 10 30.0000000  0 10G30G07G08G11G17G27G01G28G09G23
 112062461.746 8  87321444.707 7  21324764.414    21324770.223
  21324769.633          48.700          47.900
 105567372.729 8  82260343.206 8  20088780.586    20088783.039
  20088782.961          48.900          49.500
 114989285.739 7  89602141.598 7  21881705.164    21881710.578
  21881709.895          47.800          46.400
 111325355.458 8  86747077.67646  21184494.258
  21184497.168          49.200          37.100
 125770660.255 6  98003143.743 6  23933356.836    23933361.520
  23933360.832          41.600          38.300
 128687694.528 6 100276242.007 7  24488425.969    24488433.742
  24488434.004          37.100          42.200
 118379846.117 7  92244082.144 7  22526932.602    22526938.754
  22526939.535          45.700          43.500
 120647266.639 7  94010915.35544  22958400.414
  22958404.184          44.900          27.500
 118486123.704 7  92326712.404 7  22547094.492    22547100.051
  22547099.523          43.900          43.700
 128421199.589 6 100068544.17943  24437722.313
  24437724.668          41.300          20.900
 16  2 13  2 11  0.0000000  0 10G30G07G08G11G17G27G01G28G09G23
 111994767.016 8  87268695.580 7  21311883.016    21311888.555
  21311888.191          49.100          47.700
 105544695.248 8  82242672.439 8  20084464.906    20084467.781
  20084467.691          49.200          49.200
 115066987.042 7  89662688.062 7  21896491.328    21896496.762
  21896496.523          47.600          46.300
 111283299.581 7  86714306.88046  21176491.188
  21176494.188          47.900          37.300
 125677171.604 7  97930295.468 6  23915567.016    23915570.445
  23915570.328          42.800          38.600
 128791953.243 6 100357482.525 6  24508267.438    24508272.477
  24508272.656          41.800          38.300
 118302990.370 7  92184194.550 7  22512307.070    22512312.848
  22512312.426          44.600          42.100
 120609869.223 7  93981774.56444  22951283.258
  22951287.461          45.100          28.800
 118575462.994 7  92396327.405 7  22564095.344    22564101.547
  22564101.770          45.600          45.700
 128528901.251 6 100152467.47442  24458216.266
  24458219.734          37.900          17.400
 16  2 13  2 11 30.0000000  0 10G30G07G08G11G17G27G01G28G09G23
 111927317.825 8  87216137.772 7  21299047.688    21299053.313
  21299053.441          48.100          47.400
 105522456.213 8  82225343.315 8  20080233.211    20080235.574
  20080235.641          49.200          49.300
 115144954.153 7  89723441.647 7  21911327.906    21911333.305
  21911332.871          47.300          46.300
 111241770.308 8  86681946.42346  21168588.172
  21168591.176          48.100          37.500
 125583902.299 7  97857618.107 6  23897817.891    23897822.883
  23897823.070          42.600          40.700
 128896242.908 6 100438747.301 6  24528112.477    24528117.992
  24528117.535          38.900          39.200
 118226412.925 7  92124523.848 7  22497734.711    22497741.578
  22497741.316          44.500          43.200
 120572540.979 7  93952687.67644  22944180.188
  22944184.223          43.900          29.200
 118665006.868 7  92466101.822 7  22581135.805    22581141.043
  22581141.574          46.400          46.000
 128636537.893 6 100236340.16143  24478699.258
  24478701.125          40.200          19.300
 16  2 13  2 12  0.0000000  0 10G30G07G08G11G17G27G01G28G09G23
 111860115.511 8  87163772.352 7  21286259.766    21286265.133
  21286265.078          48.600          47.500
 105500656.569 8  82208356.577 8  20076084.633    20076087.113
  20076087.141          49.100          49.200
 115223183.448 7  89784399.526 7  21926214.273    21926220.047
  21926219.809          47.100          46.100
 111200768.529 8  86649997.00546  21160785.539
  21160789.379          48.000          37.300
 125490853.026 6  97785112.284 6  23880110.570    23880115.777
  23880115.859          41.900          39.600
 129000560.661 6 100520033.765 6  24547962.922    24547969.930
  24547969.746          40.100          41.300
 118150116.001 7  92065071.733 7  22483216.180    22483222.980
  22483223.555          45.800          44.100
 120535280.178 7  93923653.32244  22937090.633
  22937093.234          44.700          29.400
 118754751.365 7  92536032.566 7  22598212.938    22598218.270
  22598218.102          44.800          43.000
 128744106.208 6 100320159.68142  24499167.172
  24499170.219          38.300          16.300
 16  2 13  2 12 30.0000000  0 10G30G07G08G11G17G27G01G28G09G23
 111793162.933 8  87111601.527 7  21273519.336    21273524.910
  21273524.586          48.000          47.900
 105479298.803 8  82191714.164 8  20072020.555    20072023.398
  20072023.305          49.600          49.500
 115301673.215 7  89845560.378 7  21941150.547    21941156.043
  21941155.289          46.400          46.300
 111160296.523 7  86618460.39346  21153084.516
  21153087.855          47.000          36.900
 125398026.307 7  97712779.760 6  23862448.047    23862450.695
  23862449.805          43.000          37.500
 129104904.625 7 100601340.739 6  24567820.578    24567825.273
  24567825.828          42.100          40.000
 118074103.407 7  92005841.172 7  22468751.016    22468758.266
  22468759.277          45.900          43.900
 120498086.564 7  93894671.30444  22930012.430
  22930014.336          43.400          29.500
 118844693.952 7  92606117.719 7  22615328.844    22615334.313
  22615333.676          45.600          44.600
 128851604.033 6 100403924.17343  24519625.773
  24519627.609          38.900          20.600
 16  2 13  2 13  0.0000000  0 10G30G07G08G11G17G27G01G28G09G23
 111726462.042 8  87059626.810 7  21260826.523    21260831.543
  21260831.258          48.500          47.900
 105458384.174 8  82175417.051 8  20068040.641    20068043.289
  20068043.332          49.000          49.800
 115380420.623 7  89906921.999 7  21956135.602    21956141.262
  21956140.727          46.400          46.100
 111120356.058 7  86587337.97246  21145483.875
  21145486.973          46.400          37.100
 125305423.568 6  97640621.795 6  23844824.719    23844830.055
  23844829.625          41.400          39.400
 129209272.460 6 100682666.375 6  24587678.938    24587685.102
  24587685.406          38.100          36.900
 117998377.985 7  91946834.371 7  22454340.922    22454347.234
  22454347.336          45.000          42.900
 120460958.931 7  93865740.68344  22922947.164
  22922948.469          43.900          28.800
 118934831.151 7  92676354.480 7  22632481.063    22632487.102
  22632488.156          45.400          45.600
 128959028.347 6 100487631.41343  24540066.852
  24540068.789          37.700          18.600
 16  2 13  2 13 30.0000000  0 10G30G07G08G11G17G27G01G28G09G23
 111660015.455 8  87007850.263 7  21248181.633    21248187.168
  21248186.988          48.100          47.800
 105437915.091 8  82159467.110 8  20064145.406    20064148.078
  20064148.238          49.100          49.600
 115459423.339 7  89968482.539 7  21971169.180    21971175.012
  21971174.688          46.600          46.200
 111080949.589 7  86556631.64746  21137985.102
  21137988.117          46.100          36.800
 125213046.612 7  97568639.857 6  23827246.781    23827251.633
  23827252.188          42.700          41.200
 129313662.442 7 100764009.188 6  24607545.953    24607551.180
  24607551.156          42.000          40.900
 117922943.307 7  91888054.094 7  22439986.391    22439992.613
  22439992.523          45.800          42.900
 120423896.802 7  93836861.12944  22915894.008
  22915896.707          43.900          27.800
 119025160.306 7  92746740.773 7  22649669.727    22649675.828
  22649676.477          44.900          44.400
 129066376.931 6 100571279.69543  24560493.969
  24560496.367          39.200          18.300
 16  2 13  2 14  0.0000000  0 10G30G07G08G11G17G27G01G28G09G23
 111593825.331 8  86956273.560 8  21235586.609    21235591.941
  21235591.852          48.600          48.600
 105417893.074 8  82143865.524 8  20060335.531    20060337.797
  20060337.574          49.600          49.100
 115538678.524 7  90030239.817 7  21986251.281    21986257.070
  21986256.656          46.200          45.900
 111042078.793 7  86526342.73746  21130588.422
  21130591.332          46.800          37.700
 125120896.353 7  97496834.459 6  23809711.711    23809714.152
  23809714.332          43.600          38.300
 129418072.064 6 100845367.314 6  24627413.156    24627419.637
  24627419.805          41.900          40.600
 117847802.434 7  91829502.765 7  22425688.000    22425694.051
  22425694.590          46.500          44.000
 120386899.310 7  93808031.94544  22908853.719
  22908856.484          42.300          29.900
 119115678.096 7  92817274.125 7  22666895.906    22666900.207
  22666899.523          45.500          43.100
 129173646.737 6 100654866.51043  24580907.664
  24580910.824          40.000          20.900
 16  2 13  2 14 30.0000000  0 10G30G07G08G11G17G27G01G28G09G23
 111527894.055 7  86904898.559 7  21223039.750    21223045.793
  21223045.492          47.900          47.300
 105398319.805 8  82128613.622 8  20056610.836    20056613.668
  20056613.652          49.500          49.000
 115618184.197 7  90092192.293 7  22001380.250    22001385.801
  22001385.457          45.900          45.700
 111003745.045 7  86496472.29946  21123293.500
  21123296.762          47.500          37.600
 125028975.057 7  97425207.477 6  23792218.773    23792223.391
  23792222.945          42.200          39.100
 129522499.613 6 100926739.400 6  24647285.234    24647289.914
  24647290.500          37.300          37.000
 117772958.573 7  91771182.917 7  22411444.758    22411451.832
  22411452.816          45.200          44.900
 120349965.627 7  93779252.49144  22901826.094
  22901828.965          44.400          29.400
 119206381.518 7  92887952.122 7  22684155.273    22684161.488
  22684161.922          43.800          44.900
 129280835.278 6 100738390.07242  24601304.570
  24601305.512          38.900          16.300
 16  2 13  2 15  0.0000000  0 11G30G07G08G13G11G17G27G01G28G09G23
 111462223.771 8  86853726.917 7  21210543.227    21210548.945
  21210548.625          48.100          47.900
 105379197.282 8  82113712.944 8  20052972.320    20052974.301
  20052974.309          48.400          49.300
 115697937.283 7  90154337.539 7  22016556.898    22016563.297
  22016562.801          46.000          46.400
 132196983.04816                  25156249.578
                        37.700
 110965950.531 7  86467022.02946  21116101.719
  21116104.270          47.400          36.700
 124937284.013 7  97353759.978 6  23774771.594    23774775.367
  23774775.820          42.700          41.400
 129626942.600 6 101008123.621 6  24667160.922    24667166.008
  24667164.984          40.300          40.100
 117698414.788 7  91713096.887 7  22397259.922    22397266.648
  22397266.789          45.500          43.300
 120313094.925 7  93750522.11745  22894809.820
  22894812.254          45.800          30.000
 119297267.437 7  92958772.245 7  22701450.375    22701456.055
  22701457.133          44.000          44.900
 129387940.061 6 100821848.30143  24621685.828
  24621687.922          39.700          19.000
 16  2 13  2 15 30.0000000  0 11G30G07G08G13G11G17G27G01G28G09G23
 111396816.993 8  86802760.608 7  21198096.922    21198102.488
  21198102.266          48.700          47.600
 105360527.515 8  82099165.073 8  20049418.953    20049421.270
  20049421.355          49.500          49.600
 115777935.731 7  90216673.977 7  22031780.461    22031786.195
  22031786.234          47.000          47.000
 132111705.360 6 102944202.02852  25140021.555
  25140025.664          39.500          15.600
 110928697.025 8  86437993.33846  21109012.633
  21109014.938          48.300          37.000
 124845825.275 7  97282493.447 6  23757366.367    23757370.762
  23757371.328          42.400          39.400
 129731399.218 6 101089518.368 6  24687037.875    24687044.141
  24687044.129          38.600          41.700
 117624174.568 7  91655247.357 7  22383132.844    22383138.543
  22383137.863          45.900          43.200
 120276286.397 7  93721840.16244  22887805.484
  22887806.637          46.100          28.200
 119388332.835 7  93029732.288 7  22718779.805    22718784.832
  22718784.813          45.200          43.300
 129494958.440 6 100905239.25343  24642051.188
  24642054.305          38.500          21.100
 16  2 13  2 16  0.0000000  0 11G30G07G08G13G11G17G27G01G28G09G23
 111331675.612 8  86752001.099 8  21185701.055    21185706.199
  21185705.996          49.200          48.200
 105342311.672 8  82084970.905 8  20045952.797    20045955.387
  20045955.313          49.100          49.000
 115858176.479 7  90279199.211 7  22047049.594    22047055.531
  22047055.094          45.900          46.300
 132026765.578 6 102878015.15442  25123858.336
  25123861.848          37.600          17.800
 110891985.846 7  86409387.23846  21102026.609
  21102029.676          46.300          37.200
 124754599.839 6  97211408.717 6  23740006.453    23740010.125
  23740010.129          40.900          38.700
 129835867.121 6 101170921.837 6  24706917.070    24706922.094
  24706922.648          37.700          37.600
 117550240.533 7  91597636.404 7  22369063.352    22369070.023
  22369070.406          44.800          44.300
 120239538.856 7  93693205.72544  22880811.898
  22880812.945          45.200          27.500
 119479574.299 7  93100829.556 7  22736142.484    22736148.301
  22736147.824          43.400          43.300
 129601887.431 6 100988560.44042  24662398.523
  24662402.266          38.700          17.800
 16  2 13  2 16 30.0000000  0 11G30G07G08G13G11G17G27G01G28G09G23
 111266802.488 8  86701450.622 7  21173355.906    21173361.324
  21173360.953          48.300          47.600
 105324552.113 8  82071132.280 8  20042573.063    20042575.449
  20042575.313          48.800          49.500
 115938657.819 7  90341911.930 7  22062364.227    22062370.297
  22062369.938          46.700          46.300
 131942166.770 6 102812094.16842  25107759.359
  25107762.766          36.300          16.900
 110855819.415 7  86381205.61946  21095144.297
  21095147.043          47.800          37.300
 124663609.832 7  97140507.436 6  23722692.742    23722696.594
  23722696.621          42.500          40.600
 129940344.511 6 101252332.939 6  24726798.992    24726803.656
  24726802.348          39.800          37.300
 117476616.452 7  91540267.042 7  22355053.227    22355060.008
  22355060.902          44.000          45.300
 120202852.297 7  93664618.81644  22873830.969
  22873831.629          42.600          27.900
 119570989.337 7  93172062.004 7  22753538.250    22753544.395
  22753544.922          44.100          44.900
 129708724.954 6 101071810.48842  24682728.945
  24682730.449          39.600          15.600
 16  2 13  2 17  0.0000000  0 11G30G07G08G13G11G17G27G01G28G09G23
 111202199.510 8  86651110.645 7  21161062.359    21161067.375
  21161066.988          48.900          47.500
 105307250.260 8  82057650.306 8  20039280.953    20039283.332
  20039283.336          49.300          48.800
 116019376.630 7  90404809.695 7  22077724.898    22077730.613
  22077730.230          46.300          46.000
 131857911.110 6 102746440.44842  25091727.008
  25091730.063          39.700          17.800
 110820199.057 8  86353449.51646  21088365.672
  21088368.793          48.600          37.600
 124572856.235 6  97069790.406 6  23705422.367    23705426.363
  23705426.730          41.800          39.500
 130044829.126 6 101333749.486 6  24746680.313    24746688.055
  24746687.563          36.600          41.800
 117403305.098 7  91483141.342 7  22341102.664    22341109.449
  22341110.082          45.000          44.100
 120166225.289 7  93636078.31944  22866860.953
  22866862.219          45.200          29.000
 119662574.325 7  93243426.912 7  22770966.023    22770971.652
  22770972.086          44.400          44.600
 129815468.278 6 101154987.12043  24703042.297
  24703044.492          40.600          19.300
 16  2 13  2 17 30.0000000  0 11G30G07G08G13G11G17G27G01G28G09G23
 111137869.155 8  86600983.104 7  21148820.922    21148826.168
  21148825.773          48.800          47.600
 105290407.824 8  82044526.315 8  20036075.828    20036078.363
  20036078.371          50.000          49.500
 116100330.681 7  90467890.754 7  22093129.836    22093135.914
  22093136.066          45.900          47.000
 131774001.069 6 102681055.97742  25075759.258
  25075761.793          39.200          12.600
 110785126.791 7  86326120.49346  21081692.336
  21081694.871          47.300          37.200
 124482340.922 7  96999259.019 6  23688197.523    23688201.180
  23688201.066          42.800          39.200
 130149319.038 6 101415170.087 6  24766565.109    24766571.199
  24766571.535          38.900          40.600
 117330309.807 7  91426261.907 7  22327211.680    22327218.121
  22327217.727          45.600          43.200
 120129657.269 7  93607583.79344  22859902.898
  22859904.563          43.900          28.900
 119754326.457 7  93314922.089 7  22788425.695    22788431.707
  22788430.438          43.600          42.500
 129922115.083 6 101238088.45842  24723336.016
  24723339.035          37.000          17.800
 16  2 13  2 18  0.0000000  0 11G30G07G08G13G11G17G27G01G28G09G23
 111073813.491 8  86551069.608 7  21136631.313    21136636.836
  21136636.809          48.900          47.800
 105274026.363 8  82031761.535 8  20032958.664    20032960.914
  20032960.891          49.800          49.300
 116181517.152 7  90531152.919 7  22108579.031    22108584.387
  22108584.305          46.300          46.000
 131690438.704 5 102615942.41142  25059857.203
  25059859.414          35.900          15.600
 110750603.634 8  86299219.34646  21075122.547
  21075125.664          49.000          37.900
 124392065.415 7  96928914.465 6  23671019.336    23671023.750
  23671023.613          42.100          40.200
 130253811.866 6 101496593.171 5  24786449.141    24786453.539
  24786453.766          39.000          34.500
 117257633.433 7  91369630.965 7  22313382.078    22313388.027
  22313387.773          44.900          43.400
 120093147.284 7  93579134.48144  22852955.344
  22852957.750          45.400          29.800
 119846242.340 7  93386544.856 7  22805917.000    22805923.172
  22805923.582          44.500          44.300
 130028662.021 6 101321112.02142  24743611.930
  24743613.672          39.200          17.400
 16  2 13  2 18 30.0000000  0 11G30G07G08G13G11G17G27G01G28G09G23
 111010035.515 8  86501372.496 7  21124494.789    21124500.207
  21124500.129          49.100          47.600
 105258108.507 8  82019358.002 8  20029929.625    20029931.996
  20029931.809          48.900          48.700
 116262934.174 7  90594594.758 7  22124072.508    22124078.621
  22124077.891          46.500          45.500
 131607227.759 6 102551102.77943  25044023.172
  25044026.883          40.400          20.100
 110716632.170 8  86272748.08746  21068658.023
  21068660.539          48.000          37.400
 124302031.376 6  96858758.155 6  23653885.367    23653890.367
  23653890.738          41.100          41.300
 130358306.412 6 101578017.515 6  24806333.367    24806339.605
  24806338.883          37.100          39.800
 117185279.834 7  91313251.563 7  22299613.672    22299620.316
  22299621.094          45.400          44.700
 120056695.148 7  93550730.26244  22846018.641
  22846020.883          43.700          29.900
 119938319.484 7  93458293.234 7  22823438.406    22823445.074
  22823445.453          43.700          44.400
 130135107.302 6 101404056.42142  24763867.320
  24763869.238          37.800          16.300
 16  2 13  2 19  0.0000000  0 11G30G07G08G13G11G17G27G01G28G09G23
 110946537.148 8  86451893.263 7  21112411.422    21112416.996
  21112416.438          49.100          47.300
 105242655.216 8  82007316.468 8  20026989.031    20026991.066
  20026991.266          50.000          49.600
 116344579.072 7  90658214.147 7  22139608.867    22139614.676
  22139614.090          46.000          46.200
 131524369.969 6 102486538.28342  25028256.445
  25028259.344          39.300          17.800
 110683213.733 7  86246707.76346  21062298.391
  21062301.027          47.200          37.000
 124212240.087 7  96788790.946 6  23636799.438    23636802.680
  23636802.867          42.500          38.900
 130462800.096 6 101659441.097 7  24826218.930    24826225.012
  24826225.246          40.900          42.200
 117113251.725 7  91257125.793 7  22285906.781    22285913.699
  22285914.785          45.100          44.600
 120020299.887 7  93522370.35044  22839092.344
  22839094.371          43.100          27.600
 120030554.579 6  93530164.697 7  22840989.703    22840995.641
  22840995.422          41.700          42.300
 130241448.394 6 101486919.60842  24784104.375
  24784105.688          39.600          16.900
 16  2 13  2 19 30.0000000  0 11G30G07G08G13G11G17G27G01G28G09G23
 110883320.507 8  86402633.549 7  21100382.086    21100386.926
  21100386.406          49.300          47.600
 105227667.944 8  81995638.063 8  20024136.922    20024139.406
  20024139.480          49.100          49.800
 116426449.130 7  90722008.973 7  22155188.352    22155193.648
  22155193.469          46.400          46.000
 131441867.439 6 102422250.56842  25012555.438
  25012558.723          36.100          13.900
 110650349.530 8  86221099.30846  21056044.359
  21056047.000          48.200          37.600
 124122693.223 7  96719014.149 6  23619758.539    23619763.215
  23619763.086          42.000          39.600
 130567290.855 6 101740862.449 6  24846101.906    24846107.695
  24846108.652          38.100          37.100
 117041552.071 7  91201255.957 7  22272262.586    22272269.340
  22272269.664          43.500          43.700
 119983960.161 7  93494053.70544  22832177.234
  22832178.035          44.500          28.900
 120122944.187 7  93602156.639 7  22858571.828    22858576.938
  22858575.863          44.000          43.500
 130347682.324 6 101569699.25543  24804319.477
  24804321.258          39.700          18.300
 16  2 13  2 20  0.0000000  0 11G30G07G08G13G11G17G27G01G28G09G23
 110820388.211 8  86353595.397 8  21088406.258    21088411.719
  21088411.457          48.800          48.600
 105213148.824 8  81984324.454 8  20021374.203    20021376.656
  20021376.484          49.700          49.300
 116508541.939 7  90785977.387 7  22170809.977    22170815.051
  22170814.617          46.300          45.900
 131359722.910 6                  24996924.102
                        38.300
 110618041.385 8  86195924.13746  21049896.477
  21049899.242          48.300          36.700
 124033392.399 7  96649429.162 6  23602765.422    23602770.234
  23602770.539          42.000          40.900
 130671777.034 6 101822280.354 6  24865985.695    24865991.176
  24865991.000          38.100          36.800
 116970184.272 7  91145644.687 7  22258682.281    22258688.859
  22258688.332          44.300          43.500
 119947675.720 7  93465780.13644  22825273.055
  22825272.605          45.100          28.500
 120215485.688 7  93674266.870 7  22876181.102    22876188.145
  22876188.656          42.500          45.100
 130453806.602 6 101652393.43742  24824513.133
  24824516.520          37.800          17.400
 16  2 13  2 20 30.0000000  0 11G30G07G08G13G11G17G27G01G28G09G23
 110757742.306 8  86304780.408 8  21076485.117    21076490.227
  21076490.531          48.900          48.400
 105199099.225 8  81973376.709 8  20018700.664    20018702.957
  20018703.117          49.500          49.700
 116590855.045 7  90850117.465 7  22186473.625    22186479.418
  22186478.641          46.200          45.600
 131277938.950 6 102294505.04143  24981362.055
  24981364.914          40.900          19.000
 110586290.909 8  86171183.51846  21043854.453
  21043857.203          48.000          37.700
 123944338.751 7  96580036.753 6  23585820.094    23585823.238
  23585823.375          43.100          40.200
 130776256.169 6 101903692.664 6  24885867.359    24885873.672
  24885873.648          40.600          41.500
 116899151.272 7  91090294.310 7  22245164.891    22245171.258
  22245171.316          44.600          44.200
 119911445.318 7  93437548.64644  22818378.883
  22818378.941          47.500          29.500
 120308175.662 7  93746492.749 7  22893819.914    22893825.715
  22893826.855          42.400          43.900
 130559818.963 6 101735000.43443  24844687.766
  24844689.879          39.400          19.000
 16  2 13  2 21  0.0000000  0 11G30G07G08G13G11G17G27G01G28G09G23
 110695385.410 7  86256190.636 8  21064618.820    21064624.590
  21064624.445          47.900          48.400
 105185521.011 8  81962796.266 8  20016116.430    20016119.227
  20016119.273          49.300          49.800
 116673386.183 7  90914427.424 7  22202178.672    22202184.695
  22202184.379          46.400          45.500
 131196517.911 6 102231060.09943  24965867.789
  24965871.035          38.100          20.100
 110555099.895 7  86146878.84846  21037919.055
  21037921.848          47.700          37.500
 123855534.323 6  96510838.491 6  23568919.609    23568923.688
  23568923.563          41.700          38.800
 130880726.806 6 101985098.268 6  24905746.836    24905753.715
  24905753.703          36.900          40.300
 116828456.342 7  91035207.384 7  22231711.531    22231718.758
  22231719.473          43.600          44.700
 119875268.853 7  93409359.21944  22811494.102
  22811495.691          46.000          29.500
 120401011.237 7  93818832.201 7  22911485.977    22911491.195
  22911489.816          43.400          42.000
 130665716.802 6 101817518.25143  24864839.469
  24864842.004          40.200          18.300
 16  2 13  2 21 30.0000000  0 11G30G07G08G13G11G17G27G01G28G09G23
 110633319.727 8  86207827.778 7  21052808.539    21052813.770
  21052813.262          48.800          47.900
 105172415.760 8  81952584.373 8  20013622.625    20013625.332
  20013625.449          49.600          49.500
 116756132.865 7  90978905.342 7  22217924.891    22217930.914
  22217930.211          47.000          45.700
 131115462.272 6 102167899.95042  24950442.266
  24950445.965          37.600          16.900
 110524469.664 7  86123011.15246  21032090.766
  21032092.938          47.500          37.700
 123766980.241 7  96441835.353 6  23552069.102    23552073.410
  23552073.770          42.700          41.500
 130985186.639 6 102066495.570 5  24925626.313    24925629.254
  24925630.066          41.100          34.400
 116758102.512 7  90980386.264 7  22218323.719    22218331.039
  22218331.617          43.800          45.000
 119839145.109 7  93381210.86745  22804619.898
  22804622.457          45.900          30.000
 120493989.392 7  93891282.694 7  22929178.867    22929185.723
  22929185.156          42.100          43.700
 130771497.528 6 101899944.72442  24884968.375
  24884971.332          38.400          16.900
 16  2 13  2 22  0.0000000  0 11G30G07G08G13G11G17G27G01G28G09G23
 110571547.393 7  86159693.484 8  21041053.336    21041058.809
  21041058.309          47.800          48.400
 105159784.702 8  81942741.982 8  20011219.047    20011221.578
  20011221.605          49.000          49.100
 116839092.327 7  91043549.080 7  22233711.617    22233716.758
  22233716.043          46.000          44.900
 131034774.075 6 102105026.02342  24935088.656
  24935090.813          39.400          16.900
 110494401.339 7  86099581.30246  21026368.367
  21026371.320          47.700          37.000
 123678677.703 7  96373028.222 6  23535266.180    23535269.949
  23535270.414          43.100          41.600
 131089633.595 6 102147882.925 6  24945501.648    24945507.246
  24945506.328          39.300          40.200
 116688092.698 7  90925833.177 7  22205001.836    22205007.867
  22205007.941          43.900          44.700
 119803073.167 7  93353102.90245  22797754.875
  22797758.012          45.000          30.000
 120587106.707 7  93963841.597 7  22946899.383    22946904.797
  22946905.523          43.900          44.500
 130877158.712 6 101982278.19343  24905075.906
  24905077.656          41.400          20.100
 16  2 13  2 22 30.0000000  0 11G30G07G08G13G11G17G27G01G28G09G23
 110510070.787 8  86111789.645 8  21029354.609    21029360.113
  21029359.871          48.400          48.900
 105147629.604 8  81933270.462 8  20008906.352    20008908.738
  20008908.684          49.400          49.600
 116922262.055 7  91108356.652 7  22249537.984    22249543.668
  22249542.969          46.000          44.700
 130954456.051 6 102042440.46542  24919804.477
  24919806.758          39.500          16.900
 110464896.620 7  86076590.61746  21020753.570
  21020756.680          47.900          37.400
 123590628.336 6  96304418.377 6  23518509.789    23518513.488
  23518513.152          41.100          39.200
 131194065.846 6 102229258.571 6  24965373.313    24965380.188
  24965379.789          38.200          40.900
 116618430.057 7  90871550.592 7  22191745.063    22191751.879
  22191752.176          43.500          44.600
 119767052.636 7  93325034.98444  22790901.078
  22790903.461          46.100          29.300
 120680360.245 7  94036506.666 7  22964643.992    22964649.750
  22964649.668          42.300          42.400
 130982697.762 6 102064516.38943  24925158.438
  24925161.484          38.000          19.600
 16  2 13  2 23  0.0000000  0 11G30G07G08G13G11G17G27G01G28G09G23
 110448892.367 8  86064118.176 8  21017712.703    21017717.930
  21017718.172          48.800          48.000
 105135952.340 8  81924171.288 8  20006684.227    20006686.766
  20006686.715          49.500          49.900
 117005639.982 7  91173326.450 7  22265404.703    22265410.340
  22265410.563          46.600          45.100
 130874510.546 6 101980145.29742  24904589.695
  24904595.215          36.100          16.300
 110435957.039 8  86054040.30046  21015246.727
  21015249.840          48.100          37.100
 123502833.695 7  96236006.957 6  23501803.844    23501807.512
  23501807.488          43.600          40.000
 131298481.592 6 102310621.465 5  24985243.930    24985248.086
  24985249.281          41.300          34.600
 116549117.805 7  90817541.084 7  22178554.977    22178562.859
  22178563.000          42.900          44.600
 119731082.730 7  93297006.51044  22784056.734
  22784057.641          46.800          29.700
 120773747.145 6  94109275.684 7  22982415.406    22982420.633
  22982419.625          41.900          42.700
 131088112.324 6 102146657.51942  24945218.563
  24945221.324          39.900          16.900
 16  2 13  2 23 30.0000000  0 11G30G07G08G13G11G17G27G01G28G09G23
 110388014.717 7  86016681.062 8  21006128.273    21006134.152
  21006133.926          47.400          48.500
 105124754.518 8  81915445.711 8  20004553.031    20004555.680
  20004555.816          49.500          49.600
 117089223.715 7  91238456.614 7  22281310.141    22281315.535
  22281315.277          46.400          45.300
 130794940.367 6 101918142.70942  24889447.945
  24889453.488          36.800          16.900
 110407584.141 7  86031931.56246  21009847.828
  21009850.762          46.600          37.700
 123415295.834 7  96167795.681 7  23485145.578    23485149.859
  23485151.051          43.400          42.000
 131402879.083 6 102391970.365 5  25005109.453    25005114.813
  25005113.758          38.600          34.800
 116480159.268 7  90763807.205 7  22165433.313    22165440.207
  22165440.891          43.600          45.600
 119695162.784 7  93269016.93844  22777221.383
  22777221.914          46.800          29.900
 120867264.461 7  94182146.301 7  23000211.961    23000217.727
  23000218.023          43.700          44.000
 131193400.170 6 102228700.07842  24965254.313
  24965256.773          39.500          17.800
 16  2 13  2 24  0.0000000  0 11G30G07G08G13G11G17G27G01G28G09G23
 110327440.054 8  85969480.034 8  20994601.313    20994606.977
  20994606.211          48.800          48.000
 105114037.686 8  81907094.927 8  20002513.688    20002516.188
  20002516.316          48.900          49.200
 117173010.754 7  91303745.212 7  22297254.094    22297260.102
  22297258.867          46.000          44.600
 130715747.628 6 101856434.03642  24874379.844
  24874382.406          39.500          16.300
 110379779.432 8  86010265.57246  21004556.883
  21004559.641          48.800          37.100
 123328015.645 7  96099785.228 6  23468536.156    23468540.492
  23468541.098          42.400          41.200
 131507256.545 6 102473303.334 6  25024972.008    25024977.926
  25024977.531          39.400          40.400
 116411557.330 7  90710351.175 7  22152378.836    22152385.305
  22152385.199          44.900          44.600
 119659292.160 7  93241065.79545  22770394.750
  22770395.984          46.100          30.200
 120960909.062 6  94255116.075 7  23018030.156    23018037.379
  23018037.855          41.100          42.900
 131298558.782 6 102310641.82642  24985265.078
  24985267.766          39.000          16.900
 16  2 13  2 24 30.0000000  0 11G30G07G08G13G11G17G27G01G28G09G23
 110267170.565 8  85922516.796 8  20983132.258    20983137.465
  20983137.023          48.500          48.800
 105103803.318 8  81899120.079 8  20000566.055    20000569.207
  20000569.211          48.600          50.000
 117256998.407 7  91369190.131 7  22313236.695    22313242.816
  22313242.285          45.500          44.900
 130636934.567 6 101795021.19342  24859382.195
  24859385.328          37.900          16.300
 110352544.251 7  85989043.36746  20999373.992
  20999376.902          47.000          37.600
 123240994.592 7  96031976.605 6  23451977.227    23451980.668
  23451979.434          44.100          38.400
 131611611.577 6 102554618.900 6  25044830.273    25044836.121
  25044836.129          40.900          39.000
 116343315.029 7  90657175.370 7  22139392.516    22139399.629
  22139399.398          44.500          45.400
 119623470.070 7  93213152.50944  22763577.531
  22763580.195          45.300          29.400
 121054677.915 7  94328182.702 6  23035874.484    23035879.930
  23035879.313          42.500          41.600
 131403585.716 6 102392481.06443  25005252.367
  25005253.922          41.600          19.600
 16  2 13  2 25  0.0000000  0 10G30G07G08G13G11G17G27G01G28G09
 110207208.568 7  85875793.163 8  20971721.625    20971727.051
  20971726.953          47.700          48.400
 105094052.471 8  81891521.997 8  19998710.688    19998713.395
  19998713.488          49.000          49.200
 117341184.712 7  91434789.822 7  22329256.469    22329263.105
  22329262.930          45.000          45.100
 130558503.695 6 101733906.26242  24844455.945
  24844461.145          36.300          17.800
 110325879.903 7  85968265.96446  20994300.055
  20994302.609          46.700          37.300
 123154233.703 7  95964370.742 6  23435466.570    23435471.543
  23435471.414          43.900          41.500
 131715942.517 6 102635915.842 5  25064683.328    25064686.656
  25064688.473          36.400          30.900
 116275435.367 7  90604282.161 7  22126474.883    22126482.137
  22126482.520          42.500          45.000
 119587695.317 7  93185276.10844  22756770.000
  22756773.105          45.600          29.800
 121148567.710 7  94401343.619 7  23053741.875    23053747.441
  23053747.391          42.700          43.400
 16  2 13  2 25 30.0000000  0 10G30G07G08G13G11G17G27G01G28G09
 110147556.520 8  85829311.058 8  20960370.258    20960375.664
  20960375.797          49.400          48.800
 105084787.184 8  81884302.294 8  19996947.391    19996949.965
  19996950.059          48.800          49.900
 117425567.015 7  91500542.248 7  22345314.563    22345319.762
  22345319.207          45.400          43.800
 130480457.388 6 101673091.06543  24829605.477
  24829609.563          38.900          19.000
 110299787.704 8  85947934.39046  20989334.672
  20989337.723          48.500          37.200
 123067734.568 7  95896968.883 6  23419006.781    23419011.348
  23419011.531          43.700          41.300
 131820247.629 6 102717192.572 6  25084532.344    25084538.750
  25084537.715          39.900          38.700
 116207921.490 7  90551673.982 7  22113627.969    22113634.785
  22113635.012          43.700          45.100
 119551967.643 7  93157436.39645  22749971.844
  22749974.574          45.300          30.400
 121242575.716 6  94474596.545 7  23071629.688    23071636.438
  23071637.324          41.000          43.500
 16  2 13  2 26  0.0000000  0 10G30G07G08G13G11G17G27G01G28G09
 110088216.721 8  85783072.261 8  20949078.398    20949084.121
  20949083.910          48.300          48.800
 105076008.818 8  81877461.996 8  19995277.023    19995280.230
  19995280.258          48.000          49.900
 117510142.777 7  91566445.449 7  22361408.633    22361414.445
  22361413.551          44.700          44.500
 130402798.013 6 101612577.32143  24814828.383
  24814831.602          40.300          19.300
 110274269.265 7  85928049.90246  20984478.719
  20984481.332          47.600          36.700
 122981499.029 7  95829772.379 6  23402596.664    23402599.742
  23402599.230          43.700          39.100
 131924524.851 6 102798447.507 6  25104376.477    25104381.648
  25104381.570          40.500          40.200
 116140776.406 7  90499353.160 7  22100851.531    22100857.832
  22100858.191          44.900          45.200
 119516286.712 7  93129633.09845  22743181.680
  22743184.191          44.500          30.300
 121336698.685 7  94547939.065 7  23089541.422    23089546.438
  23089546.879          43.100          42.200
 16  2 13  2 26 30.0000000  0 10G30G07G08G13G11G17G27G01G28G09
 110029191.010 8  85737078.209 8  20937846.375    20937851.512
  20937851.113          48.700          48.600
 105067718.525 8  81871002.008 8  19993699.734    19993702.480
  19993702.457          48.100          49.600
 117594909.285 7  91632497.260 7  22377538.703    22377544.969
  22377544.691          45.400          45.100
 130325527.181 6 101552366.21842  24800123.484
  24800125.875          38.900          15.600
 110249325.209 7  85908612.98446  20979732.023
  20979734.590          47.000          37.100
 122895527.664 7  95762781.713 6  23386236.703    23386240.898
  23386240.984          43.200          40.300
 132028772.101 5 102879679.027 5  25124212.102    25124218.438
  25124218.816          35.300          33.700
 116074002.669 7  90447321.702 7  22088143.906    22088151.012
  22088151.422          44.400          45.600
 119480650.829 7  93101864.89044  22736400.813
  22736402.156          45.200          29.800
 121430933.225 7  94621368.621 7  23107474.523    23107479.219
  23107478.914          42.100          42.600
 16  2 13  2 27  0.0000000  0 10G30G07G08G13G11G17G27G01G28G09
 109970482.252 8  85691331.116 7  20926674.367    20926679.770
  20926679.316          48.700          47.900
 105059918.261 8  81864923.879 8  19992215.180    19992217.922
  19992218.121          48.100          49.300
 117679864.543 7  91698696.128 7  22393705.742    22393711.020
  22393710.953          45.100          45.000
 130248647.942 6 101492460.35342  24785492.539
  24785495.992          38.900          16.300
 110224957.343 8  85889625.04446  20975094.781
  20975097.629          48.100          37.500
 122809822.485 7  95695998.502 6  23369928.328    23369932.184
  23369932.445          43.500          41.500
 132132987.809 6 102960886.233 5  25144045.516    25144050.129
  25144049.754          40.500          35.000
 116007603.800 7  90395582.354 7  22075508.508    22075515.371
  22075515.828          44.300          44.700
 119445059.812 7  93074131.62145  22729627.680
  22729628.590          45.300          30.500
 121525276.841 6  94694883.070 7  23125425.766    23125433.332
  23125433.414          40.400          43.700
 16  2 13  2 27 30.0000000  0 10G30G07G08G13G11G17G27G01G28G09
 109912092.526 8  85645832.639 8  20915563.148    20915568.813
  20915568.750          49.500          48.500
 105052609.155 8  81859228.480 8  19990824.453    19990826.996
  19990827.094          48.100          49.100
 117765006.029 7  91765040.161 7  22409907.594    22409912.574
  22409912.102          45.600          44.300
 130172162.221 6 101432861.11943  24770939.430
  24770942.543          41.800          20.600
 110201166.352 7  85871086.61846  20970567.500
  20970569.941          47.900          37.100
 122724384.501 7  95629423.489 6  23353669.242    23353673.168
  23353673.430          43.400          40.900
 132237169.942 6 103042067.094 6  25163869.633    25163876.137
  25163876.199          40.500          40.500
 115941582.540 7  90344137.256 7  22062945.328    22062951.785
  22062952.691          45.100          45.200
 119409512.767 7  93046432.64344  22722863.109
  22722864.457          44.100          29.400
 121619726.112 7  94768479.865 7  23143400.359    23143405.133
  23143405.852          42.200          42.800
 16  2 13  2 28  0.0000000  0 10G30G07G08G13G11G17G27G01G28G09
 109854024.360 8  85600584.735 8  20904512.820    20904518.301
  20904518.391          49.300          48.800
 105045792.402 8  81853916.716 8  19989527.242    19989529.844
  19989529.746          48.700          49.400
 117850331.499 7  91831527.532 7  22426144.078    22426149.715
  22426149.344          44.600          44.300
 130096072.673 6 101373570.59743  24756459.938
  24756462.887          40.800          19.600
 110177953.906 8  85852999.00646  20966150.938
  20966152.801          49.000          37.000
 122639215.326 7  95563057.913 6  23337462.203    23337465.363
  23337464.676          42.100          39.400
 132341317.120 6 103123220.568 6  25183687.773    25183694.457
  25183694.324          36.100          38.500
 115875942.135 7  90292988.900 7  22050453.859    22050461.176
  22050461.223          45.000          45.400
 119374009.011 7  93018767.39244  22716106.852
  22716109.602          45.200          29.600
 121714278.274 6  94842156.909 7  23161391.938    23161398.289
  23161398.309          41.100          42.500
 16  2 13  2 28 30.0000000  0 10G30G07G08G13G11G17G27G01G28G09
 109796279.525 8  85555588.776 8  20893524.820    20893529.809
  20893529.910          49.100          48.600
 105039469.336 8  81848989.645 8  19988323.992    19988326.582
  19988326.715          48.300          49.800
 117935837.989 7  91898155.935 7  22442415.648    22442422.180
  22442421.965          45.700          45.400
 130020381.202 6 101314590.26742  24742056.117
  24742057.801          39.200          16.300
 110155320.487 8  85835362.58446  20961843.648
  20961845.730          48.800          37.200
 122554316.267 7  95496902.814 6  23321306.977    23321310.852
  23321311.438          44.200          41.600
 132445426.850 6 103204345.117 5  25203500.180    25203503.625
  25203505.293          41.100          31.300
 115810685.024 7  90242139.241 7  22038036.047    22038042.555
  22038042.977          45.100          45.000
 119338547.776 7  92991135.30945  22709359.188
  22709362.238          46.000          30.200
 121808929.925 7  94915911.400 7  23179404.719    23179410.422
  23179410.578          42.000          42.400
 16  2 13  2 29  0.0000000  0 10G30G07G08G13G11G17G27G01G28G09
 109738860.571 8  85510846.735 8  20882598.188    20882603.000
  20882602.594          49.700          48.500
 105033641.584 7  81844448.537 8  19987215.188    19987217.777
  19987217.961          47.900          49.200
 118021523.370 7  91964923.738 7  22458720.969    22458726.402
  22458726.141          45.700          44.800
 129945090.489 6 101255922.13042  24727728.313
  24727730.438          40.400          16.300
 110133267.691 8  85818178.59146  20957647.078
  20957649.168          48.400          37.600
 122469688.166 7  95430958.903 6  23305201.758    23305206.918
  23305207.277          43.000          41.100
 132549497.475 6 103285439.231 6  25223304.070    25223310.313
  25223310.383          38.200          39.000
 115745814.385 7  90191590.725 7  22025691.445    22025698.434
  22025698.375          44.500          45.300
 119303128.444 7  92963535.84445  22702619.227
  22702622.074          46.400          31.500
 121903678.023 7  94989741.077 7  23197434.477    23197440.414
  23197441.125          42.600          43.400
 16  2 13  2 29 30.0000000  0 10G30G07G08G13G11G17G27G01G28G09
 109681770.185 8  85466360.718 7  20871734.031    20871739.828
  20871739.199          48.900          47.800
 105028310.777 8  81840294.654 8  19986200.383    19986202.789
  19986203.039          48.600          49.200
 118107385.840 7  92031829.557 7  22475059.984    22475065.758
  22475065.004          44.300          44.100
 129870202.051 6 101197567.54743  24713478.227
  24713480.305          40.800          18.300
 110111796.984 8  85801448.18246  20953561.141
  20953563.172          49.400          36.600
 122385332.852 7  95365227.553 6  23289149.938    23289152.883
  23289152.344          43.000          39.900
 132653527.688 6 103366501.532 6  25243100.383    25243106.605
  25243106.281          38.400          40.500
 115681333.507 7  90141345.925 7  22013421.648    22013428.391
  22013428.566          44.900          45.000
 119267750.566 7  92935968.69545  22695886.477
  22695889.688          46.000          30.500
 121998519.910 6  95063643.823 6  23215481.328    23215487.391
  23215487.293          40.100          41.300
 16  2 13  2 30  0.0000000  0  9G30G07G08G13G11G17G01G28G09
 109625011.150 8  85422132.908 8  20860933.078    20860938.715
  20860938.508          48.000          48.800
 105023478.649 7  81836529.355 8  19985281.352    19985283.520
  19985283.578          47.000          49.400
 118193423.239 7  92098871.678 7  22491432.539    22491438.879
  22491438.563          45.600          45.700
 129795719.468 6 101139529.18543  24699304.742
  24699307.730          41.200          19.900
 110090909.950 8  85785172.57946  20949586.594
  20949588.543          49.300          36.600
 122301252.575 7  95299710.400 6  23273150.313    23273153.438
  23273153.047          43.700          40.100
 115617245.914 7  90091407.571 7  22001225.664    22001232.746
  22001233.305          45.000          45.700
 119232413.884 7  92908433.63644  22689161.953
  22689164.020          45.400          29.900
 122093453.206 6  95137617.809 7  23233547.664    23233553.348
  23233553.457          41.900          42.600
 16  2 13  2 30 30.0000000  0  9G30G07G08G13G11G17G01G28G09
 109568584.859 8  85378164.388 8  20850195.695    20850200.570
  20850200.875          49.600          48.400
 105019145.773 7  81833153.087 8  19984456.336    19984459.324
  19984459.473          47.800          49.300
 118279632.113 7  92166047.388 7  22507837.563    22507843.582
  22507843.590          44.900          44.700
 129721644.127 6 101081808.19542  24685207.711
  24685211.055          39.200          16.900
 110070606.818 8  85769351.95446  20945723.430
  20945724.734          49.800          37.000
 122217447.168 7  95234407.540 7  23257201.211    23257206.711
  23257207.184          43.700          42.500
 115553553.548 7  90041777.195 7  21989105.500    21989112.586
  21989112.691          44.900          44.300
 119197116.991 7  92880929.58344  22682444.664
  22682446.059          44.200          28.600
 122188473.846 7  95211659.848 7  23251629.430    23251635.516
  23251635.918          42.700          43.300
 16  2 13  2 31  0.0000000  0  9G30G07G08G13G11G17G01G28G09
 109512493.837 8  85334457.107 8  20839521.953    20839527.234
  20839527.121          49.600          49.100
 105015313.562 8  81830166.947 8  19983727.422    19983729.746
  19983729.863          49.100          49.600
 118366010.699 7  92233355.354 7  22524274.133    22524280.188
  22524279.559          44.800          43.900
 129647978.234 6 101024406.23843  24671190.336
  24671192.027          40.700          19.300
 110050888.757 8  85753987.24446  20941971.000
  20941973.332          49.400          37.300
 122133918.241 7  95169320.147 6  23241307.211    23241311.465
  23241311.914          44.100          41.600
 115490259.521 7  89992457.200 7  21977060.758    21977067.707
  21977067.543          45.000          44.600
 119161859.162 7  92853455.97244  22675735.453
  22675736.559          43.800          28.900
 122283579.169 6  95285767.850 6  23269726.383    23269733.082
  23269733.000          40.200          41.600
 16  2 13  2 31 30.0000000  0  9G30G07G08G13G11G17G01G28G09
 109456740.607 8  85291013.027 8  20828912.508    20828917.770
  20828917.227          49.700          48.100
 105011983.548 7  81827572.120 8  19983093.820    19983096.367
  19983096.406          47.300          50.000
 118452556.758 7  92300793.858 7  22540743.813    22540749.961
  22540749.535          44.900          45.000
 129574724.230 6 100967325.14543  24657250.008
  24657252.234          40.500          18.300
 110031756.912 8  85739079.32346  20938330.414
  20938332.125          49.400          37.000
 122050667.202 7  95104449.183 6  23225465.031    23225468.258
  23225466.836          44.300          39.500
 115427366.834 7  89943449.939 7  21965093.180    21965099.715
  21965099.813          44.800          45.200
 119126640.262 7  92826012.69345  22669034.461
  22669035.223          43.800          30.000
 122378766.190 7  95359939.583 6  23287840.594    23287846.141
  23287846.152          43.200          41.900
 16  2 13  2 32  0.0000000  0  9G30G07G08G13G11G17G01G28G09
 109401326.869 8  85247833.480 8  20818367.539    20818372.680
  20818372.051          49.800          48.800
 105009156.491 8  81825369.209 8  19982555.852    19982558.617
  19982558.738          48.900          49.700
 118539267.282 7  92368360.479 7  22557243.914    22557250.742
  22557250.789          44.600          45.900
 129501883.734 6 100910566.37042  24643388.789
  24643391.895          39.100          17.800
 110013211.815 8  85724628.60146  20934801.438
  20934803.414          48.900          37.300
 121967694.830 7  95039795.402 6  23209675.727    23209679.598
  23209679.289          43.400          41.100
 115364878.092 7  89894757.430 7  21953201.844    21953208.695
  21953208.672          45.000          45.500
 119091459.010 7  92798598.74445  22662339.266
  22662341.777          45.600          30.200
 122474031.369 6  95434172.179 7  23305969.016    23305975.195
  23305975.375          41.500          43.500
 16  2 13  2 32 30.0000000  0  9G30G07G08G13G11G17G01G28G09
 109346255.565 8  85204920.784 8  20807887.586    20807892.973
  20807892.871          49.500          48.800
 105006834.363 8  81823559.746 8  19982114.375    19982116.559
  19982116.711          48.500          49.600
 118626140.234 7  92436053.643 7  22573775.523    22573781.703
  22573781.930          44.100          44.600
 129429459.699 6 100854132.14943  24629606.313
  24629610.715          39.000          19.300
 109995254.969 8  85710636.25946  20931383.961
  20931386.000          49.600          37.300
 121885002.964 7  94975360.236 7  23193940.391    23193943.988
  23193944.941          45.700          42.600
 115302796.656 7  89846382.304 7  21941388.328    21941394.422
  21941395.043          45.300          45.600
 119056315.030 7  92771213.83245  22655651.563
  22655655.082          44.600          31.400
 122569372.373 7  95508463.798 7  23324111.406    23324117.543
  23324118.121          42.100          42.300
 16  2 13  2 33  0.0000000  0  9G30G07G08G13G11G17G01G28G09
 109291528.713 8  85162276.490 8  20797473.734    20797479.211
  20797479.098          49.900          48.900
 105005018.001 8  81822144.400 8  19981768.063    19981770.773
  19981770.773          48.100          49.900
 118713173.617 7  92503871.872 7  22590337.516    22590343.156
  22590342.168          43.900          44.200
 129357453.870 6 100798023.70143  24615904.367
  24615907.641          39.900          18.300
 109977887.272 8  85697102.99546  20928079.336
  20928081.281          49.100          36.900
 121802593.291 7  94911144.936 6  23178257.797    23178261.594
  23178261.781          43.500          40.400
 115241125.160 7  89798326.601 7  21929652.359    21929658.344
  21929658.539          45.200          44.500
 119021207.742 7  92743857.51545  22648970.195
  22648973.855          44.200          30.000
 122664785.901 7  95582812.021 6  23342269.008    23342273.625
  23342272.973          42.800          41.100
 16  2 13  2 33 30.0000000  0  9G30G07G08G13G11G17G01G28G09
 109237148.532 8  85119902.330 8  20787125.711    20787130.723
  20787130.641          50.000          49.000
 105003708.405 8  81821123.931 8  19981519.398    19981521.625
  19981521.738          48.800          49.600
 118800364.828 7  92571813.077 7  22606929.289    22606935.738
  22606935.027          43.400          45.100
 129285868.115 6 100742242.62742  24602282.813
  24602285.059          39.500          17.800
 109961109.298 8  85684029.26046  20924886.281
  20924888.902          49.600          37.500
 121720465.480 7  94847149.248 6  23162629.023    23162632.125
  23162631.141          42.900          39.600
 115179866.354 7  89750592.479 7  21917995.297    21918001.707
  21918001.477          45.000          45.100
 118986136.250 7  92716529.11045  22642296.539
  22642299.789          44.600          30.300
 122760268.904 6  95657214.369 7  23360437.352    23360444.777
  23360444.512          40.800          43.400
 16  2 13  2 34  0.0000000  0  9G30G07G08G13G11G17G01G28G09
 109183117.308 8  85077800.081 8  20776843.484    20776848.996
  20776848.652          49.900          48.600
 105002906.942 8  81820499.405 8  19981366.352    19981369.008
  19981369.102          49.100          49.300
 118887711.448 7  92639875.331 7  22623551.141    22623557.828
  22623557.922          43.900          45.100
 129214704.986 6 100686790.83142  24588739.883
  24588744.039          38.800          17.400
 109944922.279 8  85671416.00946  20921806.375
  20921808.168          49.200          37.400
 121638621.999 7  94783375.131 7  23147055.742    23147059.715
  23147059.949          44.300          42.100
 115119023.155 7  89703182.202 7  21906416.961    21906423.762
  21906423.590          44.800          45.000
 118951100.030 7  92689228.17044  22635629.227
  22635631.531          45.200          29.600
 122855818.405 7  95731668.446 7  23378620.852    23378627.148
  23378627.773          42.100          42.800
 16  2 13  2 34 30.0000000  0 10G30G07G08G13G11G17G01G28G09G19
 109129437.986 8  85035972.036 8  20766628.992    20766634.387
  20766633.527          48.600          48.400
 105002615.371 8  81820272.197 8  19981311.102    19981313.422
  19981313.555          48.700          49.600
 118975211.611 7  92708057.262 7  22640201.734    22640207.453
  22640207.113          43.400          43.600
 129143966.972 6 100631670.34243  24575278.734
  24575282.617          39.200          19.600
 109929327.508 8  85659264.24046  20918838.797
  20918840.594          49.500          37.300
 121557064.011 7  94719823.483 6  23131534.703    23131539.629
  23131540.176          42.600          41.600
 115058598.986 7  89656098.458 7  21894918.961    21894925.473
  21894925.559          46.000          44.300
 118916099.066 7  92661954.70844  22628969.563
  22628970.828          45.100          28.900
 122951431.935 7  95806172.499 6  23396816.211    23396821.023
  23396821.242          42.700          41.300
 132784192.45416 103468210.54953  25267991.516
  25267993.637          38.300          19.000
 16  2 13  2 35  0.0000000  0 10G30G07G08G13G11G17G01G28G09G19
 109076112.332 8  84994419.583 8  20756481.094    20756486.527
  20756486.211          49.700          49.100
 105002834.234 8  81820442.737 8  19981352.578    19981354.910
  19981355.168          49.400          49.400
 119062862.635 7  92776356.773 7  22656880.766    22656887.125
  22656885.879          43.000          43.900
 129073655.649 6 100576882.34843  24561899.680
  24561903.703          39.400          19.300
 109914325.329 8  85647574.23546  20915983.656
  20915985.977          49.500          37.300
 121475792.242 7  94656494.895 6  23116069.313    23116072.477
  23116072.504          42.800          40.900
 114998596.137 7  89609343.008 7  21883500.680    21883507.129
  21883507.563          46.100          45.100
 118881132.177 7  92634707.76945  22622315.008
  22622317.117          45.900          30.000
 123047106.136 6  95880723.831 7  23415020.984    23415027.602
  23415027.188          41.000          42.700
 132674226.587 6 103382522.80943  25247066.383
  25247066.285          40.300          18.600
 16  2 13  2 35 30.0000000  0 10G30G07G08G13G11G17G01G28G09G19
 109023142.585 8  84953144.454 8  20746401.688    20746407.004
  20746407.027          50.300          48.900
 105003564.997 8  81821012.167 8  19981491.352    19981494.441
  19981494.500          49.000          49.800
 119150662.194 7  92844771.998 7  22673588.938    22673595.121
  22673594.910          43.900          45.200
 129003773.434 6 100522428.71843  24548600.867
  24548604.539          38.700          19.000
 109899916.671 8  85636346.71746  20913242.008
  20913244.168          49.200          37.700
 121394808.370 7  94593390.545 6  23100659.742    23100662.363
  23100662.109          45.500          40.100
 114939017.445 7  89562918.075 7  21872163.430    21872169.273
  21872169.301          46.300          44.100
 118846198.862 7  92607487.01745  22615667.672
  22615670.105          45.700          30.800
 123142837.971 7  95955320.043 7  23433239.070    23433245.473
  23433245.922          42.100          42.800
 132564379.234 5 103296927.53443  25226161.789
  25226164.320          34.800          19.900
 16  2 13  2 36  0.0000000  0 10G30G07G08G13G11G17G01G28G09G19
 108970530.964 8  84912148.387 8  20736389.961    20736395.164
  20736395.320          50.000          49.400
 105004808.471 8  81821981.103 8  19981728.188    19981731.137
  19981731.164          48.600          49.100
 119238608.123 7  92913301.260 7  22690324.766    22690330.684
  22690330.793          43.900          44.400
 128934322.069 6 100468310.74842  24535384.695
  24535388.352          37.900          16.900
 109886102.098 8  85625582.11946  20910613.203
  20910615.387          49.900          37.500
 121314113.103 7  94530511.134 7  23085302.609    23085307.191
  23085307.559          43.800          42.100
 114879865.610 7  89516825.741 7  21860906.898    21860913.336
  21860913.086          45.900          44.400
 118811298.091 7  92580291.62045  22609025.797
  22609029.090          43.800          30.000
 123238624.294 6  96029958.733 7  23451466.859    23451472.133
  23451472.617          40.900          42.800
 132454651.916 6 103211425.85543  25205282.039
  25205283.746          40.100          22.200
 16  2 13  2 36 30.0000000  0 10G30G07G08G13G11G17G01G28G09G19
 108918280.131 8  84871433.456 8  20726446.844    20726452.453
  20726452.379          49.200          48.700
 105006565.884 8  81823350.504 8  19982062.719    19982065.395
  19982065.457          48.400          49.900
 119326698.185 7  92981942.850 7  22707087.656    22707093.348
  22707092.422          43.300          42.700
 128865303.790 6 100414530.33343  24522250.688
  24522254.594          38.800          19.300
 109872882.836 8  85615281.39946  20908097.414
  20908099.273          49.300          36.900
 121233707.783 7  94467857.708 6  23070001.836    23070006.121
  23070006.164          44.700          41.400
 114821143.768 7  89471068.471 7  21849732.539    21849738.625
  21849739.020          46.000          44.400
 118776429.769 7  92553121.53045  22602390.328
  22602394.125          45.400          30.700
 123334462.680 6  96104637.994 6  23469703.133    23469708.980
  23469709.004          40.600          40.500
 132345047.439 6 103126019.79743  25184424.781
  25184426.602          39.400          19.000
 16  2 13  2 37  0.0000000  0 10G30G07G08G13G11G17G01G28G09G19
 108866392.518 8  84831001.551 8  20716573.156    20716578.176
  20716577.734          49.500          48.100
 105008839.191 8  81825121.920 8  19982495.141    19982497.867
  19982498.031          48.700          49.100
 119414930.479 7  93050695.293 7  22723877.797    22723884.109
  22723882.949          43.900          44.000
 128796721.316 6 100361089.45043  24509201.836
  24509204.563          39.500          19.300
 109860259.765 8  85605445.24346  20905695.344
  20905697.297          49.900          37.600
 121153593.986 7  94405431.356 6  23054757.789    23054760.453
  23054759.941          46.100          39.200
 114762854.871 7  89425648.570 7  21838640.727    21838646.715
  21838646.992          45.800          44.900
 118741593.366 7  92525976.30045  22595762.125
  22595765.004          45.900          32.100
 123430350.132 6  96179355.488 7  23487951.266    23487956.789
  23487957.414          41.800          43.400
 132235567.228 6 103040710.53442  25163590.602
  25163593.703          37.100          17.800
 16  2 13  2 37 30.0000000  0 10G30G07G08G13G11G17G01G28G09G19
 108814869.338 8  84790853.615 8  20706768.422    20706773.645
  20706772.984          49.800          48.800
 105011627.813 8  81827294.869 8  19983026.234    19983028.633
  19983028.852          48.600          49.800
 119503301.639 7  93119555.922 7  22740694.570    22740700.559
  22740700.363          44.400          44.500
 128728575.588 6 100307988.90643  24496232.453
  24496236.848          38.200          18.300
 109848232.682 8  85596073.49446  20903406.414
  20903408.492          49.700          37.800
 121073771.778 7  94343232.224 6  23039567.078    23039570.723
  23039570.832          44.300          41.800
 114705000.697 7  89380567.425 7  21827631.508    21827637.805
  21827638.363          45.700          45.600
 118706787.431 7  92498854.79745  22589138.828
  22589140.988          46.500          31.600
 123526282.824 6  96254108.183 7  23506205.703    23506211.988
  23506212.750          39.200          42.800
 132126212.207 6 102955498.95043  25142781.898
  25142784.613          40.000          22.600
 16  2 13  2 38  0.0000000  0 10G30G07G08G13G11G17G01G28G09G19
 108763713.929 8  84750992.248 8  20697033.984    20697039.363
  20697039.188          49.800          48.700
 105014934.295 7  81829871.333 8  19983654.992    19983658.477
  19983658.348          46.700          49.700
 119591810.423 7  93188523.777 7  22757536.508    22757542.746
  22757542.398          43.400          43.900
 128660869.405 6 100255230.88843  24483348.563
  24483352.688          38.100          18.300
 109836803.213 8  85587167.41846  20901231.453
  20901233.648          50.100          36.900
 120994243.420 7  94281262.155 7  23024433.773    23024438.238
  23024438.883          43.600          42.200
 114647584.992 7  89335827.937 7  21816705.672    21816711.762
  21816711.945          45.600          44.900
 118672012.637 7  92471757.56045  22582520.773
  22582523.270          46.600          30.900
 123622258.813 6  96328894.636 6  23524469.656    23524474.754
  23524474.160          40.600          40.400
 132016985.523 6 102870387.26743  25121995.727
  25121998.621          38.100          19.600
 16  2 13  2 38 30.0000000  0 10G30G07G08G13G11G17G01G28G09G19
 108712927.883 8  84711418.712 8  20687369.664    20687374.473
  20687374.711          49.900          48.800
 105018759.022 8  81832851.634 8  19984382.961    19984385.859
  19984385.980          48.500          49.300
 119680453.886 7  93257596.609 7  22774404.945    22774410.789
  22774409.715          44.900          43.800
 128593604.581 6 100202816.77142  24470547.984
  24470551.785          37.700          16.900
 109825971.818 8  85578727.37746  20899170.531
  20899172.723          49.100          37.300
 120915009.888 7  94219521.754 6  23009357.211    23009359.613
  23009359.621          44.500          40.500
 114590609.820 7  89291431.725 7  21805863.672    21805869.266
  21805869.281          45.900          44.600
 118637267.655 7  92444683.55745  22575909.883
  22575911.258          46.000          30.700
 123718274.416 6  96403712.027 6  23542740.359    23542746.719
  23542746.641          40.300          41.400
 131907888.770 6 102785376.86442  25101235.305
  25101237.797          36.300          16.900
 16  2 13  2 39  0.0000000  0 10G30G07G08G13G11G17G01G28G09G19
 108662513.998 8  84672135.182 8  20677775.750    20677781.172
  20677781.156          50.300          49.900
 105023103.300 7  81836236.784 8  19985209.734    19985212.574
  19985212.793          47.300          49.300
 119769230.095 7  93326772.877 7  22791298.500    22791305.203
  22791304.465          44.700          43.600
 128526783.176 6 100150748.10242  24457833.422
  24457835.809          39.900          17.400
 109815739.447 8  85570754.09946  20897223.367
  20897225.238          49.500          37.700
 120836072.137 7  94158011.793 6  22994334.430    22994338.590
  22994337.945          45.000          40.500
 114534078.467 7  89247381.318 7  21795105.953    21795111.879
  21795111.805          46.700          44.700
 118602552.470 7  92417632.78545  22569302.867
  22569306.094          44.700          31.100
 123814327.319 6  96478558.403 7  23561018.594    23561025.852
  23561026.113          39.700          43.000
 131798923.960 6 102700469.23243  25080500.648
  25080503.254          38.900          22.900
 16  2 13  2 39 30.0000000  0 10G30G07G08G13G11G17G01G28G09G19
 108612474.022 8  84633143.002 8  20668253.977    20668259.422
  20668259.109          50.100          48.700
 105027967.701 7  81840027.209 8  19986135.570    19986138.141
  19986138.480          46.900          49.100
 119858136.820 7  93396050.805 7  22808216.664    22808223.324
  22808223.145          44.300          43.700
 128460407.040 6 100099026.43643  24445201.945
  24445204.137          38.100          19.300
 109806105.685 8  85563247.27346  20895390.266
  20895392.168          48.700          37.200
 120757430.416 7  94096732.575 6  22979370.102    22979374.367
  22979374.465          45.500          41.700
 114477993.175 7  89203678.514 7  21784433.461    21784439.434
  21784439.816          46.300          45.600
 118567865.681 7  92390604.15045  22562701.891
  22562705.500          45.400          31.100
 123910414.169 6  96553431.240 6  23579303.977    23579309.227
  23579309.789          41.600          41.200
 131690092.254 6 102615665.38143  25059790.563
  25059793.277          37.000          20.600
 16  2 13  2 40  0.0000000  0 10G30G07G08G13G11G17G01G28G09G19
 108562810.497 8  84594444.145 8  20658803.734    20658808.625
  20658807.984          50.300          48.100
 105033353.484 8  81844223.909 8  19987160.297    19987162.914
  19987163.191          48.800          49.000
 119947171.839 7  93465428.735 7  22825160.422    22825165.656
  22825164.891          44.500          43.100
 128394478.071 6 100047653.29043  24432655.906
  24432659.586          38.900          19.000
 109797071.629 8  85556207.75746  20893671.297
  20893672.609          49.000          36.600
 120679086.563 7  94035685.442 7  22964462.141    22964465.766
  22964466.297          45.900          42.500
 114422356.804 7  89160325.531 7  21773846.055    21773852.270
  21773852.926          46.000          45.500
 118533207.103 7  92363597.49145  22556107.414
  22556110.746          44.900          30.700
 124006532.136 6  96628328.432 6  23597593.555    23597599.918
  23597598.590          40.800          40.200
 131581395.795 6 102530966.94743  25039105.523
  25039108.758          37.300          19.000
 16  2 13  2 40 30.0000000  0 10G30G07G08G13G11G17G01G28G09G19
 108513525.845 8  84556040.512 8  20649424.836    20649429.926
  20649429.168          51.100          48.100
 105039261.724 8  81848827.709 8  19988284.641    19988287.512
  19988287.613          48.500          49.600
 120036333.044 7  93534905.009 7  22842126.273    22842132.488
  22842131.762          43.800          43.200
 128328998.444 6  99996630.21443  24420195.492
  24420198.586          39.200          19.300
 109788638.191 8  85549636.24946  20892066.227
  20892068.305          48.700          36.400
 120601041.671 7  93974871.270 6  22949609.438    22949613.621
  22949613.266          44.700          41.100
 114367172.312 7  89117324.654 7  21763344.656    21763351.043
  21763351.809          46.100          45.700
 118498576.236 7  92336612.41345  22549517.078
  22549520.070          46.400          32.200
 124102678.665 7  96703247.786 6  23615890.102    23615896.398
  23615896.121          42.100          41.700
 131472837.012 6 102446375.62543  25018447.234
  25018450.680          38.700          20.400
 16  2 13  2 41  0.0000000  0 10G30G07G08G13G11G17G01G28G09G19
 108464621.909 8  84517933.544 8  20640118.375    20640123.758
  20640123.109          50.200          48.900
 105045693.055 8  81853839.121 8  19989508.266    19989511.508
  19989511.367          48.600          49.600
 120125618.148 7  93604477.795 7  22859117.063    22859123.172
  22859122.641          44.300          43.500
 128263970.159 6  99945958.86242  24407822.414
  24407823.852          40.200          17.400
 109780805.522 8  85543532.87446  20890575.859
  20890577.914          48.800          37.300
 120523296.441 7  93914290.584 6  22934816.109    22934818.875
  22934818.477          46.400          40.500
 114312441.895 7  89074677.604 7  21752930.273    21752935.602
  21752936.164          47.800          45.200
 118463972.417 7  92309648.40445  22542932.281
  22542934.828          45.500          31.500
 124198850.327 6  96778186.723 6  23634191.414    23634197.297
  23634197.711          41.600          41.600
 131364417.192 5 102361892.73243  24997814.789
  24997819.934          35.100          19.300
 16  2 13  2 41 30.0000000  0 10G30G07G08G13G11G17G01G28G09G19
 108416100.811 8  84480124.902 8  20630885.039    20630890.801
  20630890.949          50.000          48.900
 105052648.209 7  81859258.710 8  19990831.695    19990834.570
  19990834.770          47.600          49.700
 120215024.486 7  93674145.064 7  22876130.672    22876136.340
  22876136.289          44.700          43.300
 128199394.781 6  99895640.33942  24395533.836
  24395534.816          39.900          16.300
 109773574.141 8  85537898.03546  20889199.656
  20889201.473          48.700          36.900
 120445852.564 7  93853944.697 7  22920079.063    22920082.805
  22920082.992          47.000          42.100
 114258168.164 7  89032386.404 7  21742601.516    21742607.949
  21742607.980          47.100          44.600
 118429395.081 7  92282705.04445  22536352.344
  22536354.098          44.900          30.800
 124295044.166 6  96853142.965 6  23652496.109    23652500.758
  23652500.969          40.600          38.400
 131256138.114 6 102277519.48943  24977211.875
  24977214.594          39.700          21.100
 16  2 13  2 42  0.0000000  0 10G30G07G08G13G11G17G01G28G09G19
 108367965.520 8  84442616.898 8  20621725.422    20621730.531
  20621730.434          50.300          49.300
 105060128.914 8  81865087.828 8  19992255.273    19992258.020
  19992258.148          48.300          49.100
 120304550.625 7  93743905.691 7  22893166.625    22893172.719
  22893171.660          44.300          43.100
 128135274.863 6  99845676.76642  24383330.867
  24383333.375          38.600          17.400
 109766945.138 8  85532732.58646  20887938.172
  20887939.648          48.800          36.600
 120368710.876 7  93793834.344 7  22905398.078    22905402.984
  22905403.414          45.800          42.200
 114204354.460 7  88990453.670 7  21732361.664    21732367.676
  21732367.957          46.800          44.900
 118394844.155 7  92255782.25145  22529777.313
  22529778.871          45.400          30.200
 124391257.990 7  96928114.808 6  23670805.492    23670810.805
  23670810.336          42.000          41.400
 131148002.129 6 102193257.62143  24956633.984
  24956635.590          38.700          19.000
 16  2 13  2 42 30.0000000  0 10G30G07G08G13G11G17G01G28G09G19
 108320217.389 8  84405410.563 8  20612639.477    20612644.512
  20612644.035          50.900          49.100
 105068134.994 7  81871326.317 8  19993778.914    19993781.602
  19993781.582          47.100          49.300
 120394193.637 7  93813757.378 7  22910225.008    22910231.383
  22910231.281          44.100          43.300
 128071611.584 6  99796069.05343  24371216.836
  24371220.016          38.600          19.900
 109760917.919 7  85528036.05246  20886791.383
  20886793.828          47.600          36.500
 120291871.547 7  93733959.571 6  22890777.555    22890780.426
  22890780.262          46.600          40.900
 114151002.468 7  88948880.706 7  21722209.031    21722215.523
  21722216.059          46.800          46.400
 118360318.343 7  92228879.03245  22523207.422
  22523209.754          45.400          30.400
 124487487.976 6  97003099.192 7  23689117.758    23689123.305
  23689123.840          41.600          42.300
 131040010.061 6 102109108.10043  24936084.086
  24936085.660          37.700          19.300
 16  2 13  2 43  0.0000000  0 10G30G07G08G13G11G17G01G28G09G19
 108272859.295 8  84368508.141 8  20603627.484    20603632.852
  20603631.961          50.800          48.500
 105076668.230 7  81877975.571 8  19995403.000    19995405.910
  19995406.051          47.200          49.800
 120483951.820 7  93883698.808 7  22927305.773    22927311.766
  22927311.473          43.700          43.300
 128008407.478 6  99746819.13943  24359189.602
  24359192.098          40.600          20.900
 109755494.022 7  85523809.64346  20885759.008
  20885760.691          47.800          36.900
 120215336.557 7  93674321.879 7  22876213.531    22876216.930
  22876216.320          47.300          42.000
 114098115.482 7  88907670.100 7  21712144.727    21712151.035
  21712151.809          46.500          46.000
 118325817.856 7  92201995.55145  22516642.469
  22516644.996          46.200          31.300
 124583732.051 6  97078094.536 6  23707431.383    23707437.332
  23707437.316          39.900          39.800
 130932164.747 6 102025072.82643  24915561.141
  24915564.109          40.100          22.200
 16  2 13  2 43 30.0000000  0 10G30G07G08G13G11G17G01G28G09G19
 108225893.043 8  84331911.056 8  20594689.648    20594695.176
  20594694.230          49.900          48.800
 105085729.020 8  81885035.913 8  19997127.172    19997129.598
  19997129.949          48.100          49.800
 120573822.565 7  93953727.936 7  22944407.688    22944412.828
  22944412.836          44.000          43.000
 127945664.007 6  99697928.12343  24347249.875
  24347252.395          39.400          20.400
 109750673.119 8  85520053.10446  20884841.766
  20884843.902          49.000          37.500
 120139106.624 7  93614921.947 7  22861706.195    22861710.953
  22861711.391          45.800          43.000
 114045695.718 7  88866823.558 7  21702169.625    21702176.105
  21702176.344          46.300          45.900
 118291341.619 7  92175130.96645  22510081.719
  22510084.809          45.700          32.700
 124679986.777 6  97153098.283 6  23725748.773    23725753.645
  23725752.797          41.800          39.200
 130824467.875 6 101941153.19843  24895067.125
  24895068.746          37.900          19.000
 16  2 13  2 44  0.0000000  0 10G30G07G08G13G11G17G01G28G09G19
 108179321.040 8  84295621.186 8  20585827.609    20585832.996
  20585832.133          50.200          48.500
 105095318.297 7  81892508.066 8  19998951.906    19998954.676
  19998954.824          47.500          49.300
 120663804.110 7  94023843.423 7  22961531.141    22961536.859
  22961536.078          44.100          42.800
 127883383.119 6  99649397.52442  24335397.883
  24335399.707          38.400          17.800
 109746455.884 8  85516766.96046  20884039.039
  20884041.332          50.000          37.600
 120063182.820 7  93555760.593 7  22847259.430    22847262.895
  22847263.410          46.700          42.500
 113993745.868 7  88826343.173 7  21692284.016    21692290.102
  21692290.262          47.100          45.400
 118256889.450 7  92148285.14645  22503525.813
  22503529.164          45.700          31.700
 124776249.525 6  97228108.250 6  23744066.250    23744073.234
  23744073.008          40.200          41.800
 130716920.855 6 101857350.32843  24874601.445
  24874603.426          37.900          20.400
 16  2 13  2 44 30.0000000  0 10G30G07G08G13G11G17G01G28G09G19
 108133145.406 8  84259640.175 8  20577040.703    20577046.246
  20577046.047          50.000          49.100
 105105436.642 7  81900392.481 8  20000877.070    20000880.047
  20000880.055          47.200          49.500
 120753894.385 7  94094043.621 7  22978674.117    22978680.461
  22978679.926          43.100          43.700
 127821566.605 6  99601228.81743  24323635.148
  24323636.938          38.700          20.100
 109742842.514 7  85513951.35546  20883351.320
  20883353.727          46.700          36.900
 119987565.884 7  93496838.294 6  22832869.570    22832872.801
  22832872.410          47.900          41.700
 113942268.457 7  88786230.916 7  21682488.211    21682494.031
  21682494.332          47.200          45.500
 118222460.693 7  92121457.57645  22496973.313
  22496977.191          44.700          30.900
 124872517.424 6  97303122.130 6  23762385.586    23762391.953
  23762392.672          40.300          41.100
 130609525.991 6 101773666.07343  24854164.898
  24854168.086          37.900          22.300
 16  2 13  2 45  0.0000000  0 10G30G07G08G13G11G17G01G28G09G19
 108087368.536 8  84223969.888 8  20568330.055    20568335.422
  20568335.590          50.800          49.200
 105116085.301 7  81908690.130 8  20002903.313    20002906.578
  20002906.793          46.700          49.700
 120844091.178 7  94164326.798 7  22995837.672    22995844.227
  22995843.711          42.200          43.600
 127760216.612 6  99553423.63143  24311960.672
  24311963.281          40.200          20.900
 109739833.478 7  85511606.65046  20882778.781
  20882781.285          47.200          36.900
 119912257.459 7  93438156.408 7  22818538.180    22818542.410
  22818542.254          45.200          42.000
 113891266.222 7  88746488.925 7  21672783.070    21672788.953
  21672789.328          46.700          46.300
 118188055.017 7  92094647.99145  22490426.188
  22490429.840          44.900          31.600
 124968787.750 7  97378138.023 6  23780706.203    23780710.707
  23780710.078          42.600          39.300
 130502284.871 6 101690101.58943  24833757.313
  24833759.570          36.500          18.300
 16  2 13  2 45 30.0000000  0 10G30G07G08G13G11G17G01G28G09G19
 108041992.432 8  84188611.889 8  20559695.047    20559699.988
  20559699.988          49.900          48.800
 105127264.805 7  81917401.418 8  20005031.469    20005033.852
  20005034.273          47.200          49.800
 120934391.796 7  94234690.914 7  23013022.328    23013027.578
  23013026.895          43.600          43.400
 127699334.695 6  99505983.22243  24300375.227
  24300378.563          40.200          22.000
 109737429.003 7  85509733.04546  20882321.469
  20882323.344          47.600          37.500
 119837257.679 7  93379715.063 7  22804266.945    22804271.195
  22804271.520          47.100          43.400
 113840741.464 7  88707119.003 7  21663168.086    21663174.543
  21663175.063          46.700          46.100
 118153671.899 7  92067855.98045  22483884.063
  22483886.242          45.300          31.900
 125065057.417 6  97453153.361 6  23799023.891    23799031.172
  23799030.605          39.500          40.800
 130395199.348 6 101606658.29243  24813381.289
  24813380.500          37.900          19.600
 16  2 13  2 46  0.0000000  0 10G30G07G08G13G11G17G01G28G09G19
 107997019.116 8  84153567.754 8  20551136.344    20551141.750
  20551141.324          49.900          49.000
 105138975.744 7  81926526.809 8  20007259.578    20007262.461
  20007262.531          47.200          49.600
 121024794.737 6  94305134.752 7  23030224.234    23030230.785
  23030230.227          41.800          44.000
 127638922.374 6  99458908.70043  24288878.672
  24288882.098          39.500          21.100
 109735629.121 8  85508330.55346  20881978.727
  20881981.258          48.700          37.500
 119762567.646 7  93321515.040 7  22790053.844    22790057.457
  22790057.500          47.000          42.400
 113790696.564 7  88668122.998 7  21653644.805    21653651.344
  21653651.934          46.700          46.900
 118119310.588 7  92041080.93545  22477346.016
  22477347.652          46.000          31.900
 125161323.543 7  97528165.872 7  23817343.945    23817350.277
  23817350.371          42.000          42.000
 130288270.954 6 101523337.46343  24793033.133
  24793034.625          38.800          22.200
 16  2 13  2 46 30.0000000  0 10G30G07G08G13G11G17G01G28G09G19
 107952450.846 8  84118839.234 8  20542655.586    20542660.766
  20542660.230          50.000          48.500
 105151218.768 8  81936066.803 8  20009589.375    20009592.469
  20009592.711          48.300          49.300
 121115297.585 7  94375656.413 7  23047447.461    23047453.402
  23047453.203          43.000          44.500
 127578981.578 6  99412201.59343  24277471.969
  24277474.852          38.600          18.600
 109734434.237 8  85507399.47646  20881751.391
  20881753.613          49.100          37.100
 119688188.056 7  93263556.919 7  22775898.773    22775902.961
  22775902.484          46.100          42.000
 113741134.042 7  88629502.865 7  21644213.375    21644219.855
  21644220.086          46.400          46.200
 118084970.887 7  92014322.73945  22470811.219
  22470813.449          47.100          32.400
 125257583.277 6  97603173.470 6  23835662.000    23835666.324
  23835666.645          41.800          39.400
 130181501.482 5 101440140.55643  24772713.469
  24772716.684          35.800          20.600
 16  2 13  2 47  0.0000000  0 10G30G07G08G13G11G17G01G28G09G19
 107908289.920 8  84084428.123 8  20534252.000    20534257.383
  20534256.523          50.000          48.900
 105163994.713 7  81946022.080 8  20012020.523    20012023.027
  20012023.313          47.200          49.100
 121205898.228 7  94446254.306 7  23064687.711    23064694.039
  23064693.125          42.600          43.100
 127519514.323 6  99365863.44042  24266155.758
  24266158.215          38.600          17.800
 109733845.039 8  85506940.37746  20881639.555
  20881641.625          48.900          37.500
 119614120.506 7  93205841.982 7  22761804.891    22761808.953
  22761808.980          45.800          42.700
 113692056.514 7  88591260.653 7  21634873.914    21634880.594
  21634880.688          46.300          46.000
 118050652.443 7  91987581.09545  22464280.398
  22464283.082          46.500          32.300
 125353833.967 6  97678174.089 6  23853976.664    23853982.402
  23853981.543          40.300          39.700
 130074893.065 6 101357069.04243  24752428.148
  24752429.012          38.600          21.100
 16  2 13  2 47 30.0000000  0 10G30G07G08G13G11G17G01G28G09G19
 107864538.419 8  84050336.034 8  20525926.414    20525931.402
  20525931.184          50.300          49.600
 105177304.293 7  81956393.172 8  20014553.156    20014555.918
  20014556.047          46.700          49.300
 121296594.776 7  94516926.925 7  23081946.836    23081953.258
  23081952.324          42.500          42.800
 127460522.163 6  99319895.53143  24254930.305
  24254933.230          40.000          19.300
 109733861.452 8  85506953.17846  20881642.414
  20881644.414          49.000          37.900
 119540365.578 7  93148370.632 7  22747771.000    22747774.000
  22747774.320          47.300          43.100
 113643466.373 7  88553398.209 7  21625627.844    21625634.102
  21625634.109          47.400          45.900
 118016354.543 7  91960855.47745  22457753.125
  22457756.195          45.900          31.600
 125450072.729 6  97753165.305 7  23872290.688    23872297.895
  23872297.742          41.700          42.500
 129968447.438 6 101274124.35643  24732172.641
  24732173.801          37.900          22.200
 16  2 13  2 48  0.0000000  0 10G30G07G08G13G11G17G01G28G09G19
 107821198.576 8  84016564.733 8  20517679.398    20517684.637
  20517684.695          50.000          49.800
 105191148.311 7  81967180.705 8  20017187.695    20017191.152
  20017191.133          45.700          49.300
 121387384.995 7  94587672.522 7  23099223.148    23099230.145
  23099229.781          43.600          44.200
 127402007.037 6  99274299.33043  24243795.727
  24243799.297          40.800          22.800
 109734483.999 8  85507438.29646  20881760.820
  20881763.180          49.200          37.000
 119466924.448 7  93091143.814 7  22733793.836    22733798.320
  22733798.117          44.500          42.600
 113595366.185 7  88515917.567 7  21616474.727    21616481.066
  21616481.430          46.300          46.200
 117982076.777 7  91934145.55545  22451230.219
  22451233.602          45.400          31.800
 125546296.718 6  97828145.028 6  23890601.688    23890607.246
  23890607.637          41.400          40.500
 129862166.538 6 101191308.15943  24711946.383
  24711949.844          36.900          22.600
 16  2 13  2 48 30.0000000  0 10G30G07G08G13G11G17G01G28G09G19
 107778272.080 8  83983115.522 8  20509510.258    20509515.809
  20509515.902          48.400          50.100
 105205526.854 7  81978384.739 8  20019923.867    20019926.484
  20019926.559          45.800          48.900
 121478266.343 7  94658489.136 7  23116517.203    23116524.348
  23116523.793          42.600          43.500
 127343970.028 6  99229075.68843  24232750.492
  24232755.438          39.400          22.200
 109735711.552 8  85508394.83946  20881994.555
  20881996.449          49.900          37.900
 119393797.359 7  93034161.702 6  22719878.727    22719882.012
  22719881.492          46.100          41.600
 113547757.806 7  88478820.144 7  21607415.000    21607421.539
  21607421.961          45.500          46.500
 117947818.426 7  91907450.75845  22444711.133
  22444713.773          46.300          31.600
 125642502.817 6  97903110.827 6  23908908.500    23908913.918
  23908913.934          40.600          38.100
 129756051.423 6 101108621.09343  24691754.313
  24691755.961          39.500          20.600
 16  2 13  2 49  0.0000000  0 10G30G07G08G13G11G17G01G28G09G19
 107735761.783 8  83949990.630 8  20501420.914    20501426.277
  20501426.164          49.900          49.600
 105220441.286 7  81990006.358 8  20022761.898    20022764.828
  20022764.848          46.700          49.200
 121569237.491 7  94729375.719 7  23133828.922    23133834.914
  23133834.250          43.000          42.600
 127286413.695 6  99184226.64443  24221797.563
  24221802.113          37.500          19.900
 109737545.291 8  85509823.73146  20882343.391
  20882345.660          48.800          37.700
 119320985.598 7  92977425.261 7  22706023.281    22706026.789
  22706026.934          47.300          42.500
 113500644.408 7  88442108.429 7  21598449.445    21598455.934
  21598456.746          46.700          46.600
 117913579.856 7  91880771.37445  22438196.531
  22438198.129          47.000          31.600
 125738688.866 6  97978061.008 6  23927213.570    23927219.527
  23927219.566          41.900          41.200
 129650104.854 6 101026065.27843  24671592.883
  24671594.746          37.300          20.100
 16  2 13  2 49 30.0000000  0 10G30G07G08G13G11G17G01G28G09G19
 107693669.166 8  83917191.191 8  20493411.078    20493416.598
  20493416.313          48.600          49.200
 105235890.913 7  82002045.010 8  20025702.109    20025704.914
  20025705.016          45.600          48.900
 121660295.416 7  94800329.941 7  23151156.680    23151163.734
  23151162.957          42.500          43.400
 127229339.215 6  99139753.06943  24210937.469
  24210940.719          39.400          18.600
 109739984.979 8  85511724.80246  20882808.195
  20882810.059          49.300          38.100
 119248489.603 7  92920934.899 7  22692227.180    22692231.625
  22692231.809          44.600          42.400
 113454027.641 7  88405783.692 7  21589579.008    21589585.008
  21589585.281          46.200          46.300
 117879359.781 7  91854106.37845  22431684.688
  22431685.859          46.300          32.200
 125834851.359 6  98052992.818 6  23945511.977    23945518.566
  23945519.230          40.000          41.600
 129544327.725 6 100943641.56243  24651464.563
  24651466.750          39.800          23.400
 16  2 13  2 50  0.0000000  0 10G30G07G08G13G11G17G01G28G09G19
 107651996.773 8  83884719.191 8  20485481.180    20485486.422
  20485485.898          50.000          49.000
 105251877.731 7  82014502.237 8  20028744.438    20028747.156
  20028747.316          46.900          49.200
 121751438.793 7  94871350.718 7  23168500.453    23168506.895
  23168506.813          42.200          43.600
 127172748.308 6  99095656.16543  24200168.969
  24200170.676          40.400          20.600
 109743030.880 7  85514098.25046  20883387.539
  20883389.652          47.300          37.200
 119176310.842 7  92864691.760 7  22678492.672    22678495.734
  22678495.523          45.700          42.300
 113407910.382 7  88369848.182 7  21580802.523    21580808.922
  21580809.516          47.300          46.700
 117845158.312 7  91827455.88945  22425176.117
  22425178.207          47.200          32.200
 125930988.119 6  98127904.540 6  23963806.719    23963811.035
  23963811.594          39.900          39.200
 129438722.443 6 100861351.83043  24631368.359
  24631371.590          38.700          21.700
 16  2 13  2 50 30.0000000  0 10G30G07G08G13G11G17G01G28G09G19
 107610746.285 8  83852575.950 8  20477631.258    20477637.207
  20477636.699          48.900          49.300
 105268401.675 7  82027378.034 8  20031888.445    20031891.152
  20031891.246          46.900          48.500
 121842665.492 6  94942436.429 7  23185860.758    23185866.484
  23185865.707          41.800          43.500
 127116642.059 6  99051936.98643  24189492.750
  24189495.520          41.300          20.600
 109746682.728 8  85516943.86946  20884082.078
  20884085.043          48.900          37.500
 119104449.503 7  92808695.890 6  22664818.305    22664821.102
  22664820.672          47.000          41.900
 113362294.464 7  88334303.318 7  21572122.258    21572129.164
  21572129.109          45.000          45.900
 117810974.618 7  91800819.25045  22418670.656
  22418673.656          46.600          32.300
 126027095.696 6  98202793.633 6  23982095.320    23982100.098
  23982100.422          40.600          40.400
 129333290.174 6 100779196.78243  24611305.359
  24611307.188          39.500          19.600
 16  2 13  2 51  0.0000000  0 10G30G07G08G13G11G17G01G28G09G19
 107569920.460 8  83820763.618 8  20469862.313    20469867.305
  20469867.395          49.300          49.800
 105285463.763 7  82040673.152 8  20035135.219    20035138.023
  20035138.020          46.400          48.800
 121933973.555 7  95013585.590 7  23203236.047    23203241.898
  23203240.793          43.100          42.800
 127061022.763 6  99008597.27343  24178907.484
  24178912.484          39.700          22.000
 109750940.922 8  85520261.96546  20884892.742
  20884894.973          49.200          37.300
 119032906.932 7  92752948.415 7  22651202.883    22651207.523
  22651207.266          46.000          42.500
 113317182.883 7  88299151.449 7  21563537.586    21563544.039
  21563543.980          45.800          45.800
 117776808.907 7  91774196.63945  22412169.070
  22412172.352          47.000          31.600
 126123172.171 6  98277658.420 6  24000377.086    24000384.160
  24000384.645          39.200          41.700
 129228033.329 6 100697178.47143  24591275.125
  24591277.066          38.400          21.100
 16  2 13  2 51 30.0000000  0 10G30G07G08G13G11G17G01G28G09G19
 107529520.499 8  83789283.147 8  20462174.320    20462180.148
  20462180.055          49.400          50.200
 105303063.627 7  82054387.320 8  20038484.508    20038487.602
  20038487.613          47.500          48.700
 122025360.253 6  95084795.974 7  23220625.844    23220633.004
  23220632.426          41.600          43.000
 127005891.538 6  98965637.92543  24168416.977
  24168420.703          39.500          21.700
 109755804.703 8  85524051.93646  20885818.234
  20885820.715          49.100          38.000
 118961683.537 7  92697449.704 7  22637649.789    22637654.098
  22637654.488          46.000          43.100
 113272577.077 7  88264393.697 7  21555049.727    21555056.141
  21555056.313          46.600          46.000
 117742659.634 7  91747586.84345  22405670.984
  22405674.215          46.800          32.800
 126219213.834 6  98352496.038 6  24018653.711    24018659.168
  24018659.926          40.700          40.400
 129122953.044 6 100615297.72043  24571279.656
  24571281.277          40.100          22.600
 16  2 13  2 52  0.0000000  0 10G30G07G08G13G11G17G01G28G09G19
 107489549.359 8  83758136.816 8  20454568.336    20454573.836
  20454573.871          50.100          50.000
 105321202.359 7  82068521.382 8  20041936.281    20041939.047
  20041939.160          47.900          48.500
 122116824.363 7  95156066.670 7  23238032.133    23238037.770
  23238037.598          42.300          42.500
 126951250.704 6  98923060.67243  24158019.344
  24158022.852          41.100          21.700
 109761274.843 8  85528314.38646  20886859.117
  20886861.512          49.300          37.500
 118890780.620 7  92642200.661 6  22624158.234    22624160.820
  22624160.598          47.000          41.700
 113228480.165 7  88230032.483 7  21546658.227    21546664.262
  21546664.516          46.800          46.100
 117708527.752 7  91720990.59445  22399176.133
  22399178.730          47.800          33.300
 126315218.693 7  98427305.060 6  24036923.094    24036928.035
  24036927.988          42.000          39.400
 129018051.518 6 100533556.34943  24551317.297
  24551319.297          39.200          22.000
 16  2 13  2 52 30.0000000  0 10G30G07G08G13G11G17G01G28G09G19
 107450008.567 8  83727325.807 8  20447044.648    20447049.375
  20447049.086          49.900          49.800
 105339880.149 7  82083075.494 8  20045490.586    20045493.207
  20045493.543          47.200          48.800
 122208363.512 7  95227395.895 7  23255450.805    23255456.082
  23255455.531          42.600          42.600
 126897101.364 6  98880866.37843  24147715.609
  24147718.098          41.400          21.100
 109767350.550 8  85533048.72646  20888015.055
  20888017.656          49.200          36.900
 118820198.491 7  92587201.579 7  22610726.727    22610729.969
  22610729.285          45.600          42.100
 113184893.932 7  88196069.200 7  21538363.922    21538370.457
  21538370.703          46.800          45.900
 117674412.350 7  91694407.17845  22392684.039
  22392685.914          47.900          32.600
 126411183.596 6  98502082.910 6  24055184.633    24055190.375
  24055189.574          38.900          40.200
 128913330.251 6 100451955.33643  24531389.000
  24531390.766          39.900          19.900
 16  2 13  2 53  0.0000000  0 10G30G07G08G13G11G17G01G28G09G19
 107410900.071 8  83696851.650 8  20439601.750    20439606.734
  20439606.719          50.100          50.100
 105359097.246 7  82098049.844 8  20049147.523    20049150.434
  20049150.344          47.500          48.600
 122299975.640 7  95298781.957 7  23272883.438    23272890.297
  23272889.746          42.200          43.000
 126843444.691 6  98839055.90843  24137505.078
  24137506.395          41.600          20.400
 109774032.013 7  85538255.06646  20889286.680
  20889288.980          47.300          37.900
 118749937.627 7  92532452.874 7  22597355.422    22597359.730
  22597360.035          45.300          42.600
 113141820.425 7  88162505.450 7  21530167.383    21530173.527
  21530173.863          46.300          46.500
 117640312.648 7  91667835.98145  22386195.469
  22386196.918          47.900          32.700
 126507105.622 6  98576827.284 7  24073438.266    24073444.512
  24073444.547          40.600          42.200
 128808790.829 6 100370496.05043  24511497.117
  24511497.789          39.600          23.200
 16  2 13  2 53 30.0000000  0 10G30G07G08G13G11G17G01G28G09G19
 107372226.277 8  83666716.223 8  20432242.703    20432248.000
  20432247.504          50.400          49.500
 105378854.376 7  82113444.978 8  20052907.336    20052910.121
  20052910.172          47.100          48.700
 122391658.713 7  95370223.273 7  23290330.836    23290336.730
  23290336.832          43.000          43.700
 126790282.782 6  98797631.04743  24127387.344
  24127390.852          40.500          19.000
 109781319.483 8  85543933.62146  20890673.555
  20890675.570          49.200          37.400
 118679999.497 7  92477955.664 7  22584048.125    22584051.762
  22584051.848          46.100          42.800
 113099262.276 7  88129343.279 7  21522068.898    21522074.824
  21522075.461          45.100          46.200
 117606228.715 7  91641277.07945  22379708.875
  22379710.641          46.400          31.500
 126602982.325 6  98651536.406 6  24091682.195    24091687.547
  24091687.941          39.800          38.500
 128704435.469 6 100289180.24443  24491638.172
  24491640.914          40.500          23.400
 16  2 13  2 54  0.0000000  0 10G30G07G08G13G11G17G01G28G09G19
 107333989.001 8  83636920.938 8  20424966.250    20424971.785
  20424971.254          48.600          49.300
 105399151.644 7  82129261.012 8  20056769.078    20056772.297
  20056772.414          46.100          48.800
 122483410.738 7  95441718.333 6  23307790.258    23307796.203
  23307795.520          42.900          41.700
 126737616.622 6  98756592.47743  24117364.875
  24117369.469          40.000          21.300
 109789212.221 8  85550083.81646  20892175.305
  20892177.195          48.600          37.600
 118610384.611 7  92423710.295 7  22570800.289    22570803.730
  22570803.754          46.300          42.700
 113057221.410 7  88096584.196 7  21514068.609    21514074.828
  21514075.473          45.300          46.300
 117572159.864 7  91614729.94045  22373225.516
  22373227.871          45.100          31.700
 126698810.866 6  98726208.002 6  24109916.430    24109923.355
  24109922.582          38.100          38.400
 128600265.669 6 100208008.97443  24471815.008
  24471816.328          40.800          21.300
 16  2 13  2 54 30.0000000  0 10G30G07G08G13G11G17G01G28G09G19
 107296190.465 8  83607467.534 8  20417773.219    20417778.879
  20417778.555          48.500          49.900
 105419989.812 7  82145498.525 7  20060734.922    20060737.324
  20060737.355          47.200          47.900
 122575229.867 7  95513265.708 7  23325263.383    23325269.184
  23325267.926          42.800          42.400
 126685447.900 6  98715941.57043  24107439.273
  24107442.617          40.800          22.600
 109797710.542 8  85556705.90146  20893792.258
  20893794.559          49.400          37.100
 118541093.592 7  92369717.294 6  22557614.477    22557618.148
  22557617.574          45.900          41.700
 113015700.209 7  88064230.051 7  21506167.359    21506173.609
  21506174.156          45.400          46.400
 117538105.922 7  91588194.42545  22366746.547
  22366748.168          47.400          32.000
 126794588.666 6  98800840.045 6  24128144.461    24128150.738
  24128150.613          40.800          41.800
 128496282.873 6 100126983.40043  24452028.508
  24452029.281          40.600          22.600
 16  2 13  2 55  0.0000000  0 10G30G07G08G13G11G17G01G28G09G19
 107258832.683 8  83578357.571 8  20410664.672    20410669.895
  20410670.047          50.000          49.900
 105441369.231 7  82162157.786 8  20064803.281    20064806.012
  20064805.887          47.500          49.100
 122667114.507 7  95584864.102 7  23342748.352    23342754.160
  23342754.449          43.000          43.600
 126633778.238 6  98675679.48943  24097606.844
  24097610.281          41.800          22.000
 109806813.878 8  85563799.42346  20895524.625
  20895527.027          48.300          37.500
 118472127.040 7  92315977.126 7  22544490.930    22544494.008
  22544494.605          46.500          43.500
 112974700.842 7  88032282.522 7  21498365.508    21498372.254
  21498372.590          47.000          46.700
 117504066.839 7  91561670.48345  22360268.977
  22360271.320          47.900          32.600
 126890312.947 6  98875430.393 6  24146358.641    24146365.621
  24146365.797          39.100          40.400
 128392489.112 6 100046105.18244  24432277.047
  24432279.246          41.000          25.200
 16  2 13  2 55 30.0000000  0 10G30G07G08G13G11G17G01G28G09G19
 107221916.840 8  83549591.977 8  20403639.617    20403645.406
  20403645.223          49.500          50.000
 105463289.169 7  82179238.243 8  20068974.305    20068977.367
  20068977.164          47.100          49.100
 122759061.579 7  95656511.133 7  23360244.711    23360251.652
  23360251.488          42.400          43.400
 126582608.246 6  98635806.77343  24087869.617
  24087872.664          41.100          20.400
 109816521.450 8  85571363.77746  20897371.742
  20897374.250          49.000          37.700
 118403485.076 7  92262489.894 7  22531428.844    22531432.582
  22531433.250          47.300          43.800
 112934224.538 7  88000742.568 7  21490662.914    21490669.180
  21490669.586          46.300          46.200
 117470041.200 7  91535157.01545  22353793.891
  22353796.320          47.000          34.200
 126985980.384 6  98949976.388 6  24164564.328    24164569.207
  24164570.156          39.300          38.100
 128288885.401 6  99965375.03443  24412560.813
  24412563.355          39.900          22.500
 16  2 13  2 56  0.0000000  0 10G30G07G08G13G11G17G01G28G09G19
 107185445.854 7  83521173.030 8  20396699.469    20396704.684
  20396704.609          47.900          50.000
 105485750.862 7  82196740.845 8  20073248.578    20073251.828
  20073251.539          46.800          48.100
 122851070.077 7  95728206.047 6  23377753.258    23377759.188
  23377758.426          42.400          40.900
 126531940.227 6  98596325.20843  24078227.078
  24078230.184          40.500          18.300
 109826833.769 8  85579399.35746  20899334.477
  20899337.199          48.800          36.900
 118335169.140 7  92209256.741 7  22518427.922    22518432.477
  22518432.254          44.800          43.400
 112894274.379 7  87969612.594 7  21483060.695    21483067.168
  21483067.297          46.300          46.000
 117436029.728 7  91508654.58045  22347321.469
  22347323.703          44.900          32.600
 127081588.886 6  99024476.612 6  24182758.789    24182764.254
  24182763.910          40.500          40.500
 128185473.986 6  99884794.71243  24392883.875
  24392884.590          41.400          22.300
 16  2 13  2 56 30.0000000  0 10G30G07G08G13G11G17G01G28G09G19
 107149421.589 7  83493102.172 8  20389844.203    20389849.676
  20389849.383          47.900          49.600
 105508754.536 7  82214665.757 8  20077626.445    20077629.063
  20077629.000          47.000          49.100
 122943137.721 7  95799947.081 7  23395274.219    23395280.137
  23395279.004          42.900          42.100
 126481775.357 6  98557235.66343  24068681.492
  24068683.289          41.300          19.300
 109837750.623 8  85587906.01046  20901411.820
  20901414.301          48.800          37.900
 118267180.088 7  92156278.273 7  22505490.781    22505494.594
  22505493.797          44.600          42.500
 112854852.350 7  87938894.161 7  21475558.766    21475565.391
  21475565.145          44.300          46.400
 117402032.022 7  91482162.87745  22340850.977
  22340853.574          44.200          32.000
 127177135.841 6  99098928.701 6  24200939.953    24200946.590
  24200947.027          40.200          41.500
 128082256.554 7  99804365.49344  24373242.352
  24373243.496          42.800          25.700
 16  2 13  2 57  0.0000000  0 10G30G07G08G13G11G17G01G28G09G19
 107113845.779 8  83465380.759 8  20383074.344    20383079.832
  20383079.355          50.400          49.600
 105532300.432 7  82233013.185 8  20082107.133    20082109.941
  20082110.055          47.200          48.100
 123035262.454 7  95871732.542 7  23412804.266    23412810.910
  23412810.574          42.100          43.200
 126432115.103 6  98518539.34243  24059231.500
  24059233.301          41.400          19.600
 109849271.346 8  85596883.21346  20903603.711
  20903606.770          48.400          38.100
 118199519.031 7  92103555.368 7  22492615.531    22492619.426
  22492619.199          47.300          43.600
 112815960.232 7  87908588.649 7  21468157.922    21468164.473
  21468164.383          44.700          46.400
 117368047.427 7  91455681.39545  22334384.164
  22334386.230          45.400          32.100
 127272618.286 6  99173330.537 6  24219109.875    24219114.945
  24219115.652          39.200          37.700
 127979234.752 6  99724088.75643  24353636.492
  24353639.430          39.800          22.800
 16  2 13  2 57 30.0000000  0 10G30G07G08G13G11G17G01G28G09G19
 107078720.570 8  83438010.458 8  20376390.250    20376395.566
  20376395.043          49.400          48.800
 105556388.643 7  82251783.201 8  20086690.906    20086693.805
  20086693.938          47.600          48.800
 123127442.325 7  95943560.982 6  23430345.711    23430351.422
  23430351.008          42.100          40.900
 126382960.725 7  98480237.21343  24049877.484
  24049879.945          42.100          21.100
 109861395.860 8  85606330.89146  20905911.219
  20905914.043          48.400          37.600
 118132185.277 7  92051087.540 7  22479801.430    22479805.906
  22479806.941          45.900          44.900
 112777600.280 7  87878697.808 7  21460858.375    21460865.297
  21460865.352          47.200          46.500
 117334075.991 7  91429210.17145  22327918.977
  22327921.500          44.800          32.400
 127368033.644 6  99247680.320 6  24237266.625    24237272.281
  24237271.063          39.900          38.100
 127876410.261 6  99643965.78443  24334071.203
  24334072.258          41.100          22.300
 16  2 13  2 58  0.0000000  0 10G30G07G08G13G11G17G01G28G09G19
 107044047.902 8  83410992.790 8  20369792.273    20369798.008
  20369797.488          49.600          49.500
 105581019.525 7  82270976.073 8  20091377.961    20091380.949
  20091380.813          47.600          48.200
 123219675.654 7  96015431.134 6  23447896.977    23447903.172
  23447901.746          42.300          40.600
 126334313.657 6  98442330.41043  24040620.539
  24040623.859          41.700          22.000
 109874123.677 8  85616248.69046  20908333.398
  20908335.855          49.500          36.900
 118065180.128 7  91998875.803 7  22467051.391    22467055.582
  22467055.746          45.100          44.300
 112739774.565 7  87849223.253 7  21453660.375    21453666.813
  21453666.953          46.000          46.600
 117300117.102 7  91402748.71545  22321457.531
  22321459.594          45.600          32.500
 127463379.418 6  99321975.612 6  24255409.445    24255417.219
  24255417.387          38.800          41.700
 127773784.940 7  99563997.96644  24314542.594
  24314543.848          43.000          26.000
 16  2 13  2 58 30.0000000  0 10G30G07G08G13G11G17G01G28G09G19
 107009829.682 8  83384329.241 8  20363280.773    20363286.125
  20363285.762          50.200          49.800
 105606193.204 7  82290591.906 8  20096168.633    20096171.023
  20096171.219          47.100          48.500
 123311960.571 6  96087341.439 7  23465458.148    23465464.984
  23465464.043          41.400          42.800
 126286175.076 6  98404819.82843  24031459.883
  24031462.922          41.300          21.100
 109887454.445 8  85626636.31446  20910869.703
  20910872.141          49.800          37.900
 117998504.232 7  91946920.566 7  22454363.680    22454366.840
  22454366.488          46.600          43.000
 112702484.939 7  87820166.432 7  21446564.539    21446570.633
  21446571.027          45.200          46.800
 117266170.679 7  91376296.95845  22314998.031
  22315000.730          45.500          32.300
 127558652.727 6  99396214.499 6  24273540.609    24273545.988
  24273546.523          41.200          39.500
 127671360.096 6  99484186.47743  24295050.070
  24295053.641          40.100          23.500
 16  2 13  2 59  0.0000000  0 10G30G07G08G13G11G17G01G28G09G19
 106976067.772 8  83358021.261 8  20356856.203    20356861.867
  20356861.684          50.000          50.500
 105631909.395 7  82310630.477 8  20101061.914    20101064.449
  20101064.215          47.200          48.200
 123404295.241 7  96159290.485 7  23483029.430    23483035.641
  23483035.102          42.900          42.300
 126238546.160 6  98367706.35543  24022396.031
  24022398.742          40.900          21.300
 109901387.797 8  85637493.49246  20913521.336
  20913523.805          49.500          37.100
 117932158.089 7  91895222.268 7  22441737.547    22441741.535
  22441741.145          45.200          43.300
 112665733.396 7  87791528.903 7  21439570.602    21439577.238
  21439577.539          45.200          46.700
 117232236.171 7  91349854.48945  22308540.414
  22308543.234          44.900          33.200
 127653850.889 6  99470394.994 5  24291655.898    24291660.148
  24291658.770          40.000          34.800
 127569137.520 6  99404532.55443  24275598.891
  24275599.902          41.400          22.800
 16  2 13  2 59 30.0000000  0 10G30G07G08G13G11G17G01G28G09G19
 106942763.814 8  83332070.126 8  20350518.453    20350524.176
  20350523.910          49.500          50.200
 105658168.465 7  82331092.080 8  20106059.227    20106061.473
  20106061.598          47.200          48.200
 123496677.258 6  96231276.481 6  23500608.375    23500614.648
  23500613.273          41.700          40.300
 126191428.205 6  98330991.08343  24013429.758
  24013432.480          40.200          20.100
 109915922.535 8  85648819.27546  20916287.414
  20916289.672          49.700          37.100
 117866141.856 7  91843781.098 7  22429175.453    22429179.711
  22429180.535          44.800          44.100
 112629521.560 7  87763311.928 7  21432679.359    21432685.922
  21432686.125          46.500          46.000
 117198312.889 7  91323420.76945  22302084.602
  22302087.938          46.400          33.000
 127748971.096 6  99544514.640 6  24309757.180    24309762.758
  24309761.922          40.000          37.800
 127467118.639 6  99325037.33243  24256185.195
  24256187.184          41.300          23.300
 16  2 13  3  0  0.0000000  0 10G30G07G08G13G11G17G01G28G09G19
 106909920.159 8  83306477.680 8  20344268.602    20344274.094
  20344274.320          49.600          49.900
 105684970.914 7  82351977.083 8  20111159.727    20111162.426
  20111162.531          46.200          48.400
 123589105.227 6  96303298.263 7  23518196.711    23518203.973
  23518203.105          41.300          42.100
 126144822.540 6  98294674.94443  24004561.195
  24004562.852          41.100          19.900
 109931058.750 8  85660613.74746  20919167.617
  20919169.988          48.900          37.200
 117800457.030 7  91792598.162 7  22416676.711    22416680.004
  22416681.051          46.700          44.500
 112593851.833 7  87735517.378 7  21425891.914    21425898.156
  21425898.539          46.200          46.400
 117164401.333 7  91296996.19145  22295631.430
  22295634.438          45.600          32.700
 127844011.025 6  99618571.686 6  24327842.727    24327849.027
  24327849.367          40.600          40.700
 127365305.228 6  99245702.20644  24236809.977
  24236812.941          39.000          25.400
 16  2 13  3  0 30.0000000  0 10G30G07G08G13G11G17G01G28G09G19
 106877538.743 8  83281245.409 8  20338106.195    20338112.035
  20338111.879          49.400          50.300
 105712316.751 7  82373285.519 8  20116363.125    20116365.289
  20116365.445          47.200          48.300
 123681577.152 6  96375354.265 7  23535794.031    23535800.816
  23535800.512          41.700          43.300
 126098730.695 6  98258759.20443  23995790.188
  23995791.703          41.200          20.600
 109946796.585 8  85672877.00646  20922162.383
  20922164.402          48.600          36.700
 117735103.958 7  91741673.707 7  22404240.094    22404243.582
  22404243.988          47.500          44.500
 112558726.246 7  87708146.816 7  21419207.555    21419214.367
  21419214.375          46.600          46.600
 117130501.403 7  91270580.68045  22289180.602
  22289183.484          44.500          31.400
 127938968.174 6  99692564.238 6  24345912.008    24345917.742
  24345917.918          39.800          38.400
 127263699.325 7  99166528.86844  24217476.219
  24217478.629          42.200          25.600
 16  2 13  3  1  0.0000000  0 10G30G07G08G13G11G17G01G28G09G19
 106845620.758 7  83256374.249 8  20332032.438    20332038.664
  20332038.672          47.200          50.000
 105740205.574 7  82395017.043 8  20121670.406    20121672.906
  20121672.980          46.800          48.200
 123774090.772 6  96447442.769 6  23553398.797    23553404.648
  23553404.008          41.700          41.600
 126053152.988 6  98223244.06343  23987117.227
  23987120.020          41.200          22.200
 109963134.218 8  85685607.63846  20925271.188
  20925272.969          49.100          36.800
 117670082.696 7  91691007.796 7  22391866.289    22391870.262
  22391869.879          44.600          43.400
 112524145.987 7  87681201.181 7  21412627.789    21412633.625
  21412633.848          46.600          46.400
 117096612.066 7  91244173.42245  22282731.523
  22282733.855          44.400          31.900
 128033839.216 6  99766489.802 6  24363965.391    24363971.004
  24363969.984          39.800          37.300
 127162302.047 6  99087517.98443  24198180.078
  24198182.258          41.200          23.600
 16  2 13  3  1 30.0000000  0 10G30G07G08G13G11G17G01G28G09G19
 106814168.728 8  83231866.172 8  20326047.258    20326052.688
  20326052.434          48.900          49.900
 105768637.662 7  82417171.894 8  20127080.773    20127083.215
  20127083.590          47.700          48.300
 123866644.794 6  96519562.793 6  23571011.727    23571017.609
  23571016.008          41.300          41.400
 126008091.672 6  98188131.37443  23978541.992
  23978546.047          40.700          22.200
 109980072.089 8  85698805.99446  20928494.391
  20928496.316          49.500          37.200
 117605393.832 7  91640600.921 7  22379557.102    22379560.656
  22379560.980          45.900          44.300
 112490113.446 7  87654682.344 7  21406151.563    21406157.578
  21406157.910          47.900          47.000
 117062733.446 7  91217774.50645  22276285.297
  22276287.012          46.300          33.000
 128128622.204 6  99840346.678 6  24382002.625    24382008.074
  24382008.238          40.300          39.600
 127061115.122 6  99008671.05643  24178924.359
  24178926.742          40.200          22.200
 16  2 13  3  2  0.0000000  0 10G30G07G08G13G11G17G01G28G09G19
 106783183.936 8  83207722.169 8  20320151.898    20320157.133
  20320156.773          48.700          49.700
 105797612.855 7  82439749.923 8  20132594.141    20132597.520
  20132597.563          47.100          48.100
 123959236.837 6  96591712.413 7  23588631.016    23588638.129
  23588637.625          40.700          43.400
 125963547.164 6  98153421.37043  23970065.344
  23970069.934          40.100          21.300
 109997608.867 8  85712471.02746  20931831.742
  20931833.359          50.000          36.900
 117541037.793 7  91590453.373 7  22367311.000    22367314.164
  22367314.621          47.100          44.100
 112456630.037 7  87628591.407 7  21399779.445    21399785.918
  21399786.664          45.600          46.900
 117028865.113 7  91191383.59445  22269840.266
  22269843.027          47.500          32.800
 128223314.019 6  99914132.496 6  24400020.969    24400027.715
  24400027.664          39.200          39.200
 126960139.788 6  98929989.01344  24159710.102
  24159712.348          41.400          27.100
 16  2 13  3  2 30.0000000  0 10G30G07G08G13G11G17G01G28G09G19
 106752668.968 8  83183944.273 8  20314344.656    20314349.832
  20314349.668          50.100          49.600
 105827131.707 7  82462751.586 8  20138212.016    20138214.699
  20138214.668          46.800          48.100
 124051865.891 6  96663890.835 7  23606257.469    23606264.180
  23606263.863          39.500          43.100
 125919520.887 6  98119115.20543  23961687.141
  23961691.367          40.100          21.300
 110015744.664 8  85726602.82946  20935282.633
  20935284.594          49.600          36.900
 117477015.711 7  91540566.052 7  22355126.242    22355130.621
  22355131.129          46.600          44.200
 112423698.191 7  87602930.265 7  21393513.016    21393519.262
  21393519.781          46.400          47.100
 116995007.241 7  91165000.84745  22263397.352
  22263400.535          46.800          32.800
 128317912.643 6  99987845.695 6  24418023.547    24418028.293
  24418028.523          39.800          37.900
 126859378.726 7  98851473.91844  24140536.156
  24140538.891          42.300          25.700
 16  2 13  3  3  0.0000000  0 10G30G07G08G13G11G17G01G28G09G19
 106722625.130 7  83160533.481 8  20308627.609    20308633.258
  20308633.188          47.800          50.300
 105857193.787 7  82486176.566 7  20143932.508    20143935.262
  20143935.094          47.600          47.900
 124144529.115 6  96736095.936 6  23623891.266    23623896.750
  23623896.035          40.300          41.100
 125876013.657 6  98085213.45343  23953409.227
  23953411.867          40.900          22.000
 110034478.537 8  85741200.66746  20938847.516
  20938849.582          49.400          36.500
 117413327.546 7  91490938.949 7  22343006.984    22343011.383
  22343011.047          46.000          43.100
 112391319.290 7  87577699.989 7  21387351.328    21387357.582
  21387358.211          44.600          46.700
 116961159.346 7  91138625.87745  22256956.305
  22256959.516          45.900          33.500
 128412415.163 6 100061484.091 6  24436006.398    24436010.656
  24436010.414          40.200          37.000
 126758832.386 6  98773126.13343  24121402.188
  24121403.254          41.500          21.700
 16  2 13  3  3 30.0000000  0 10G30G07G08G13G11G17G01G28G09G19
 106693054.667 8  83137491.563 8  20303000.461    20303006.133
  20303005.840          49.800          49.800
 105887799.460 8  82510025.127 7  20149756.906    20149759.270
  20149759.352          48.000          47.600
 124237225.512 6  96808326.914 7  23641530.570    23641537.039
  23641536.371          39.900          43.200
 125833027.190 6  98051717.47043  23945228.688
  23945231.109          41.400          22.600
 110053810.020 8  85756264.17446  20942526.727
  20942528.645          49.200          36.400
 117349974.278 7  91441572.770 7  22330952.617    22330955.633
  22330955.566          46.800          43.300
 112359495.469 7  87552902.240 7  21381295.000    21381301.750
  21381302.352          46.000          47.400
 116927321.354 7  91112258.62245  22250516.469
  22250520.344          46.100          32.800
 128506819.239 6 100135045.701 6  24453970.273    24453977.031
  24453976.988          38.400          40.100
 126658503.313 7  98694947.62644  24102310.992
  24102312.988          42.600          26.500
 16  2 13  3  4  0.0000000  0 10G30G07G08G13G11G17G01G28G09G19
 106663958.779 8  83114819.438 8  20297463.680    20297469.441
  20297469.352          49.700          50.400
 105918947.988 8  82534296.666 8  20155684.031    20155686.715
  20155686.918          48.000          48.400
 124329952.901 6  96880581.952 7  23659175.742    23659183.316
  23659183.063          39.900          43.700
 125790561.934 6  98018627.61743  23937147.828
  23937149.629          40.400          21.700
 110073738.043 8  85771792.50546  20946318.305
  20946320.512          48.700          37.000
 117286955.856 7  91392467.505 7  22318960.016    22318963.875
  22318964.211          47.000          44.400
 112328227.956 7  87528537.972 7  21375345.023    21375351.711
  21375352.023          46.100          47.000
 116893492.943 7  91085898.83845  22244079.180
  22244082.801          45.600          32.200
 128601121.884 6 100208528.230 6  24471915.766    24471921.707
  24471922.305          39.600          40.000
 126558392.232 6  98616939.03844  24083259.313
  24083262.277          40.100          25.300
 16  2 13  3  4 30.0000000  0 10G30G07G08G13G11G17G01G28G09G19
 106635339.538 8  83092518.734 8  20292017.586    20292023.293
  20292023.293          49.200          49.600
 105950639.479 7  82558991.308 8  20161714.891    20161717.723
  20161717.770          47.700          48.400
 124422709.403 6  96952859.699 7  23676827.516    23676833.238
  23676833.285          40.400          42.600
 125748619.239 6  97985944.96243  23929165.609
  23929168.215          40.700          20.100
 110094262.125 8  85787785.30146  20950224.125
  20950226.324          49.600          36.700
 117224273.002 7  91343623.765 7  22307031.383    22307035.523
  22307035.758          45.100          43.900
 112297518.693 7  87504608.703 7  21369501.883    21369507.844
  21369508.148          45.600          45.900
 116859673.871 7  91059546.33145  22237644.242
  22237646.359          46.100          33.000
 128695320.743 6 100281929.983 6  24489841.078    24489845.953
  24489845.676          38.100          36.700
 126458500.952 7  98539101.71343  24064251.320
  24064253.082          42.200          23.800
