     2.11           OBSERVATION DATA    G (GPS)             RINEX VERSION / TYPE
teqc  2013Mar15     Grigory Steblov     20160214 00:07:08UTCPGM / RUN BY / DATE
Linux 2.4.21-27.ELsmp|Opteron|gcc -static|Linux x86_64|=+   COMMENT
BIT 2 OF LLI FLAGS DATA COLLECTED UNDER A/S CONDITION       COMMENT
IRKM                                                        MARKER NAME
12313M001                                                   MARKER NUMBER
Dmitry Frolov       RDAAC                                   OBSERVER / AGENCY
LP01756             ASHTECH Z-XII3      CD00                REC # / TYPE / VERS
178                 AOAD/M_T        NONE                    ANT # / TYPE
  -968332.3892  3794425.4085  5018167.7056                  APPROX POSITION XYZ
        0.1280        0.0000        0.0000                  ANTENNA: DELTA H/E/N
     1     1                                                WAVELENGTH FACT L1/2
     7    L1    L2    P1    P2    C1    S1    S2            # / TYPES OF OBSERV
                                                            COMMENT
This data is provided as a public service by                COMMENT
Regional GPS Data Acquisition Analysis Center (RDAAC)       COMMENT
Geophysical Service RAS (GS RAS)                            COMMENT
The data aquisition software is provided by NASA/JPL        COMMENT
No warranty is expressed or implied regarding suitability   COMMENT
for use. For further information, contact:                  COMMENT
Grigory M. Steblov, GS RAS (steblov@gps.gsras.ru)           COMMENT
Dave Stowers, NASA/JPL m/s 238-600                          COMMENT
4800 Oak Grove Drive, Pasadena CA 91109 USA                 COMMENT
                                                            COMMENT
 SNR is mapped to RINEX snr flag value [0-9]                COMMENT
  L1 & L2: min(max(int(snr_dBHz/6), 0), 9)                  COMMENT
pseudorange smoothing corrections not applied               COMMENT
  2016     2    13     0     0   30.0000000     GPS         TIME OF FIRST OBS
                                                            END OF HEADER
 16  2 13  0  1  0.0000000  0  8G05G21G02G07G29G13G20G15
 -15914539.04547 -12377439.82147  20797348.5554   20797351.9624   20797348.313
        47.9004         45.4004
  -1121378.32746   -862671.46045  24156262.0924   24156265.5554   24156262.023
        37.6004         35.7004
  -4878014.18346  -3776631.45346  22747255.1504   22747257.2404   22747255.845
        41.1004         38.6004
  -1363046.14245  -1049637.70745  24266033.1194   24266036.2004   24266030.964
        35.6004         34.0004
 -19097914.84747 -14866636.27247  21089760.5424   21089763.9294   21089760.271
        46.5004         43.9004
  -9875073.96547  -7671362.79647  21495194.7094   21495198.2624   21495194.492
        44.9004         42.3004
 -14496701.16947 -11274124.92147  20619182.3704   20619186.7994   20619183.323
        46.9004         44.4004
  -4147830.75146  -3214946.47046  23181859.7504   23181863.2934   23181859.960
        39.9004         37.4004
 16  2 13  0  1 30.0000000  0  8G05G21G02G07G29G13G20G15
 -15864286.55347 -12338282.05947  20806911.1544   20806914.5034   20806910.443
        47.9004         45.2004
  -1208191.66446   -930318.21545  24139741.0954   24139744.1044   24139741.547
        37.8004         35.9004
  -4789424.92746  -3707600.93846  22764113.3664   22764115.8684   22764113.118
        41.1004         38.6004
  -1368625.26645  -1053985.13445  24264969.8954   24264971.1304   24264969.827
        35.4004         33.8004
 -19061696.07647 -14838413.88047  21096652.4754   21096656.2414   21096651.941
        46.5004         43.9004
  -9943382.17247  -7724589.97247  21482195.7964   21482200.1574   21482195.885
        45.1004         42.5004
 -14547615.91547 -11313798.74547  20609493.8094   20609497.4134   20609494.160
        46.9004         44.4004
  -4258672.28146  -3301316.47846  23160766.9974   23160771.1754   23160767.305
        39.9004         37.6004
 16  2 13  0  2  0.0000000  0  8G05G21G02G07G29G13G20G15
 -15813671.40547 -12298841.70247  20816543.2404   20816546.7684   20816542.591
        47.9004         45.2004
  -1294921.07246   -997899.55346  24123238.6434   24123241.4524   24123238.677
        38.0004         36.0004
  -4700584.73546  -3638374.88246  22781018.2394   22781021.2574   22781018.641
        41.1004         38.6004
  -1373652.08645  -1057902.18245  24264015.7324   24264017.9464   24264013.347
        35.2004         33.6004
 -19024886.96247 -14809731.48047  21103656.9594   21103660.9944   21103656.670
        46.5004         43.7004
 -10011185.90547  -7777424.05647  21469293.1814   21469297.2124   21469292.954
        45.1004         42.5004
 -14598143.34247 -11353170.75747  20599878.7354   20599882.7764   20599879.427
        46.9004         44.4004
  -4369291.35746  -3387513.15946  23139716.9174   23139721.2054   23139716.387
        40.1004         37.8004
 16  2 13  0  2 30.0000000  0  8G05G21G02G07G29G13G20G15
 -15762695.40447 -12259120.16147  20826243.8274   20826247.0574   20826243.343
        47.9004         45.2004
  -1381565.31046  -1065414.53245  24106750.8074   24106752.3564   24106750.737
        38.2004         35.9004
  -4611494.86246  -3568954.28746  22797972.2624   22797974.6094   22797973.512
        40.9004         38.6004
  -1378125.96145  -1061388.35245  24263163.1734   24263166.0144   24263162.766
        35.2004         33.8004
 -18987489.29347 -14780590.46347  21110773.5944   21110777.1444   21110773.579
        46.3004         43.7004
 -10078483.31847  -7829863.60547  21456486.7984   21456491.2864   21456486.331
        45.1004         42.5004
 -14648282.89547 -11392240.52747  20590337.7794   20590341.8114   20590337.784
        47.0004         44.4004
  -4479685.35446  -3473534.45246  23118709.1744   23118713.8004   23118708.802
        40.3004         37.9004
 16  2 13  0  3  0.0000000  0  8G05G21G02G07G29G13G20G15
 -15711360.06847 -12219118.62147  20836012.5404   20836015.7934   20836011.915
        47.9004         45.2004
  -1468122.91946  -1132862.00945  24090278.8034   24090281.9854   24090279.472
        38.0004         35.9004
  -4522156.54246  -3499340.09146  22814972.3844   22814975.0294   22814972.698
        40.9004         38.5004
  -1382046.45945  -1064443.34345  24262417.4934   24262422.6924   24262416.422
        35.6004         34.3004
 -18949504.07447 -14750991.62347  21118001.8924   21118005.8234   21118001.559
        46.5004         43.9004
 -10145272.23247  -7881906.92847  21443777.1744   21443781.3064   21443777.176
        45.1004         42.3004
 -14698033.84947 -11431007.49147  20580870.4914   20580874.3814   20580871.151
        47.0004         44.4004
  -4589851.57446  -3559378.26446  23097746.1374   23097749.8004   23097744.098
        40.4004         37.9004
 16  2 13  0  3 30.0000000  0  8G05G21G02G07G29G13G20G15
 -15659666.37347 -12178837.84447  20845849.4734   20845852.7024   20845848.727
        47.9004         45.2004
  -1554592.40546  -1200240.81145  24073824.2054   24073827.2774   24073824.865
        38.0004         35.9004
  -4432570.43346  -3429532.80046  22832019.6384   22832023.3504   22832020.957
        40.8004         38.3004
  -1385412.89045  -1067066.60945  24261775.5834   24261780.1144   24261775.731
        35.6004         34.1004
 -18910932.43347 -14720935.83247  21125342.1654   21125346.1414   21125341.796
        46.5004         43.7004
 -10211550.22647  -7933552.12447  21431165.3794   21431169.2634   21431165.081
        45.3004         42.6004
 -14747395.16947 -11469470.85847  20571477.2444   20571481.1714   20571477.617
        47.0004         44.4004
  -4699787.49946  -3645042.62046  23076825.4124   23076829.3974   23076824.683
        40.3004         37.9004
 16  2 13  0  4  0.0000000  0  8G05G21G02G07G29G13G20G15
 -15607615.82947 -12138279.00647  20855754.0374   20855757.6284   20855753.933
        47.7004         45.2004
  -1640972.67146  -1267550.10845  24057385.9184   24057389.5454   24057386.884
        37.8004         35.9004
  -4342737.98146  -3359533.56646  22849114.4944   22849117.7334   22849115.632
        40.8004         38.3004
  -1388225.10245  -1069257.99245  24261242.1484   24261243.5424   24261241.880
        35.7004         34.0004
 -18871776.19047 -14690424.50447  21132793.4744   21132797.2244   21132793.121
        46.3004         43.7004
 -10277315.48547  -7984797.79047  21418650.7114   21418654.6604   21418650.282
        45.3004         42.6004
 -14796366.49147 -11507630.32947  20562158.3974   20562162.2504   20562158.725
        47.0004         44.5004
  -4809490.72846  -3730525.64046  23055949.4804   23055953.3874   23055949.391
        40.4004         38.3004
 16  2 13  0  4 30.0000000  0  8G05G21G02G07G29G13G20G15
 -15555210.03247 -12097443.33847  20865727.2034   20865730.0624   20865726.511
        47.9004         45.2004
  -1727262.74046  -1334789.12945  24040965.0484   24040969.3074   24040966.379
        37.8004         35.9004
  -4252660.45946  -3289343.37046  22866256.1934   22866258.6674   22866256.839
        40.8004         38.3004
  -1390482.38346  -1071016.98645  24260813.4664   24260815.7154   24260812.028
        36.1004         34.5004
 -18832036.06547 -14659458.19447  21140355.3644   21140359.1584   21140354.991
        46.3004         43.7004
 -10342566.12247  -8035642.45747  21406233.8514   21406237.3794   21406233.238
        45.3004         42.6004
 -14844946.94647 -11545485.22747  20552913.5424   20552917.9324   20552914.135
        47.2004         44.5004
  -4918958.52146  -3815825.22446  23035118.5774   23035123.1564   23035118.706
        40.8004         38.3004
 16  2 13  0  5  0.0000000  0  8G05G21G02G07G29G13G20G15
 -15502450.24747 -12056331.84147  20875766.4294   20875770.2114   20875766.104
        47.7004         45.1004
  -1813460.59346  -1401956.28146  24024563.0984   24024565.6224   24024563.208
        38.0004         36.0004
  -4162339.03846  -3218963.11846  22883444.1574   22883446.4434   22883443.912
        40.6004         37.9004
  -1392184.85146  -1072343.62245  24260488.0674   24260490.4254   24260487.470
        36.1004         34.5004
 -18791713.53847 -14628038.07647  21148028.5544   21148032.0714   21148027.943
        46.3004         43.7004
 -10407299.93247  -8086084.39347  21393915.1024   21393919.0874   21393915.247
        45.3004         42.6004
 -14893135.94747 -11583035.10147  20543743.6804   20543747.7404   20543744.051
        47.0004         44.5004
  -5028188.32146  -3900939.35546  23014332.3934   23014337.4574   23014331.932
        40.8004         38.5004
 16  2 13  0  5 30.0000000  0  8G05G21G02G07G29G13G20G15
 -15449338.12047 -12014945.79847  20885873.8584   20885877.3004   20885873.536
        47.7004         45.2004
  -1899565.43546  -1469050.95046  24008178.4674   24008181.7284   24008178.005
        38.3004         36.2004
  -4071774.93346  -3148393.76946  22900677.4674   22900680.7714   22900678.116
        40.4004         37.8004
  -1393332.26745  -1073237.79845  24260271.4724   24260272.1924   24260269.025
        35.9004         34.3004
 -18750810.41447 -14596165.54247  21155811.9654   21155816.0094   21155812.042
        46.3004         43.7004
 -10471514.94747  -8136122.08047  21381695.7304   21381699.6884   21381695.658
        45.5004         42.6004
 -14940933.02847 -11620279.56747  20534648.1404   20534652.2704   20534648.586
        47.0004         44.4004
  -5137177.94046  -3985866.32146  22993592.7604   22993597.1414   22993591.380
        40.8004         38.3004
 16  2 13  0  6  0.0000000  0  8G05G21G02G07G29G13G20G15
 -15395874.74747 -11973286.05047  20896047.4934   20896051.0884   20896046.967
        47.7004         45.1004
  -1985575.44346  -1536071.74346  23991811.4434   23991813.9534   23991811.597
        38.7004         36.6004
  -3980968.96046  -3077635.94446  22917956.8154   22917960.3004   22917957.885
        40.1004         37.6004
  -1393923.67646  -1073698.68845  24260155.6154   24260158.5394   24260156.401
        36.1004         34.5004
 -18709327.48247 -14563841.21847  21163706.2884   21163710.3154   21163706.135
        46.3004         43.7004
 -10535209.06847  -8185753.87347  21369574.7854   21369578.6924   21369574.375
        45.5004         42.6004
 -14988337.33947 -11657217.99147  20525627.1324   20525631.3314   20525628.157
        47.0004         44.5004
  -5245924.59946  -4070603.97546  22972898.6484   22972903.2694   22972897.625
        40.9004         38.5004
 16  2 13  0  6 30.0000000  0  8G05G21G02G07G29G13G20G15
 -15342061.64247 -11931353.78547  20906287.8204   20906290.8894   20906287.203
        47.7004         45.1004
  -2071489.24046  -1603017.55646  23975462.4244   23975464.9134   23975462.751
        38.9004         36.7004
  -3889922.90546  -3006691.04446  22935282.0524   22935285.3754   22935283.273
        40.1004         37.6004
  -1393958.92646  -1073726.16945  24260150.9274   24260150.9384   24260150.491
        36.6004         34.6004
 -18667265.97647 -14531066.04647  21171710.2254   21171713.8844   21171709.838
        46.2004         43.7004
 -10598380.24047  -8234978.16847  21357554.1364   21357557.8594   21357554.121
        45.5004         42.8004
 -15035347.82347 -11693849.52847  20516681.3604   20516685.4754   20516681.628
        47.0004         44.5004
  -5354425.46546  -4155150.09946  22952251.7104   22952256.6184   22952252.124
        40.9004         38.6004
 16  2 13  0  7  0.0000000  0  8G05G21G02G07G29G13G20G15
 -15287900.21847 -11889150.10047  20916594.4114   20916597.7494   20916593.926
        47.7004         45.1004
  -2157305.86846  -1669887.64646  23959131.6204   23959135.2104   23959132.017
        39.0004         36.7004
  -3798637.64346  -2935559.75046  22952654.1614   22952656.8604   22952654.589
        40.1004         37.8004
  -1393437.71246  -1073320.08345  24260250.3994   24260253.2284   24260248.138
        36.3004         34.6004
 -18624627.62147 -14497841.38047  21179823.9174   21179827.8594   21179823.647
        46.3004         43.5004
 -10661026.55447  -8283793.48247  21345632.5944   21345636.4024   21345632.514
        45.5004         42.8004
 -15081964.26047 -11730174.03247  20507811.0674   20507814.6764   20507811.756
        47.2004         44.5004
  -5462678.31146  -4239502.97746  22931652.3614   22931656.3654   22931651.913
        41.1004         38.6004
 16  2 13  0  7 30.0000000  0  8G05G21G02G07G29G13G20G15
 -15233392.14447 -11846676.30647  20926966.8534   20926970.1364   20926966.481
        47.5004         44.9004
  -2243024.21746  -1736681.16146  23942819.8434   23942823.3274   23942820.033
        38.9004         36.6004
  -3707114.42546  -2864243.03646  22970070.5484   22970072.9404   22970071.504
        40.1004         37.8004
  -1392360.11646  -1072480.47645  24260455.5344   24260458.3054   24260455.477
        36.4004         34.6004
 -18581413.85247 -14464168.35147  21188047.4884   21188051.2114   21188047.366
        46.3004         43.7004
 -10723146.39047  -8332198.56047  21333811.9094   21333815.3014   21333811.225
        45.5004         43.0004
 -15128186.09747 -11766191.04747  20499015.0444   20499019.3364   20499015.339
        47.2004         44.5004
  -5570680.71946  -4323660.71846  22911100.1484   22911104.1334   22911099.473
        40.9004         38.5004
 16  2 13  0  8  0.0000000  0  8G05G21G02G07G29G13G20G15
 -15178538.34647 -11803933.10447  20937405.0954   20937408.2424   20937404.784
        47.5004         44.9004
  -2328642.85246  -1803396.98246  23926527.0274   23926530.3974   23926527.413
        38.9004         36.6004
  -3615354.14046  -2792741.60946  22987531.6794   22987534.6144   22987531.969
        40.1004         37.8004
  -1390725.32446  -1071206.62945  24260766.9404   24260768.7704   24260764.690
        36.1004         34.3004
 -18537626.18947 -14430048.12547  21196380.1114   21196384.0284   21196379.594
        46.5004         43.9004
 -10784737.55547  -8380191.68347  21322091.1084   21322095.5384   21322091.310
        45.6004         43.0004
 -15174012.08247 -11801899.61847  20490294.7954   20490298.5414   20490295.062
        47.2004         44.7004
  -5678429.98746  -4407621.19246  22890596.0854   22890599.8904   22890595.931
        40.9004         38.6004
 16  2 13  0  8 30.0000000  0  8G05G21G02G07G29G13G20G15
 -15123340.69147 -11760921.97647  20947909.1644   20947912.3224   20947908.171
        47.5004         44.9004
  -2414159.98546  -1870033.72146  23910254.0694   23910257.0614   23910254.134
        38.7004         36.4004
  -3523358.30546  -2721056.63146  23005037.5424   23005041.1684   23005037.838
        40.1004         37.6004
  -1388533.59945  -1069498.85845  24261184.0684   24261186.0514   24261181.642
        35.7004         34.1004
 -18493265.89247 -14395481.68247  21204821.5814   21204825.4024   21204821.467
        46.3004         43.7004
 -10845797.98747  -8427771.24647  21310471.5684   21310475.8094   21310471.949
        45.6004         43.0004
 -15219442.24547 -11837299.75047  20481649.8614   20481653.4744   20481649.946
        47.2004         44.5004
  -5785923.68546  -4491382.51846  22870140.4584   22870145.0554   22870140.138
        41.1004         38.8004
 16  2 13  0  9  0.0000000  0  8G05G21G02G07G29G13G20G15
 -15067800.56047 -11717643.97647  20958477.9154   20958481.3434   20958477.507
        47.4004         44.9004
  -2499574.61546  -1936590.57746  23894000.6814   23894003.6854   23894000.808
        38.7004         36.6004
  -3431127.82146  -2649188.80746  23022589.4194   23022592.4024   23022588.785
        39.7004         37.4004
  -1385784.57745  -1067356.77245  24261704.2474   24261710.8404   24261705.223
        35.6004         33.8004
 -18448334.37347 -14360470.14747  21213371.7114   21213375.3504   21213371.261
        46.3004         43.7004
 -10906326.02147  -8474935.95547  21298953.9184   21298957.5464   21298953.536
        45.6004         43.0004
 -15264475.48547 -11872390.59847  20473080.2874   20473084.4014   20473080.540
        47.2004         44.7004
  -5893159.48346  -4574942.88646  22849734.8424   22849738.9244   22849734.252
        41.3004         38.8004
 16  2 13  0  9 30.0000000  0  8G05G21G02G07G29G13G20G15
 -15011919.08047 -11674099.99847  20969112.0444   20969115.4704   20969111.664
        47.5004         44.9004
  -2584885.20946  -2003066.37646  23877765.7894   23877769.2984   23877766.671
        38.9004         36.7004
  -3338664.72746  -2577139.74446  23040184.4594   23040187.3424   23040184.589
        39.7004         37.6004
  -1382478.29045  -1064780.46445  24262335.8444   24262341.4424   24262335.234
        35.6004         34.0004
 -18402833.94047 -14325015.30547  21222030.2734   21222034.0244   21222030.000
        46.3004         43.7004
 -10966319.76147  -8521684.33247  21287537.3674   21287541.1534   21287537.136
        45.6004         43.0004
 -15309111.73247 -11907172.10347  20464586.0804   20464590.2964   20464586.820
        47.2004         44.7004
  -6000134.79646  -4658300.28446  22829377.6384   22829381.9134   22829377.103
        41.3004         39.0004
 16  2 13  0 10  0.0000000  0  8G05G21G02G07G29G13G20G15
 -14955697.90647 -11630291.31747  20979810.4184   20979814.0664   20979810.069
        47.4004         44.9004
  -2670090.40446  -2069460.02946  23861551.7664   23861554.9584   23861552.318
        39.0004         36.7004
  -3245969.72746  -2504909.96446  23057822.8304   23057826.5794   23057824.055
        39.9004         37.6004
  -1378614.50745  -1061769.72445  24263070.3464   24263073.0664   24263069.475
        35.6004         34.0004
 -18356765.02347 -14289117.47947  21230797.1224   21230800.7414   21230796.665
        46.2004         43.5004
 -11025777.40047  -8568014.96847  21276222.8944   21276226.6024   21276222.672
        45.6004         43.0004
 -15353349.83547 -11941643.35847  20456167.8744   20456172.0884   20456168.507
        47.2004         44.7004
  -6106846.85146  -4741452.54546  22809070.9924   22809075.7764   22809070.382
        41.5004         39.0004
 16  2 13  0 10 30.0000000  0  8G05G21G02G07G29G13G20G15
 -14899138.44247 -11586219.03547  20990573.2954   20990576.7944   20990572.883
        47.4004         44.9004
  -2755188.53646  -2135770.25746  23845359.4564   23845360.7434   23845359.084
        38.9004         36.7004
  -3153044.05546  -2432500.44546  23075507.2704   23075509.7084   23075507.233
        39.9004         37.6004
  -1374192.96845  -1058324.40845  24263909.7804   24263917.2544   24263910.049
        35.2004         33.8004
 -18310129.66847 -14252778.27647  21239671.2334   21239675.0724   21239670.700
        46.2004         43.5004
 -11084696.78547  -8613926.18447  21265011.1234   21265014.9284   21265010.692
        45.8004         43.2004
 -15397189.38447 -11975804.05747  20447825.9434   20447829.4024   20447826.513
        47.2004         44.7004
  -6213293.27046  -4824397.81246  22788814.6684   22788819.2094   22788814.506
        41.5004         39.0004
 16  2 13  0 11  0.0000000  0  8G05G21G02G07G29G13G20G15
 -14842242.03647 -11541884.20747  21001400.2994   21001403.3304   21001400.000
        47.4004         44.7004
  -2840178.62146  -2201996.30046  23829185.3064   23829188.4054   23829185.891
        38.9004         36.6004
  -3059889.01746  -2359912.19046  23093234.0344   23093237.2374   23093233.878
        39.7004         37.4004
  -1369213.66745  -1054444.46245  24264860.4784   24264861.7214   24264861.198
        35.6004         34.1004
 -18262929.42647 -14215998.90747  21248653.5724   21248657.2134   21248653.361
        46.2004         43.7004
 -11143076.44047  -8659416.83247  21253901.3654   21253905.6254   21253901.293
        45.8004         43.2004
 -15440629.77947 -12009653.71647  20439558.9384   20439563.0674   20439559.056
        47.2004         44.7004
  -6319471.62346  -4907134.20146  22768609.6644   22768614.1884   22768609.426
        41.6004         39.2004
 16  2 13  0 11 30.0000000  0  8G05G21G02G07G29G13G20G15
 -14785010.06447 -11497287.88847  21012291.1104   21012294.6994   21012290.783
        47.4004         44.7004
  -2925058.78546  -2268136.69546  23813033.1374   23813036.0334   23813032.795
        38.9004         36.6004
  -2966505.65646  -2287146.02746  23111004.7924   23111007.2754   23111005.487
        39.7004         37.4004
  -1363676.26645  -1050129.55945  24265910.2174   24265916.0294   24265912.572
        35.4004         34.0004
 -18215165.92947 -14178780.62347  21257742.1184   21257746.4144   21257742.114
        46.2004         43.5004
 -11200914.22447  -8704485.23647  21242895.0784   21242899.7634   21242894.920
        45.8004         43.2004
 -15483670.04247 -12043191.59247  20431368.7044   20431373.0354   20431369.324
        47.4004         44.7004
  -6425379.24646  -4989659.62646  22748456.0504   22748461.0824   22748455.090
        41.6004         39.2004
 16  2 13  0 12  0.0000000  0  8G05G21G02G07G29G13G20G15
 -14727444.11247 -11452431.32947  21023245.7844   21023249.0744   21023245.163
        47.4004         44.7004
  -3009827.98146  -2334190.62546  23796900.8664   23796905.4034   23796902.407
        38.9004         36.7004
  -2872895.45946  -2214203.11846  23128817.9764   23128820.9104   23128818.508
        39.6004         37.1004
  -1357581.07945  -1045380.11445  24267072.3364   24267077.6644   24267071.668
        35.4004         34.0004
 -18166840.63647 -14141124.58547  21266938.2544   21266942.3054   21266938.329
        46.2004         43.5004
 -11258208.76547  -8749130.34747  21231992.8294   21231996.3634   21231992.745
        45.8004         43.2004
 -15526310.03447 -12076417.56647  20423254.7104   20423258.4814   20423255.147
        47.4004         44.9004
  -6531013.68646  -5071972.18946  22728354.7894   22728359.4104   22728354.354
        41.8004         39.3004
 16  2 13  0 12 30.0000000  0  8G05G21G02G07G29G13G20G15
 -14669545.60647 -11407315.64447  21034263.5664   21034267.1554   21034263.128
        47.4004         44.7004
  -3094484.72446  -2400156.92346  23780792.1904   23780795.2224   23780792.543
        38.9004         36.6004
  -2779059.77846  -2141084.50146  23146673.5034   23146676.6124   23146674.915
        39.2004         36.9004
  -1350928.03545  -1040195.94045  24268337.7774   24268341.6464   24268339.043
        35.6004         34.1004
 -18117955.39047 -14103032.22247  21276241.1794   21276245.1654   21276240.416
        46.2004         43.3004
 -11314957.80747  -8793350.38947  21221194.1314   21221197.2634   21221193.325
        45.8004         43.3004
 -15568549.04447 -12109331.08747  20415217.0114   20415220.8534   20415217.615
        47.4004         44.7004
  -6636372.76347  -5154070.19346  22708305.7924   22708310.1614   22708305.362
        42.0004         39.5004
 16  2 13  0 13  0.0000000  0  8G05G21G02G07G29G13G20G15
 -14611315.75647 -11361941.76447  21045344.5024   21045347.7884   21045344.114
        47.4004         44.7004
  -3179027.70246  -2466034.57246  23764703.8924   23764707.8074   23764704.862
        39.0004         36.7004
  -2684999.53146  -2067790.89346  23164572.7494   23164576.2014   23164573.509
        39.2004         36.9004
  -1343716.98845  -1034576.97045  24269712.7374   24269714.1204   24269711.617
        35.9004         34.1004
 -18068511.70447 -14064504.71147  21285649.9514   21285653.7854   21285649.771
        46.0004         43.3004
 -11371159.79447  -8837144.14847  21210499.0164   21210503.0194   21210498.767
        45.8004         43.2004
 -15610386.23547 -12141931.50547  20407255.3724   20407259.5774   20407255.668
        47.4004         44.7004
  -6741453.79847  -5235951.52646  22688309.3664   22688313.6864   22688309.333
        42.0004         39.3004
 16  2 13  0 13 30.0000000  0  8G05G21G02G07G29G13G20G15
 -14552756.18147 -11316310.95547  21056488.1104   21056491.1694   21056487.695
        47.4004         44.5004
  -3263455.50046  -2531822.47446  23748638.2104   23748642.0814   23748638.259
        39.2004         37.1004
  -2590716.21146  -1994323.46346  23182515.2814   23182517.4244   23182515.314
        39.0004         36.7004
  -1335948.14146  -1028523.32045  24271188.8214   24271193.2274   24271188.679
        36.1004         34.5004
 -18018511.32547 -14025543.41847  21295164.5644   21295168.1734   21295164.179
        46.0004         43.3004
 -11426813.19547  -8880510.43947  21199908.2594   21199912.5134   21199907.956
        45.8004         43.3004
 -15651821.45947 -12174218.71347  20399370.9634   20399374.9144   20399371.554
        47.4004         44.7004
  -6846254.24247  -5317614.23646  22668366.5124   22668370.8624   22668366.181
        42.0004         39.5004
 16  2 13  0 14  0.0000000  0  8G05G21G02G07G29G13G20G15
 -14493868.26847 -11270424.29947  21067694.0194   21067697.5234   21067693.771
        47.4004         44.7004
  -3347766.91546  -2597519.69646  23732594.7304   23732597.5374   23732595.318
        39.6004         37.3004
  -2496211.09146  -1920683.21346  23200498.3974   23200501.7074   23200499.157
        38.7004         36.6004
  -1327621.29646  -1022034.94345  24272775.2604   24272777.4244   24272775.377
        36.4004         34.6004
 -17967956.11047 -13986149.77847  21304784.6134   21304788.9424   21304784.069
        46.0004         43.2004
 -11481916.12247  -8923447.79247  21189422.8564   21189426.6744   21189422.646
        46.0004         43.3004
 -15692853.99047 -12206192.11847  20391562.5644   20391566.2524   20391562.999
        47.4004         44.9004
  -6950771.52147  -5399056.28746  22648477.6964   22648482.0764   22648476.819
        42.2004         39.7004
 16  2 13  0 14 30.0000000  0  8G05G21G02G07G29G13G20G15
 -14434653.39447 -11224282.87447  21078962.1544   21078965.4594   21078961.913
        47.2004         44.5004
  -3431959.91846  -2663124.64146  23716574.0424   23716576.3924   23716573.646
        39.6004         37.3004
  -2401485.19646  -1846870.92546  23218523.9604   23218527.2484   23218523.580
        38.7004         36.6004
  -1318736.56346  -1015111.80845  24274463.8224   24274468.5284   24274464.260
        36.4004         34.6004
 -17916847.24847 -13946324.73347  21314510.2604   21314514.3734   21314510.092
        45.8004         43.2004
 -11536466.85847  -8965954.86747  21179042.0324   21179045.5914   21179041.510
        46.0004         43.3004
 -15733483.04447 -12237851.13847  20383830.8874   20383834.8254   20383831.583
        47.4004         44.7004
  -7055003.38147  -5480275.93046  22628642.7504   22628647.5334   22628642.434
        42.3004         39.7004
 16  2 13  0 15  0.0000000  0  8G05G21G02G07G29G13G20G15
 -14375112.88947 -11177887.71047  21090292.1654   21090296.2734   21090291.955
        47.2004         44.4004
  -3516033.35546  -2728636.43246  23700574.3574   23700577.4724   23700575.058
        39.6004         37.3004
  -2306540.40246  -1772888.06946  23236591.7834   23236595.3084   23236591.628
        38.5004         36.4004
  -1309294.23446  -1007754.19545  24276262.4084   24276266.0144   24276262.873
        36.6004         34.8004
 -17865186.94747 -13906069.98647  21324340.9484   21324345.2334   21324341.033
        45.8004         43.2004
 -11590463.98847  -9008030.56347  21168766.7294   21168770.7464   21168766.448
        46.0004         43.2004
 -15773708.37147 -12269195.55847  20376176.4654   20376180.4884   20376176.979
        47.4004         44.7004
  -7158946.99947  -5561270.97246  22608863.2934   22608867.8234   22608862.738
        42.3004         39.9004
 16  2 13  0 15 30.0000000  0  8G05G21G02G07G29G13G20G15
 -14315248.37547 -11131240.07347  21101684.4054   21101687.9094   21101683.764
        47.2004         44.7004
  -3599985.83746  -2794053.96246  23684598.9354   23684601.9044   23684599.355
        39.6004         37.1004
  -2211377.59046  -1698735.34546  23254700.7744   23254704.9544   23254700.699
        38.7004         36.6004
  -1299294.45046   -999962.20545  24278165.0484   24278168.9224   24278164.626
        36.4004         34.6004
 -17812976.74947 -13865386.75047  21334277.2164   21334280.5194   21334276.923
        46.0004         43.3004
 -11643905.84347  -9049673.57747  21158597.2994   21158600.6664   21158597.051
        46.0004         43.5004
 -15813529.30147 -12300224.86847  20368598.9474   20368602.6564   20368599.390
        47.4004         44.9004
  -7262600.33447  -5642039.81546  22589138.5694   22589142.9954   22589139.128
        42.7004         40.2004
 16  2 13  0 16  0.0000000  0  8G05G21G02G07G29G13G20G15
 -14255061.33347 -11084341.11647  21113137.2684   21113141.3844   21113136.869
        47.2004         44.5004
  -3683815.63646  -2859375.90446  23668645.9714   23668649.5794   23668646.834
        39.4004         37.1004
  -2115997.88046  -1624413.62146  23272850.8684   23272854.1924   23272851.233
        38.9004         36.7004
  -1288736.65046   -991735.41645  24280173.3234   24280177.1994   24280172.952
        36.8004         35.0004
 -17760218.33647 -13824276.33647  21344316.0824   21344319.8624   21344315.664
        46.0004         43.3004
 -11696790.31747  -9090882.26947  21148533.2404   21148537.3414   21148533.158
        46.2004         43.5004
 -15852944.84247 -12330938.28447  20361098.3264   20361102.4304   20361098.669
        47.4004         44.9004
  -7365960.67847  -5722580.35346  22569469.4304   22569474.0114   22569468.492
        42.5004         39.9004
 16  2 13  0 16 30.0000000  0  8G05G21G02G07G29G13G20G15
 -14194553.01847 -11037191.81247  21124651.8544   21124655.0224   21124651.450
        47.2004         44.5004
  -3767521.63846  -2924601.36946  23652717.5934   23652720.1944   23652718.291
        39.4004         37.1004
  -2020403.01646  -1549924.24046  23291042.3064   23291045.4374   23291042.387
        38.9004         36.7004
  -1277621.44646   -983074.26645  24282289.1104   24282293.3434   24282289.826
        36.8004         35.0004
 -17706914.07347 -13782740.58547  21354459.8674   21354463.4584   21354459.168
        46.0004         43.2004
 -11749116.11447  -9131655.62647  21138576.3474   21138580.2634   21138576.015
        46.2004         43.5004
 -15891954.78247 -12361335.65447  20353674.9444   20353678.9774   20353675.446
        47.4004         44.9004
  -7469025.69047  -5802890.76546  22549857.0444   22549861.2144   22549856.734
        42.7004         39.9004
 16  2 13  0 17  0.0000000  0  8G05G21G02G07G29G13G20G15
 -14133724.82347 -10989793.25147  21136226.9454   21136230.5314   21136226.330
        47.2004         44.5004
  -3851102.43946  -2989729.28046  23636813.2134   23636815.9564   23636812.979
        39.4004         37.1004
  -1924593.95846  -1475267.95546  23309273.9484   23309277.6454   23309274.366
        39.0004         36.7004
  -1265949.40046   -973979.20145  24284510.6934   24284515.4274   24284510.129
        37.1004         35.2004
 -17653065.15947 -13740780.42947  21364707.3814   21364710.9764   21364706.643
        46.0004         43.2004
 -11800881.60547  -9171992.38847  21128725.6714   21128729.3184   21128725.121
        46.2004         43.5004
 -15930558.85747 -12391416.76747  20346328.5604   20346332.5864   20346328.846
        47.4004         44.9004
  -7571792.81147  -5882969.04546  22530301.2424   22530305.3604   22530300.947
        42.5004         40.0004
 16  2 13  0 17 30.0000000  0  8G05G21G02G07G29G13G20G15
 -14072578.29847 -10942146.63947  21147862.5194   21147866.2794   21147862.106
        47.0004         44.4004
  -3934556.39446  -3054758.35646  23620932.5174   23620935.5194   23620932.570
        39.6004         37.3004
  -1828571.99146  -1400445.75746  23327546.6124   23327550.1984   23327547.378
        38.9004         36.7004
  -1253720.49046   -964450.27945  24286837.5604   24286841.2524   24286835.983
        37.1004         35.2004
 -17598674.00447 -13698397.74747  21375057.0534   21375061.2834   21375056.840
        46.0004         43.2004
 -11852085.05947  -9211891.19547  21118982.0304   21118985.6684   21118981.815
        46.2004         43.5004
 -15968756.23947 -12421180.97547  20339060.2034   20339063.8544   20339060.842
        47.4004         44.9004
  -7674259.81447  -5962813.47846  22510802.2924   22510807.0214   22510802.206
        42.7004         40.2004
 16  2 13  0 18  0.0000000  0  8G05G21G02G07G29G13G20G15
 -14011114.72447 -10894252.98547  21159559.1134   21159562.6524   21159558.779
        47.0004         44.4004
  -4017881.74546  -3119687.21546  23605076.1384   23605078.3724   23605076.041
        39.7004         37.4004
  -1732338.82046  -1325458.98946  23345859.8414   23345862.3224   23345859.636
        38.9004         36.6004
  -1240934.68746   -954487.36545  24289269.8164   24289273.3844   24289270.052
        37.0004         35.3004
 -17543741.85447 -13655593.50947  21385510.5864   21385514.6064   21385510.105
        45.8004         43.2004
 -11902725.07047  -9251350.96247  21109345.6184   21109348.9964   21109345.019
        46.2004         43.5004
 -16006546.60547 -12450628.03047  20331868.9904   20331872.8384   20331869.232
        47.4004         44.9004
  -7776424.09247  -6042422.03246  22491360.8114   22491365.7084   22491360.931
        42.7004         40.0004
 16  2 13  0 18 30.0000000  0  8G05G21G02G07G29G13G20G15
 -13949335.51547 -10846113.38647  21171315.3894   21171318.9394   21171314.987
        47.2004         44.5004
  -4101077.85846  -3184515.36046  23589243.5424   23589247.1444   23589244.721
        39.7004         37.4004
  -1635895.55846  -1250308.52046  23364211.4694   23364215.9574   23364212.103
        38.7004         36.4004
  -1227592.52246   -944090.92745  24291811.4704   24291814.3804   24291809.645
        37.3004         35.3004
 -17488271.05947 -13612369.55547  21396066.2434   21396070.1254   21396065.761
        45.8004         43.2004
 -11952800.33647  -9290370.65947  21099816.0504   21099820.4464   21099816.315
        46.2004         43.7004
 -16043929.47147 -12479757.55847  20324755.4234   20324759.0864   20324755.963
        47.5004         45.1004
  -7878283.32347  -6121792.88046  22471978.2534   22471982.6124   22471977.401
        42.7004         40.2004
 16  2 13  0 19  0.0000000  0  8G05G21G02G07G29G13G20G15
 -13887242.34947 -10797729.13447  21183131.2394   21183134.5054   21183131.090
        47.2004         44.5004
  -4184142.54946  -3249241.11246  23573437.2574   23573440.9544   23573437.909
        39.9004         37.6004
  -1539243.40746  -1174995.30645  23382603.1774   23382607.4604   23382605.014
        38.2004         35.9004
  -1213693.68946   -933260.73145  24294454.4824   24294458.3754   24294453.681
        37.0004         35.0004
 -17432263.00647 -13568726.95247  21406724.1684   21406727.9744   21406723.694
        45.8004         43.2004
 -12002309.18247  -9328948.99947  21090395.1244   21090399.5174   21090395.205
        46.3004         43.7004
 -16080903.86547 -12508568.77947  20317718.9374   20317723.2764   20317719.343
        47.5004         45.1004
  -7979834.61447  -6200923.77946  22452653.7294   22452657.9134   22452652.539
        42.9004         40.2004
 16  2 13  0 19 30.0000000  0  8G05G21G02G07G29G13G20G15
 -13824836.43947 -10749101.18447  21195006.5164   21195010.2744   21195006.207
        47.2004         44.5004
  -4267074.13846  -3313863.14646  23557656.3244   23557659.5634   23557656.480
        40.1004         37.6004
  -1442384.04346  -1099520.61045  23401034.3694   23401040.4104   23401034.721
        37.8004         35.5004
  -1199239.23746   -921997.63345  24297205.1904   24297209.5494   24297204.083
        37.1004         35.2004
 -17375720.03347 -13524667.53647  21417484.1454   21417488.0994   21417483.737
        45.8004         43.2004
 -12051249.93947  -9367084.66847  21081082.3484   21081085.6624   21081082.052
        46.3004         43.7004
 -16117469.74347 -12537061.69347  20310760.8514   20310764.9764   20310761.244
        47.5004         44.9004
  -8081075.91347  -6279813.10946  22433388.1764   22433392.3464   22433388.007
        43.0004         40.4004
 16  2 13  0 20  0.0000000  0  8G05G21G02G07G29G13G20G15
 -13762119.14747 -10700230.60647  21206941.6104   21206944.9584   21206941.124
        47.0004         44.5004
  -4349871.73346  -3378380.77346  23541900.4014   23541903.9304   23541901.111
        40.1004         37.9004
  -1345318.32046  -1023885.10645  23419506.7344   23419511.0154   23419507.829
        37.6004         35.5004
  -1184229.02746   -910301.43145  24300062.0474   24300065.4144   24300062.351
        36.8004         34.6004
 -17318643.89947 -13480192.65647  21428345.1904   21428349.7814   21428345.568
        46.0004         43.3004
 -12099621.23147  -9404776.59747  21071877.1574   21071881.1924   21071876.884
        46.3004         43.7004
 -16153626.70447 -12565235.96147  20303880.3994   20303884.3804   20303880.794
        47.5004         45.1004
  -8182004.90847  -6358459.10246  22414182.3364   22414186.5954   22414181.590
        43.2004         40.7004
 16  2 13  0 20 30.0000000  0  8G05G21G02G07G29G13G20G15
 -13699091.89647 -10651118.50247  21218934.9414   21218938.5344   21218934.786
        47.0004         44.4004
  -4432533.37446  -3442792.46446  23526170.5464   23526173.8164   23526170.880
        40.3004         37.8004
  -1248047.70246   -948089.96945  23438017.2224   23438020.9604   23438018.793
        37.6004         35.5004
  -1168663.54546   -898172.52445  24303023.0424   24303027.3994   24303022.702
        36.4004         34.6004
 -17261036.74547 -13435303.99847  21439306.9864   21439311.3144   21439307.149
        45.8004         43.2004
 -12147421.36847  -9442023.46947  21062781.4244   21062784.8154   21062781.277
        46.3004         43.7004
 -16189373.77047 -12593090.83647  20297078.2884   20297082.1034   20297078.702
        47.5004         45.1004
  -8282618.83247  -6436859.57346  22395035.6224   22395040.0294   22395035.116
        43.2004         40.7004
 16  2 13  0 21  0.0000000  0  8G05G21G02G07G29G13G20G15
 -13635756.35547 -10601766.17047  21230987.2334   21230991.3384   21230986.796
        47.0004         44.2004
  -4515057.79846  -3507097.22446  23510466.7214   23510469.4804   23510467.007
        40.3004         37.8004
  -1150573.87746   -872136.47445  23456566.5924   23456569.5364   23456567.688
        37.8004         35.9004
  -1152542.85546   -885611.03645  24306092.7994   24306095.7524   24306090.922
        36.3004         34.5004
 -17202900.17047 -13390002.81647  21450370.3524   21450374.5924   21450370.148
        45.8004         43.0004
 -12194649.30547  -9478824.47047  21053794.1924   21053797.9704   21053793.742
        46.3004         43.9004
 -16224710.75247 -12620626.15047  20290353.7484   20290357.9574   20290354.252
        47.5004         45.1004
  -8382915.47847  -6515012.81646  22375949.5674   22375954.7124   22375949.457
        43.2004         40.6004
 16  2 13  0 21 30.0000000  0  8G05G21G02G07G29G13G20G15
 -13572113.80247 -10552174.60847  21243098.1024   21243102.0634   21243097.820
        47.0004         44.4004
  -4597443.72446  -3571294.05346  23494789.1904   23494792.4464   23494789.758
        40.1004         37.8004
  -1052898.02146   -796025.55646  23475152.7074   23475156.0634   23475152.629
        38.2004         36.0004
  -1135867.76646   -872617.56045  24309263.7844   24309267.8424   24309264.218
        36.4004         34.6004
 -17144236.57947 -13344290.95847  21461533.8534   21461538.3184   21461533.656
        45.6004         43.0004
 -12241303.58947  -9515178.47247  21044916.1464   21044920.2004   21044916.076
        46.5004         43.9004
 -16259637.14547 -12647841.53347  20283707.4474   20283711.5324   20283707.853
        47.5004         45.1004
  -8482892.74347  -6592917.19746  22356924.6404   22356929.4244   22356923.845
        43.2004         40.7004
 16  2 13  0 22  0.0000000  0  8G05G21G02G07G29G13G20G15
 -13508165.57447 -10502344.85447  21255267.4024   21255270.9074   21255266.771
        47.0004         44.2004
  -4679689.07446  -3635381.35446  23479138.6624   23479142.0094   23479138.590
        40.1004         37.8004
   -955021.48546   -719758.25746  23493778.7124   23493783.0134   23493779.540
        38.3004         36.4004
  -1118638.24246   -859192.01645  24312542.9744   24312546.5244   24312542.119
        36.1004         34.5004
 -17085047.63647 -13298169.74947  21472797.1374   21472801.5894   21472797.289
        45.6004         43.0004
 -12287382.55947  -9551084.17347  21036147.7704   21036151.5754   21036147.557
        46.5004         43.9004
 -16294152.34047 -12674736.50247  20277139.1814   20277143.4674   20277139.447
        47.5004         44.9004
  -8582547.82347  -6670570.51746  22337960.8294   22337965.5774   22337960.509
        43.4004         40.7004
 16  2 13  0 22 30.0000000  0  8G05G21G02G07G29G13G20G15
 -13443913.29447 -10452278.18047  21267494.5714   21267497.5974   21267494.121
        46.9004         44.2004
  -4761792.55046  -3699358.12246  23463514.3694   23463517.5214   23463514.744
        40.3004         37.9004
   -856945.44846   -643335.50146  23512441.4594   23512446.1604   23512441.951
        38.7004         36.6004
  -1100854.99946   -845335.01245  24315927.9424   24315932.0384   24315927.052
        36.3004         34.6004
 -17025335.22247 -13251640.63547  21484160.1574   21484164.2264   21484159.617
        45.6004         42.8004
 -12332885.22047  -9586540.80347  21027488.8154   21027492.6994   21027488.839
        46.5004         43.9004
 -16328256.18747 -12701310.94447  20270649.5064   20270653.6164   20270650.043
        47.5004         45.1004
  -8681878.44047  -6747971.01546  22319058.8314   22319063.8994   22319058.529
        43.4004         40.9004
 16  2 13  0 23  0.0000000  0  8G05G21G02G07G29G13G20G15
 -13379357.92447 -10401975.32647  21279778.8384   21279782.0394   21279778.350
        46.9004         44.2004
  -4843752.83546  -3763223.29946  23447918.4624   23447921.5604   23447918.562
        40.4004         37.9004
   -758671.39146   -566758.45946  23531143.1624   23531146.8264   23531143.955
        38.7004         36.4004
  -1082518.35846   -831046.79145  24319417.4394   24319422.0594   24319414.701
        36.1004         34.3004
 -16965101.93347 -13204705.64247  21495622.2464   21495626.3614   21495621.971
        45.6004         43.0004
 -12377809.71947  -9621546.91447  21018940.3234   21018944.0874   21018939.879
        46.5004         43.9004
 -16361947.82447 -12727564.18247  20264238.6374   20264242.5244   20264239.199
        47.5004         44.9004
  -8780882.03347  -6825116.69246  22300219.2614   22300223.8334   22300218.834
        43.4004         40.9004
 16  2 13  0 23 30.0000000  0  8G05G21G02G07G29G13G20G15
 -13314501.21547 -10351437.66547  21292120.3624   21292124.1054   21292120.044
        46.9004         44.2004
  -4925568.43146  -3826975.73146  23432348.7804   23432352.0354   23432349.511
        40.4004         37.9004
   -660200.77346   -490028.23645  23549880.4884   23549885.3994   23549881.084
        38.2004         35.9004
  -1063629.12146   -816327.98145  24323009.7974   24323017.1264   24323010.060
        36.3004         34.5004
 -16904349.58547 -13157366.18647  21507183.5304   21507186.9614   21507183.131
        45.6004         42.8004
 -12422155.21447  -9656101.85147  21010501.7264   21010505.2234   21010501.504
        46.5004         43.9004
 -16395227.13647 -12753496.11947  20257905.3094   20257909.4464   20257905.905
        47.5004         45.1004
  -8879556.35247  -6902005.77746  22281442.2014   22281446.5114   22281442.387
        43.4004         40.7004
 16  2 13  0 24  0.0000000  0  8G05G21G02G07G29G13G20G15
 -13249344.76847 -10300666.44847  21304519.2674   21304523.0284   21304518.588
        46.9004         44.2004
  -5007237.53046  -3890614.00646  23416808.5964   23416811.0924   23416808.416
        40.4004         37.9004
   -561534.74546   -413145.78445  23568657.0774   23568659.9334   23568657.174
        37.6004         35.3004
  -1044187.43346   -801178.63145  24326712.9814   24326713.5594   24326712.157
        36.3004         34.3004
 -16843080.37647 -13109623.98947  21518842.0744   21518846.2574   21518841.917
        45.5004         42.6004
 -12465920.19347  -9690204.44647  21002173.2084   21002176.7514   21002172.824
        46.5004         43.7004
 -16428093.66947 -12779106.41247  20251651.0954   20251655.0234   20251651.518
        47.5004         44.9004
  -8977898.95047  -6978636.38046  22262728.1624   22262732.1024   22262727.947
        43.6004         40.9004
 16  2 13  0 24 30.0000000  0  8G05G21G02G07G29G13G20G15
 -13183889.82047 -10249662.62547  21316974.7164   21316979.0524   21316973.754
        46.9004         44.4004
  -5088758.80446  -3954137.09446  23401294.7494   23401298.3344   23401295.002
        40.3004         37.9004
   -462674.94346   -336112.33945  23587468.0254   23587472.8744   23587470.404
        37.3004         35.2004
  -1024193.78645   -785599.19245  24330512.8494   24330521.7484   24330514.056
        35.7004         33.8004
 -16781296.10447 -13061480.44347  21530599.3344   21530603.7064   21530599.023
        45.5004         42.8004
 -12509103.43347  -9723853.72947  20993955.6864   20993959.5194   20993955.421
        46.5004         44.0004
 -16460546.63047 -12804394.44747  20245475.6674   20245479.7194   20245476.205
        47.5004         45.2004
  -9075907.67747  -7055006.83046  22244078.0414   22244081.6404   22244076.584
        43.6004         41.1004
 16  2 13  0 25  0.0000000  0  8G05G21G02G07G29G13G20G15
 -13118137.67347 -10198427.22747  21329487.4564   21329491.3104   21329486.946
        46.9004         44.2004
  -5170130.36346  -4017543.52446  23385810.4264   23385813.7264   23385811.067
        40.3004         37.8004
   -363622.48746   -258928.76445  23606319.1694   23606321.9924   23606319.020
        37.1004         35.0004
  -1003648.67345   -769590.10745  24334426.4244   24334430.0994   24334424.657
        35.6004         34.1004
 -16718999.04347 -13012937.32447  21542453.7404   21542458.1594   21542453.348
        45.3004         42.5004
 -12551703.67147  -9757048.72347  20985849.3904   20985853.0194   20985849.164
        46.7004         44.0004
 -16492585.92847 -12829360.16447  20239379.0174   20239382.9054   20239379.630
        47.7004         45.1004
  -9173579.96747  -7131115.11246  22225491.7624   22225495.8734   22225491.737
        43.7004         41.1004
 16  2 13  0 25 30.0000000  0  8G05G21G02G07G29G13G20G15
 -13052089.67847 -10146961.29847  21342056.2064   21342059.8374   21342055.988
        47.0004         44.4004
  -5251350.78946  -4080832.17946  23370354.4354   23370358.3444   23370354.989
        40.3004         37.9004
   -264378.90646   -181596.27145  23625204.3074   23625207.5944   23625206.425
        37.1004         35.2004
   -982552.65046   -753151.65345  24338441.5904   24338443.6634   24338440.734
        36.1004         34.5004
 -16656191.20647 -12963996.20547  21554406.0964   21554410.4784   21554405.516
        45.3004         42.6004
 -12593719.58147  -9789788.40447  20977853.6804   20977857.8654   20977853.341
        46.7004         44.0004
 -16524210.96247 -12854003.06447  20233360.6704   20233364.8334   20233361.120
        47.7004         45.2004
  -9270913.35047  -7206959.30946  22206969.3994   22206973.9294   22206969.045
        43.7004         41.1004
 16  2 13  0 26  0.0000000  0  8G05G21G02G07G29G13G20G15
 -12985747.38047 -10095266.04147  21354680.3544   21354684.0814   21354679.913
        46.9004         44.0004
  -5332419.08946  -4144002.30346  23354927.8934   23354931.5284   23354928.222
        40.4004         37.9004
   -164945.87846   -104116.13445  23644127.0074   23644128.4194   23644127.362
        37.0004         35.2004
   -960906.64046   -736284.62445  24342558.1584   24342561.9164   24342556.964
        36.1004         34.1004
 -16592874.74147 -12914658.74147  21566455.0914   21566459.1044   21566454.648
        45.3004         42.5004
 -12635149.93447  -9822071.80047  20969969.5414   20969973.7254   20969969.624
        46.7004         43.9004
 -16555421.54047 -12878323.01147  20227421.8214   20227425.8114   20227422.210
        47.7004         45.1004
  -9367906.17947  -7282538.14746  22188512.2924   22188516.7584   22188511.884
        43.7004         40.9004
 16  2 13  0 26 30.0000000  0  8G05G21G02G07G29G13G20G15
 -12919112.25447 -10043342.60547  21367361.0464   21367364.6254   21367360.283
        46.9004         44.2004
  -5413333.10346  -4207052.20546  23339530.9484   23339533.7694   23339531.062
        40.4004         38.1004
    -65324.70846    -26489.38245  23663083.8974   23663086.6084   23663083.290
        37.3004         35.3004
   -938711.12746   -718989.44245  24346783.5334   24346787.0504   24346783.163
        36.4004         34.5004
 -16529051.90947 -12864926.70747  21578599.9614   21578604.2254   21578599.851
        45.3004         42.6004
 -12675993.61347  -9853898.04247  20962197.9824   20962201.6604   20962197.359
        46.7004         44.0004
 -16586217.06447 -12902319.54247  20221561.8154   20221565.6714   20221562.027
        47.7004         45.2004
  -9464555.42847  -7357849.25146  22170120.4614   22170124.7794   22170119.940
        43.7004         41.1004
 16  2 13  0 27  0.0000000  0  8G05G21G02G07G29G13G20G15
 -12852185.52647  -9991191.94647  21380096.3394   21380100.2914   21380096.265
        46.7004         44.0004
  -5494091.35246  -4269980.73346  23324162.9534   23324165.7354   23324163.509
        40.6004         38.1004
     34483.58646     51283.17245  23682076.7084   23682080.0874   23682077.560
        37.5004         35.5004
   -915966.50846   -701266.36145  24351111.2634   24351114.9114   24351111.422
        36.4004         34.6004
 -16464724.72047 -12814801.67547  21590841.4274   21590845.4204   21590840.926
        45.3004         42.6004
 -12716249.47647  -9885266.25147  20954537.0534   20954541.1734   20954536.521
        46.7004         44.0004
 -16616596.81747 -12925992.08847  20215780.4944   20215784.5824   20215780.906
        47.7004         45.2004
  -9560858.66547  -7432890.73646  22151794.5254   22151798.8964   22151794.257
        43.7004         41.2004
 16  2 13  0 27 30.0000000  0  8G05G21G02G07G29G13G20G15
 -12784968.65047  -9938815.19847  21392887.5254   21392891.0314   21392887.164
        46.7004         43.9004
  -5574692.12146  -4332786.55946  23308825.1404   23308828.0674   23308825.832
        40.6004         38.3004
    134477.57546    129200.40545  23701105.6654   23701108.1524   23701106.169
        37.6004         35.7004
   -892673.55246   -683116.00445  24355542.1994   24355546.1034   24355541.750
        36.3004         34.3004
 -16399895.71447 -12764285.61447  21603177.5834   21603181.8474   21603176.967
        45.3004         42.5004
 -12755916.31747  -9916175.48447  20946988.7154   20946992.8074   20946988.965
        46.7004         44.0004
 -16646561.49047 -12949341.20847  20210078.3544   20210082.4284   20210078.747
        47.7004         45.2004
  -9656813.93747  -7507661.07546  22133535.2464   22133540.0924   22133534.812
        43.9004         41.2004
 16  2 13  0 28  0.0000000  0  8G05G21G02G07G29G13G20G15
 -12717462.92447  -9886213.37947  21405733.4204   21405736.8874   21405732.950
        46.7004         44.0004
  -5655134.77446  -4395469.16646  23293516.7254   23293520.1274   23293517.800
        40.6004         38.1004
    234655.45346    207260.91545  23720168.4954   23720173.1984   23720168.643
        37.8004         35.9004
   -868832.99546   -664538.91845  24360081.6404   24360085.4784   24360082.187
        36.4004         34.6004
 -16334566.76747 -12713379.98947  21615609.2724   21615613.3664   21615608.711
        45.1004         42.5004
 -12794992.80447  -9946624.70547  20939552.9894   20939556.5594   20939552.680
        46.7004         44.0004
 -16676109.58647 -12972365.70547  20204455.4364   20204459.5104   20204456.202
        47.7004         45.2004
  -9752418.66347  -7582158.25546  22115341.8714   22115346.4364   22115341.571
        43.9004         41.4004
 16  2 13  0 28 30.0000000  0  8G05G21G02G07G29G13G20G15
 -12649669.98747  -9833387.75147  21418634.0364   21418637.6374   21418633.139
        46.5004         43.9004
  -5735416.14346  -4458026.09246  23278240.2574   23278243.0824   23278240.844
        40.4004         37.9004
    335015.41646    285463.31145  23739264.5404   23739270.7844   23739264.680
        37.5004         35.2004
   -844445.52446   -645535.70345  24364717.9784   24364725.7424   24364719.407
        36.3004         34.5004
 -16268740.27147 -12662086.65447  21628135.9444   21628140.0854   21628136.067
        45.1004         42.5004
 -12833477.89647  -9976613.09847  20932229.3804   20932233.0174   20932229.054
        46.7004         44.0004
 -16705240.96947 -12995065.49747  20198911.9464   20198915.8844   20198912.395
        47.7004         45.2004
  -9847670.78247  -7656380.68446  22097216.5294   22097220.9734   22097215.566
        43.9004         41.2004
 16  2 13  0 29  0.0000000  0  8G05G21G02G07G29G13G20G15
 -12581591.45747  -9780339.58947  21431588.9204   21431592.6134   21431588.249
        46.5004         44.0004
  -5815535.40646  -4520456.70746  23262993.7924   23262997.5174   23262994.213
        40.6004         38.3004
    435556.94146    363807.16945  23758397.7644   23758403.1404   23758396.716
        37.1004         35.0004
   -819511.78645   -626106.83145  24369464.7264   24369469.2704   24369465.906
        35.9004         34.1004
 -16202418.60647 -12610407.48747  21640756.2874   21640760.6424   21640756.034
        45.1004         42.3004
 -12871371.07447 -10006140.25847  20925018.2614   20925022.0264   20925018.610
        46.7004         44.0004
 -16733955.47047 -13017440.45047  20193447.8984   20193451.7884   20193448.177
        47.7004         45.2004
  -9942567.78947  -7730326.39846  22079157.3614   22079162.5524   22079157.372
        44.1004         41.4004
 16  2 13  0 29 30.0000000  0  8G05G21G02G07G29G13G20G15
 -12513228.28147  -9727069.61747  21444598.6084   21444601.7324   21444597.924
        46.7004         44.0004
  -5895491.54346  -4582760.22546  23247779.0684   23247782.1774   23247779.784
        40.8004         38.5004
    536278.41246    442291.22845  23777565.2784   23777568.7674   23777564.078
        37.0004         35.0004
   -794032.48745   -606252.79845  24374316.9124   24374316.9274   24374315.952
        35.9004         34.1004
 -16135603.93447 -12558344.15747  21653471.2234   21653475.0664   21653470.179
        45.1004         42.5004
 -12908670.60247 -10035204.83447  20917920.6384   20917924.1524   20917920.323
        46.7004         44.2004
 -16762252.52647 -13039490.11747  20188062.9814   20188067.3334   20188063.795
        47.7004         45.2004
 -10037107.35947  -7803993.59146  22061167.3334   22061172.1344   22061166.922
        44.1004         41.2004
 16  2 13  0 30  0.0000000  0  8G05G21G02G07G29G13G20G15
 -12444582.02947  -9673579.07447  21457661.3824   21457664.7004   21457660.829
        46.7004         44.0004
  -5975282.52946  -4644935.04446  23232595.1104   23232598.2524   23232595.392
        40.9004         38.5004
    637178.41346    520914.38545  23796766.1334   23796770.8224   23796767.320
        36.8004         35.2004
   -768008.08545   -585974.00645  24379261.3854   24379268.9614   24379263.847
        35.7004         33.8004
 -16068298.26447 -12505898.22047  21666278.5334   21666283.0034   21666278.767
        45.1004         42.5004
 -12945375.60747 -10063806.14447  20910935.6104   20910940.0254   20910935.560
        46.7004         44.2004
 -16790131.88747 -13061214.31247  20182757.8034   20182761.9694   20182758.270
        47.7004         45.2004
 -10131287.26247  -7877380.52646  22043245.5754   22043249.9594   22043245.045
        44.1004         41.4004
 16  2 13  0 30 30.0000000  0  8G05G21G02G07G29G13G20G15
 -12375653.71047  -9619868.74547  21470777.6304   21470781.5324   21470777.368
        46.5004         43.9004
  -6054906.43746  -4706979.67346  23217442.9534   23217447.0584   23217443.027
        40.8004         38.3004
    738255.46446    599675.51245  23816001.8954   23816005.8044   23816001.640
        37.3004         35.7004
   -741439.93645   -565271.57745  24384320.2024   24384327.4914   24384323.205
        35.7004         34.1004
 -16000504.19147 -12453071.72347  21679179.5684   21679184.2204   21679179.488
        45.1004         42.5004
 -12981484.99147 -10091943.35347  20904064.6894   20904068.6424   20904064.000
        46.7004         44.2004
 -16817592.88747 -13082612.50947  20177532.3204   20177536.1574   20177532.676
        47.7004         45.2004
 -10225105.46147  -7950485.60446  22025392.6254   22025397.2754   22025391.986
        44.1004         41.6004
 16  2 13  0 31  0.0000000  0  8G05G21G02G07G29G13G20G15
 -12306445.37047  -9565940.21447  21483947.5704   21483951.4394   21483946.823
        46.3004         43.7004
  -6134361.88746  -4768893.04046  23202323.2934   23202326.9754   23202323.996
        40.9004         38.5004
    839507.68646    678573.18045  23835268.7944   23835274.4794   23835270.080
        37.5004         35.7004
   -714328.79945   -544146.00645  24389481.4734   24389484.7574   24389480.213
        35.7004         34.0004
 -15932223.76147 -12399866.23947  21692172.8104   21692177.2854   21692172.760
        45.1004         42.5004
 -13016998.05447 -10119615.87147  20897306.5864   20897310.3484   20897306.436
        46.9004         44.2004
 -16844635.52347 -13103684.70547  20172386.0284   20172390.2584   20172386.655
        47.7004         45.2004
 -10318559.30947  -8023306.77946  22007608.5874   22007613.9284   22007608.637
        44.2004         41.8004
 16  2 13  0 31 30.0000000  0  8G05G21G02G07G29G13G20G15
 -12236957.66147  -9511793.98847  21497170.1754   21497174.6374   21497169.920
        46.3004         43.7004
  -6213647.23146  -4830673.84946  23187236.1134   23187239.0354   23187236.006
        40.9004         38.5004
    940933.80646    757606.34245  23854568.8594   23854573.6814   23854568.264
        37.5004         35.5004
   -686675.12345   -522597.71345  24394743.0654   24394747.1064   24394741.836
        35.9004         34.3004
 -15863459.35047 -12346283.62747  21705258.4864   21705262.9114   21705257.862
        45.1004         42.5004
 -13051913.62947 -10146822.82647  20890662.7294   20890666.0044   20890662.441
        46.9004         44.2004
 -16871259.41647 -13124430.60947  20167319.8854   20167324.0124   20167320.503
        47.7004         45.4004
 -10411646.67447  -8095842.38946  21989895.0024   21989899.5954   21989894.265
        44.4004         41.8004
 16  2 13  0 32  0.0000000  0  8G05G21G02G07G29G13G20G15
 -12167192.48547  -9457431.56747  21510446.3534   21510450.3564   21510446.252
        46.2004         43.5004
  -6292760.81446  -4892320.81646  23172181.2034   23172184.1864   23172181.491
        41.1004         38.6004
   1042532.73746    836774.17745  23873901.5024   23873904.4774   23873902.531
        37.1004         35.0004
   -658480.05346   -500627.53745  24400110.7724   24400113.0104   24400110.789
        36.3004         34.8004
 -15794213.49347 -12292325.87047  21718435.7224   21718439.7084   21718435.269
        44.9004         42.3004
 -13086230.86547 -10173563.55147  20884132.1414   20884135.6294   20884131.552
        46.9004         44.0004
 -16897464.35547 -13144850.05747  20162333.1684   20162337.2454   20162333.774
        47.7004         45.2004
 -10504365.42947  -8168090.76846  21972251.0794   21972255.7744   21972250.825
        44.4004         41.8004
 16  2 13  0 32 30.0000000  0  8G05G21G02G07G29G13G20G15
 -12097151.42247  -9402854.16347  21523775.5194   21523778.9484   21523774.876
        46.3004         43.7004
  -6371701.07046  -4953832.73746  23157159.8294   23157162.8384   23157160.097
        41.3004         38.8004
   1144302.93146    916075.45745  23893269.8584   23893273.6114   23893269.102
        37.0004         34.8004
   -629744.00946   -478235.81645  24405575.8144   24405581.8054   24405573.690
        36.6004         34.8004
 -15724488.22447 -12237994.53947  21731703.1024   21731708.1014   21731703.218
        44.9004         42.3004
 -13119948.69247 -10199837.18647  20877715.6944   20877719.9194   20877715.658
        46.9004         44.2004
 -16923249.67147 -13164942.52747  20157426.5184   20157430.5404   20157426.917
        47.7004         45.2004
 -10596712.88447  -8240049.82046  21954677.8164   21954682.2194   21954677.352
        44.4004         41.8004
 16  2 13  0 33  0.0000000  0 10G30G05G21G02G07G18G29G13G20G15
    -84986.11446    -61206.89646  23793694.1284   23793701.4964   23793693.076
        38.3004         36.6004
 -12026835.83147  -9348062.83847  21537156.0114   21537159.6124   21537155.278
        46.3004         43.9004
  -6450466.32346  -5015208.28246  23142170.5524   23142174.3974   23142171.296
        41.3004         38.8004
   1246242.67446    995508.85545  23912669.0934   23912673.2084   23912668.540
        36.8004         35.0004
   -600468.22046   -455423.56345  24411148.1724   24411153.3704   24411148.501
        36.8004         35.0004
   5743939.62044
        29.5004
 -15654286.32247 -12183291.81247  21745062.4734   21745066.9384   21745062.250
        44.9004         42.1004
 -13153066.25947 -10225643.10147  20871413.8034   20871417.8254   20871413.505
        46.9004         44.2004
 -16948615.30947 -13184707.97347  20152599.6324   20152603.6914   20152599.936
        47.7004         45.2004
 -10688687.36247  -8311718.25546  21937175.5184   21937180.1614   21937175.667
        44.4004         41.8004
 16  2 13  0 33 30.0000000  0  9G30G05G21G02G07G29G13G20G15
   -105062.25346    -76850.69646  23789873.8254   23789881.3424   23789873.202
        38.7004         36.6004
 -11956246.62047  -9293058.29747  21550588.7504   21550592.2434   21550588.244
        46.5004         43.9004
  -6529055.16546  -5076446.36546  23127216.2304   23127218.7934   23127216.054
        41.1004         38.6004
   1348350.75046   1075073.39845  23932098.2004   23932102.8044   23932099.203
        36.4004         34.6004
   -570653.73846   -432191.52545  24416823.0654   24416825.8394   24416823.265
        36.8004         34.8004
 -15583609.87247 -12128219.30747  21758512.4384   21758516.8384   21758512.280
        44.8004         42.3004
 -13185582.78247 -10250980.65947  20865225.9314   20865229.5964   20865225.622
        46.9004         44.2004
 -16973560.91247 -13204146.12047  20147852.7084   20147856.9434   20147853.060
        47.7004         45.2004
 -10780286.27447  -8383094.02646  21919745.0094   21919749.5134   21919744.402
        44.4004         41.8004
 16  2 13  0 34  0.0000000  0  9G30G05G21G02G07G29G13G20G15
   -124581.08746    -92060.22046  23786159.7824   23786167.6924   23786160.539
        38.9004         36.6004
 -11885385.31447  -9237841.73847  21564073.1714   21564076.3494   21564072.706
        46.5004         43.9004
  -6607466.04246  -5137545.78246  23112295.0414   23112298.3174   23112295.415
        41.1004         38.6004
   1450625.65846   1154767.92245  23951558.9874   23951564.9944   23951562.003
        36.1004         34.3004
   -540301.05846   -408540.16445  24422595.0474   24422604.4104   24422594.966
        36.6004         34.6004
 -15512461.23147 -12072778.85347  21772050.9374   21772055.7844   21772051.142
        44.8004         42.3004
 -13217497.09847 -10275848.97147  20859153.0204   20859157.0794   20859153.024
        46.9004         44.4004
 -16998085.89347 -13223256.50147  20143185.5664   20143189.5134   20143185.930
        47.7004         45.2004
 -10871507.33347  -8454175.37846  21902386.2654   21902390.7954   21902386.047
        44.4004         41.8004
 16  2 13  0 34 30.0000000  0  9G30G05G21G02G07G29G13G20G15
   -143541.67946   -106834.73546  23782550.7344   23782558.9054   23782550.123
        38.7004         36.6004
 -11814253.32847  -9182414.26047  21577608.8534   21577612.8754   21577608.483
        46.3004         43.9004
  -6685696.85746  -5198504.89446  23097408.2564   23097411.0694   23097408.497
        41.1004         38.8004
   1553065.80945   1234591.18645  23971054.0474   23971058.1424   23971054.147
        35.9004         34.1004
   -509411.59846   -384470.50045  24428477.1574   24428478.3914   24428477.550
        36.6004         35.0004
 -15440843.24747 -12016972.69047  21785680.0224   21785684.5104   21785679.112
        44.8004         42.1004
 -13248808.81247 -10300247.71647  20853194.6814   20853198.3104   20853194.353
        46.9004         44.2004
 -17022190.15947 -13242039.05947  20138598.6164   20138602.6044   20138598.943
        47.7004         45.2004
 -10962348.76547  -8524960.91346  21885099.7224   21885104.5114   21885099.031
        44.4004         41.9004
 16  2 13  0 35  0.0000000  0  9G30G05G21G02G07G29G13G20G15
   -161942.84246   -121173.34046  23779049.6684   23779057.7594   23779050.115
        38.7004         36.6004
 -11742851.66147  -9126776.64347  21591195.9854   21591200.0914   21591195.958
        46.3004         43.5004
  -6763746.31646  -5259322.68946  23082555.6044   23082559.1054   23082556.403
        41.5004         39.2004
   1655669.84846   1314542.17545  23990579.5694   23990583.9254   23990580.050
        36.1004         34.6004
   -477985.94146   -359982.98645  24434455.0534   24434460.5434   24434455.268
        36.6004         34.6004
 -15368757.52147 -11960802.04547  21799397.2314   21799401.9574   21799396.906
        44.8004         42.1004
 -13279516.76047 -10324175.99547  20847350.8434   20847355.1584   20847350.784
        46.9004         44.2004
 -17045873.45847 -13260493.59947  20134091.7244   20134096.0204   20134092.306
        47.7004         45.2004
 -11052807.73847  -8595448.43246  21867886.0604   21867890.4884   21867885.766
        44.6004         41.9004
 16  2 13  0 35 30.0000000  0  9G30G05G21G02G07G29G13G20G15
   -179783.55746   -135075.20346  23775655.3904   23775661.7594   23775655.375
        38.7004         36.6004
 -11671182.51547  -9070930.60247  21604834.3184   21604838.6024   21604833.944
        46.2004         43.5004
  -6841612.84546  -5319997.93046  23067738.2994   23067742.2024   23067738.615
        41.6004         39.0004
   1758436.17646   1394619.61645  24010135.4184   24010141.7474   24010135.768
        36.6004         35.0004
   -446025.16846   -335078.56645  24440537.8584   24440543.4344   24440537.300
        36.6004         34.8004
 -15296207.04347 -11904269.25846  21813203.2134   21813207.6754   21813202.948
        44.8004         41.9004
 -13309620.30447 -10347633.31647  20841622.3104   20841626.1544   20841622.541
        46.9004         44.2004
 -17069135.73547 -13278620.06847  20129664.9594   20129669.2194   20129665.738
        47.7004         45.2004
 -11142882.47847  -8665636.55146  21850745.7314   21850749.9504   21850745.188
        44.6004         41.9004
 16  2 13  0 36  0.0000000  0  9G30G05G21G02G07G29G13G20G15
   -197062.84446   -148539.58546  23772367.1744   23772373.9874   23772366.762
        38.5004         36.4004
 -11599246.85847  -9014876.88747  21618522.9224   21618527.1584   21618522.801
        46.2004         43.3004
  -6919294.39346  -5380529.01946  23052956.0124   23052959.2894   23052956.220
        41.5004         39.0004
   1861363.28346   1474822.35045  24029722.7384   24029727.7994   24029723.501
        37.3004         35.5004
   -413530.46246   -309758.08145  24446722.7614   24446728.8984   24446722.717
        37.0004         35.2004
 -15223194.42647 -11847376.35946  21827097.1844   21827101.6154   21827097.039
        44.6004         41.9004
 -13339118.62447 -10370619.02047  20836009.3804   20836013.3564   20836008.854
        46.9004         44.2004
 -17091976.36747 -13296417.98247  20125318.8614   20125322.8234   20125319.518
        47.7004         45.2004
 -11232570.61547  -8735523.42147  21833678.6654   21833682.9794   21833677.952
        44.6004         42.1004
 16  2 13  0 36 30.0000000  0  9G30G05G21G02G07G29G13G20G15
   -213779.34646   -161565.44646  23769185.0194   23769193.9074   23769185.346
        38.3004         36.0004
 -11527045.93847  -8958616.47547  21632262.5514   21632266.6764   21632262.268
        46.0004         43.3004
  -6996789.70346  -5440914.99646  23038209.1914   23038212.2244   23038209.348
        41.5004         39.0004
   1964449.91746   1555149.39545  24049340.2594   24049344.4864   24049340.804
        37.6004         35.7004
   -380502.72446   -284022.23445  24453005.5494   24453011.1924   24453003.951
        36.4004         34.5004
 -15149721.60547 -11790124.86646  21841079.3634   21841082.8964   21841078.865
        44.6004         41.9004
 -13368010.96347 -10393132.53747  20830510.8704   20830515.0644   20830511.185
        46.9004         44.2004
 -17114394.87847 -13313886.96747  20121052.7744   20121056.5824   20121053.328
        47.7004         45.2004
 -11321869.74147  -8805107.16347  21816685.3284   21816689.5394   21816684.962
        44.8004         42.1004
 16  2 13  0 37  0.0000000  0  9G30G05G21G02G07G29G13G20G15
   -229932.33746   -174152.20445  23766111.4524   23766119.9124   23766111.397
        38.0004         35.7004
 -11454581.60147  -8902150.80047  21646051.9504   21646056.0984   21646051.545
        45.8004         43.2004
  -7074096.68946  -5501154.24346  23023497.7914   23023501.5514   23023498.439
        41.5004         39.0004
   2067694.38846   1635599.43445  24068985.9094   24068990.2434   24068985.354
        37.6004         35.5004
   -346942.74946   -257871.70745  24459394.4574   24459398.2614   24459393.738
        36.3004         34.6004
 -15075791.60747 -11732517.12346  21855146.9284   21855151.0564   21855146.660
        44.6004         41.9004
 -13396296.62747 -10415173.31747  20825128.9274   20825132.6244   20825128.276
        46.9004         44.4004
 -17136391.33647 -13331027.07847  20116866.7214   20116871.1804   20116867.270
        47.7004         45.2004
 -11410778.35647  -8874386.60747  21799766.7244   21799771.0474   21799766.308
        44.8004         42.1004
 16  2 13  0 37 30.0000000  0  9G30G05G21G02G07G29G13G20G15
   -245520.87146   -186299.14245  23763145.5414   23763153.2244   23763145.461
        37.5004         35.3004
 -11381854.69347  -8845480.52647  21659891.5914   21659895.7524   21659891.332
        45.8004         43.0004
  -7151214.05846  -5561245.72846  23008822.9184   23008826.0224   23008823.676
        41.5004         39.0004
   2171095.21546   1716171.29745  24088662.7354   24088668.1484   24088663.260
        37.5004         35.5004
   -312851.88346   -231307.45945  24465880.2654   24465884.0914   24465879.809
        36.1004         34.3004
 -15001406.67647 -11674554.89146  21869302.0134   21869305.8814   21869301.714
        44.4004         41.8004
 -13423974.92447 -10436740.82247  20819861.6684   20819865.1894   20819861.374
        46.9004         44.2004
 -17157965.33147 -13347838.00147  20112761.3334   20112765.7424   20112762.015
        47.7004         45.2004
 -11499293.70147  -8943359.61447  21782922.8034   21782926.9724   21782922.043
        44.8004         42.1004
 16  2 13  0 38  0.0000000  0  9G30G05G21G02G07G29G13G20G15
   -260543.79346   -198005.32345  23760285.8084   23760292.7944   23760286.221
        37.1004         35.2004
 -11308866.66747  -8788606.78647  21673780.8344   21673785.1264   21673780.319
        45.8004         43.2004
  -7228139.81146  -5621187.90846  22994184.9324   22994188.2584   22994185.503
        41.6004         39.2004
   2274651.10146   1796863.97445  24108369.7634   24108374.7184   24108370.880
        36.8004         34.8004
   -278230.72945   -204330.03545  24472468.3044   24472473.8484   24472466.807
        35.6004         34.0004
 -14926568.84547 -11616239.75246  21883542.8824   21883547.5274   21883542.459
        44.4004         41.8004
 -13451045.11047 -10457834.47147  20814710.5284   20814714.0344   20814710.486
        47.0004         44.5004
 -17179116.25747 -13364319.25647  20108736.6404   20108740.6274   20108737.314
        47.7004         45.2004
 -11587413.60847  -9012024.48047  21766154.6814   21766158.4784   21766154.143
        44.9004         42.5004
 16  2 13  0 38 30.0000000  0  9G30G05G21G02G07G29G13G20G15
   -275000.33346   -209270.16645  23757535.0834   23757543.7364   23757534.400
        37.1004         35.3004
 -11235619.03247  -8731530.74847  21687719.3414   21687723.6624   21687718.835
        45.8004         43.2004
  -7304872.80846  -5680979.87446  22979582.8914   22979586.8124   22979583.219
        41.6004         39.2004
   2378360.42146   1877676.24145  24128105.8414   24128109.3784   24128106.125
        36.3004         34.3004
   -243081.11845   -176940.79445  24479158.1104   24479158.9654   24479158.555
        35.6004         33.8004
 -14851280.94047 -11557573.91246  21897870.5294   21897874.7614   21897870.232
        44.4004         41.8004
 -13477506.55547 -10478453.77847  20809674.6304   20809678.6314   20809674.231
        47.0004         44.4004
 -17199844.29147 -13380470.98847  20104792.3974   20104796.5944   20104792.883
        47.7004         45.2004
 -11675136.17747  -9080379.72747  21749460.9004   21749465.1464   21749461.110
        44.9004         42.3004
 16  2 13  0 39  0.0000000  0  9G30G05G21G02G07G29G13G20G15
   -288889.65346   -220093.04746  23754892.7114   23754900.7694   23754892.387
        37.6004         36.0004
 -11162113.21947  -8674253.53447  21701707.4024   21701711.5074   21701707.013
        45.8004         43.2004
  -7381410.73646  -5740619.83146  22965018.2744   22965021.9054   22965019.027
        41.6004         39.2004
   2482221.70345   1958606.93245  24147871.2584   24147874.2324   24147872.412
        35.4004         33.8004
   -207404.08345   -149140.52445  24485944.0054   24485952.5764   24485945.353
        35.6004         33.8004
 -14775546.02447 -11498559.74746  21912282.1314   21912286.3424   21912281.842
        44.4004         41.8004
 -13503358.98047 -10498598.51747  20804755.4534   20804759.3424   20804755.458
        47.0004         44.4004
 -17220149.45247 -13396293.21147  20100928.3184   20100932.3884   20100928.589
        47.7004         45.2004
 -11762459.20347  -9148423.64247  21732844.2174   21732848.2524   21732843.674
        44.9004         42.3004
 16  2 13  0 39 30.0000000  0  9G30G05G21G02G07G29G13G20G15
   -302210.73446   -230473.13946  23752357.7794   23752364.9664   23752358.036
        38.0004         36.0004
 -11088350.24947  -8616775.94247  21715743.9194   21715747.7364   21715743.958
        45.8004         43.2004
  -7457752.66446  -5800107.07546  22950491.2784   22950493.7614   22950491.400
        41.6004         39.2004
   2586233.28745   2039654.73245  24167663.0774   24167667.3124   24167659.400
        34.7004         32.7004
   -171200.42545   -120929.98245  24492835.0734   24492841.0434   24492834.689
        35.2004         33.6004
 -14699366.51847 -11439199.15046  21926778.2754   21926783.0664   21926778.598
        44.4004         41.8004
 -13528601.33547 -10518267.88047  20799951.9334   20799955.7084   20799951.340
        47.0004         44.4004
 -17240031.25047 -13411785.53047  20097145.0984   20097149.1274   20097145.602
        47.7004         45.4004
 -11849380.60047  -9216154.60747  21716302.8044   21716307.6974   21716303.288
        44.9004         42.3004
 16  2 13  0 40  0.0000000  0  9G30G05G21G02G07G29G13G20G15
   -314962.76146   -240409.79445  23749930.5244   23749938.0634   23749930.507
        38.0004         35.9004
 -11014331.44447  -8559098.99447  21729829.2044   21729833.3074   21729828.823
        45.8004         43.2004
  -7533896.09846  -5859439.64546  22936000.9194   22936004.7454   22936001.782
        41.8004         39.3004
   2690394.05545   2120818.73445  24187483.2404   24187488.9124   24187482.934
        34.5004         33.3004
   -134471.46945    -92310.09845  24499824.5754   24499828.3584   24499825.231
        35.0004         33.4004
 -14622744.43447 -11379493.68846  21941359.0224   21941364.0034   21941358.466
        44.2004         41.6004
 -13553233.29847 -10537461.60847  20795264.2624   20795268.7144   20795264.236
        46.9004         44.4004
 -17259489.23247 -13426947.61247  20093442.4174   20093446.5274   20093443.093
        47.7004         45.2004
 -11935898.16347  -9283570.89147  21699839.8984   21699844.5904   21699839.178
        44.9004         42.5004
 16  2 13  0 40 30.0000000  0  9G30G05G21G02G07G29G13G20G15
   -327144.84846   -249902.36146  23747613.1824   23747620.3374   23747612.377
        38.3004         36.4004
 -10940058.47647  -8501223.99447  21743962.9804   21743966.7744   21743962.301
        45.8004         43.2004
  -7609839.58246  -5918616.41546  22921549.4474   22921552.7934   22921550.095
        41.8004         39.3004
   2794702.01545   2202097.45145  24207332.4694   24207336.1994   24207330.803
        34.9004         33.6004
    -97218.33745    -63281.71145  24506909.5344   24506917.9464   24506911.047
        34.7004         33.1004
 -14545682.33247 -11319445.35646  21956023.5654   21956028.4204   21956023.317
        44.2004         41.6004
 -13577253.95547 -10556178.99747  20790693.6784   20790697.4304   20790692.910
        47.0004         44.4004
 -17278523.25147 -13441779.33147  20089820.1324   20089824.2824   20089820.615
        47.7004         45.4004
 -12022009.77947  -9350670.85047  21683453.0684   21683457.5954   21683452.315
        45.1004         42.5004
 16  2 13  0 41  0.0000000  0  9G30G05G21G02G07G29G13G20G15
   -338756.20346   -258950.21846  23745403.6914   23745410.5514   23745403.479
        38.5004         36.4004
 -10865532.75847  -8443152.05247  21758144.7964   21758148.8284   21758144.604
        45.6004         43.0004
  -7685581.92546  -5977636.44646  22907136.6524   22907139.8674   22907136.890
        41.8004         39.3004
   2899155.70546   2283489.70545  24227210.0804   24227214.6574   24227210.014
        36.3004         35.0004
    -59442.18445    -33845.84245  24514104.5154   24514106.4054   24514102.070
        34.3004         33.1004
 -14468183.02947 -11259056.34146  21970771.1734   21970775.5934   21970771.143
        44.1004         41.4004
 -13600662.99447 -10574419.80847  20786238.9434   20786242.7374   20786238.858
        46.9004         44.4004
 -17297133.16247 -13456280.58647  20086278.8294   20086283.0364   20086279.547
        47.7004         45.4004
 -12107713.38447  -9417452.88847  21667144.3644   21667148.6074   21667144.508
        45.1004         42.5004
 16  2 13  0 41 30.0000000  0  9G30G05G21G02G07G29G13G20G15
   -349796.10746   -267552.75746  23743302.7604   23743309.8064   23743302.716
        38.3004         36.0004
 -10790755.33247  -8384883.96947  21772374.5654   21772378.5724   21772374.528
        45.6004         43.0004
  -7761121.01346  -6036498.09446  22892762.0714   22892765.4784   22892762.406
        41.8004         39.5004
   3003753.90846   2364994.61145  24247114.5634   24247120.2774   24247114.923
        37.5004         35.7004
    -21144.39745     -4003.45745  24521391.3234   24521391.3194   24521392.368
        34.2004         32.9004
 -14390249.09547 -11198328.65746  21985602.1264   21985606.5434   21985602.379
        44.1004         41.6004
 -13623460.10647 -10592183.78747  20781900.5334   20781904.9474   20781900.877
        46.9004         44.2004
 -17315318.95047 -13470451.34547  20082818.6224   20082822.4464   20082818.713
        47.7004         45.4004
 -12193006.96647  -9483915.41047  21650913.3884   21650917.7774   21650912.356
        44.9004         42.5004
 16  2 13  0 42  0.0000000  0  9G30G05G21G02G07G29G13G20G15
   -360263.69046   -275709.35645  23741310.3854   23741317.4564   23741309.105
        38.0004         35.7004
 -10715727.66247  -8326420.89947  21786651.8404   21786655.9964   21786651.664
        45.5004         42.8004
  -7836454.66346  -6095199.66546  22878426.7144   22878429.9604   22878427.092
        41.8004         39.3004
   3108494.95946   2446610.79445  24267046.6734   24267052.1394   24267046.707
        37.6004         35.9004
     17673.86845     26244.52145  24528775.2914   24528783.1644   24528773.244
        33.8004         32.7004
 -14311883.06547 -11137264.27946  22000514.8094   22000519.0844   22000514.583
        44.2004         41.6004
 -13645644.60747 -10609470.40447  20777679.2644   20777682.9384   20777679.048
        46.9004         44.4004
 -17333080.12647 -13484291.23147  20079438.6624   20079442.6834   20079438.943
        47.7004         45.4004
 -12277888.32447  -9550056.73147  21634761.2474   21634765.5464   21634761.017
        45.1004         42.5004
 16  2 13  0 42 30.0000000  0  9G30G05G21G02G07G29G13G20G15
   -370158.33646   -283419.50445  23739426.2704   23739435.7584   23739426.593
        37.5004         35.3004
 -10640450.90847  -8267763.74047  21800976.2684   21800980.5954   21800975.875
        45.5004         42.8004
  -7911582.23947  -6153740.66046  22864130.3984   22864133.2074   22864130.400
        42.0004         39.5004
   3213377.09346   2528336.94746  24287004.0814   24287009.3844   24287005.337
        38.0004         36.0004
     57011.50645     56897.08245  24536263.4034   24536266.5124   24536263.397
        34.2004         33.1004
 -14233088.17647 -11075865.72346  22015508.5204   22015513.4704   22015508.572
        44.2004         41.6004
 -13667216.21447 -10626279.44947  20773573.9254   20773578.3564   20773573.957
        47.0004         44.4004
 -17350416.50547 -13497800.11347  20076139.4154   20076143.6234   20076139.878
        47.7004         45.4004
 -12362355.39047  -9615875.21147  21618687.7954   21618692.3924   21618687.335
        45.3004         42.8004
 16  2 13  0 43  0.0000000  0  9G30G05G21G02G07G29G13G20G15
   -379479.21446   -290682.55745  23737654.5204   23737660.2784   23737655.158
        37.3004         35.3004
 -10564926.79447  -8208913.82847  21815348.3544   21815352.6474   21815347.609
        45.5004         42.6004
  -7986501.19247  -6212119.08946  22849873.2474   22849876.8464   22849873.954
        42.0004         39.5004
   3318398.88046   2610171.90645  24306991.0324   24306994.7444   24306991.219
        37.6004         35.3004
     96866.61845     87952.94445  24543846.2464   24543851.8144   24543845.568
        33.8004         32.4004
 -14153866.26547 -11014134.42846  22030584.3484   22030589.1714   22030583.753
        44.2004         41.6004
 -13688174.27647 -10642610.40547  20769585.7824   20769590.0794   20769585.925
        47.0004         44.4004
 -17367327.98347 -13510977.90147  20072921.2354   20072925.4904   20072921.707
        47.7004         45.4004
 -12446406.09547  -9681369.26147  21602693.3774   21602698.1454   21602692.533
        45.3004         42.6004
 16  2 13  0 43 30.0000000  0  8G30G05G21G07G29G13G20G15
   -388225.63946   -297497.97745  23735988.8444   23735997.5704   23735988.353
        37.1004         35.3004
 -10489156.61247  -8149872.17747  21829766.8924   21829770.7934   21829766.840
        45.5004         42.8004
  -8061209.84047  -6270333.64746  22835657.0374   22835660.4044   22835657.704
        42.0004         39.5004
    137238.61845    119411.57345  24551527.7844   24551535.3384   24551528.299
        33.8004         32.7004
 -14074220.18747 -10952072.61146  22045740.1394   22045745.1724   22045739.942
        44.2004         41.6004
 -13708518.28447 -10658462.88547  20765714.8054   20765718.6454   20765714.349
        47.0004         44.5004
 -17383814.28647 -13523824.38547  20069784.1584   20069788.3464   20069784.643
        47.7004         45.4004
 -12530038.77047  -9746537.57147  21586778.4074   21586783.0414   21586777.947
        45.5004         42.8004
 16  2 13  0 44  0.0000000  0  8G30G05G21G07G29G13G20G15
   -396396.89546   -303865.23945  23734434.6734   23734441.4514   23734433.835
        37.0004         35.2004
 -10413141.50547  -8090639.66347  21844232.3444   21844236.2274   21844231.439
        45.5004         42.6004
  -8135706.89747  -6328383.32646  22821481.1404   22821484.3404   22821481.005
        42.2004         39.5004
    178125.75845    151271.63845  24559310.1404   24559316.4384   24559309.093
        33.8004         32.7004
 -13994152.41147 -10889682.19046  22060976.3934   22060981.4444   22060976.180
        44.2004         41.6004
 -13728248.11247 -10673836.77347  20761960.5614   20761964.1394   20761960.453
        47.0004         44.4004
 -17399875.16347 -13536339.37447  20066728.0114   20066731.9874   20066728.561
        47.7004         45.4004
 -12613250.71247  -9811378.03047  21570943.4504   21570948.2254   21570943.419
        45.5004         43.0004
 16  2 13  0 44 30.0000000  0  8G30G05G21G07G29G13G20G15
   -403992.46046   -309783.89645  23732989.0604   23732995.9374   23732989.365
        37.1004         35.3004
 -10336882.87047  -8031217.39247  21858743.9884   21858747.5044   21858743.449
        45.3004         42.8004
  -8209990.49647  -6386266.67646  22807345.0464   22807348.4994   22807345.561
        42.2004         39.7004
    219526.77345    183532.11445  24567190.3344   24567195.0344   24567190.216
        33.8004         32.9004
 -13913666.01147 -10826965.57946  22076292.9914   22076297.3164   22076292.804
        44.1004         41.4004
 -13747363.40947 -10688731.81147  20758322.7844   20758326.4744   20758322.984
        47.0004         44.5004
 -17415510.58047 -13548522.83147  20063752.3714   20063756.3824   20063753.128
        47.7004         45.4004
 -12696040.23847  -9875889.33247  21555189.3994   21555194.2434   21555188.497
        45.5004         43.0004
 16  2 13  0 45  0.0000000  0  8G30G05G21G07G29G13G20G15
   -411011.64546   -315253.42845  23731652.3834   23731661.4114   23731651.734
        37.0004         35.0004
 -10260381.82847  -7971606.23747  21873301.5834   21873305.5784   21873300.661
        45.1004         42.5004
  -8284058.92347  -6443982.35446  22793250.5994   22793254.0644   22793250.797
        42.3004         39.9004
    261440.50145    216192.07745  24575162.9064   24575170.5984   24575164.205
        34.0004         32.9004
 -13832763.61647 -10763924.81346  22091688.4344   22091692.4904   22091688.502
        44.1004         41.2004
 -13765863.57447 -10703147.53547  20754802.2424   20754806.1984   20754801.664
        47.0004         44.4004
 -17430720.70247 -13560374.88947  20060858.0134   20060862.0884   20060858.472
        47.7004         45.4004
 -12778405.50347  -9940070.03947  21539515.9074   21539520.5804   21539515.750
        45.5004         42.8004
 16  2 13  0 45 30.0000000  0  8G30G05G21G07G29G13G20G15
   -417453.72146   -320273.25145  23730426.7444   23730434.3224   23730427.084
        37.5004         35.7004
 -10183639.80347  -7911807.30447  21887905.1884   21887909.5334   21887904.842
        45.1004         42.5004
  -8357910.36347  -6501528.95346  22779197.0924   22779200.0344   22779197.236
        42.3004         39.9004
    303865.71245    249250.63645  24583237.9764   24583242.6774   24583239.226
        34.5004         33.4004
 -13751447.41447 -10700561.58946  22107162.0794   22107166.8654   22107161.584
        43.9004         41.2004
 -13783748.42047 -10717083.78647  20751399.0794   20751402.7594   20751398.719
        47.0004         44.5004
 -17445504.76647 -13571894.95747  20058044.8434   20058049.1994   20058045.440
        47.7004         45.4004
 -12860343.93947 -10003918.15247  21523923.3774   21523927.9594   21523922.804
        45.5004         42.8004
 16  2 13  0 46  0.0000000  0  8G30G05G21G07G29G13G20G15
   -423318.33046   -324843.06745  23729312.8454   23729320.3204   23729312.474
        37.8004         35.9004
 -10106658.22447  -7851821.71147  21902553.9624   21902558.5564   21902553.589
        44.9004         42.1004
  -8431543.31147  -6558905.30146  22765184.9254   22765188.4104   22765185.411
        42.3004         39.7004
    346800.88345    282706.53445  24591410.4094   24591414.5024   24591408.055
        34.9004         33.4004
 -13669720.44247 -10636878.28946  22122714.0474   22122718.6554   22122712.932
        43.9004         41.1004
 -13801017.69847 -10730540.37047  20748112.2964   20748116.4344   20748112.841
        47.0004         44.4004
 -17459862.88147 -13583083.11647  20055312.6034   20055316.8934   20055313.295
        47.9004         45.4004
 -12941854.28147 -10067432.69447  21508412.8344   21508416.8594   21508412.210
        45.5004         42.8004
 16  2 13  0 46 30.0000000  0  8G30G05G21G07G29G13G20G15
   -428604.82146   -328962.40146  23728306.3534   23728313.9974   23728304.992
        38.0004         36.0004
 -10029438.38547  -7791650.45547  21917248.3754   21917252.8094   21917248.057
        44.8004         42.1004
  -8504955.84847  -6616109.90346  22751214.8314   22751218.2294   22751215.472
        42.3004         39.9004
    390244.23945    316558.38645  24599672.0374   24599680.2964   24599675.877
        34.7004         33.3004
 -13587585.19047 -10572876.85946  22138344.0294   22138348.9484   22138344.243
        43.7004         41.1004
 -13817671.11047 -10743517.06247  20744943.6304   20744947.6384   20744942.852
        47.0004         44.5004
 -17473794.85547 -13593939.22147  20052661.4924   20052665.4274   20052662.119
        47.9004         45.4004
 -13022934.13247 -10130611.78047  21492983.4714   21492987.8324   21492983.115
        45.6004         43.0004
 16  2 13  0 47  0.0000000  0  8G30G05G21G07G29G13G20G15
   -433312.76246   -332630.91146  23727410.1164   23727417.3184   23727410.132
        38.0004         36.0004
  -9951982.00247  -7731294.88447  21931987.9824   21931992.2914   21931987.775
        44.9004         42.3004
  -8578146.43147  -6673141.55446  22737287.5954   22737290.5754   22737287.888
        42.3004         39.9004
    434194.54245    350805.31445  24608039.4164   24608042.1624   24608039.818
        34.3004         33.1004
 -13505044.62047 -10508559.59046  22154051.4414   22154055.8904   22154050.983
        43.9004         41.2004
 -13833708.62547 -10756013.83647  20741892.0034   20741896.0334   20741891.928
        47.2004         44.5004
 -17487300.79347 -13604463.35047  20050091.6424   20050095.5864   20050091.919
        47.9004         45.4004
 -13103581.58847 -10193453.93547  21477636.7204   21477641.5794   21477636.389
        45.6004         43.0004
 16  2 13  0 47 30.0000000  0  8G30G05G21G07G29G13G20G15
   -437441.49746   -335848.08546  23726624.7094   23726631.5344   23726623.751
        38.0004         36.0004
  -9874289.59347  -7670755.39147  21946772.4734   21946776.6984   21946771.971
        44.9004         42.3004
  -8651112.55847  -6729998.30646  22723402.0544   22723405.7424   22723402.542
        42.5004         40.0004
    478650.59445    385446.38045  24616498.3524   24616503.7184   24616498.288
        34.2004         32.7004
 -13422101.44047 -10443928.60446  22169834.2324   22169839.6704   22169834.912
        43.9004         41.2004
 -13849129.74047 -10768030.29647  20738957.4284   20738961.1504   20738957.245
        47.2004         44.5004
 -17500380.22547 -13614655.13947  20047602.7814   20047606.7784   20047603.301
        47.9004         45.6004
 -13183794.83647 -10255957.76047  21462372.8974   21462377.4284   21462372.196
        45.8004         43.2004
 16  2 13  0 48  0.0000000  0  9G30G05G21G07G18G29G13G20G15
   -440990.68546   -338613.65646  23725949.3934   23725955.7924   23725949.611
        38.2004         36.0004
  -9796363.03947  -7610033.45147  21961601.5704   21961605.8334   21961601.368
        44.9004         42.3004
  -8723853.47247  -6786679.55646  22709560.2524   22709563.5154   22709560.846
        42.5004         39.9004
    523610.41645    420479.91745  24625053.6094   24625057.9384   24625053.777
        34.3004         33.1004
    -37088.43444    -18133.80743                                  23823114.656
        26.4004         23.4004
 -13338758.14247 -10378985.82846  22185694.1834   22185698.9244   22185693.539
        43.7004         41.1004
 -13863934.18047 -10779566.23447  20736139.7004   20736144.1964   20736139.533
        47.0004         44.4004
 -17513033.44647 -13624514.81447  20045195.1244   20045199.0314   20045195.538
        47.9004         45.6004
 -13263571.54447 -10318121.42047  21447191.5754   21447196.1344   21447191.255
        45.8004         43.2004
 16  2 13  0 48 30.0000000  0  9G30G05G21G07G18G29G13G20G15
   -443959.71446   -340927.16545  23725383.2474   23725391.6754   23725382.602
        38.0004         35.9004
  -9718203.53147  -7549129.98847  21976474.8414   21976479.3644   21976474.617
        44.8004         42.3004
  -8796366.78247  -6843183.45746  22695761.4894   22695764.9154   22695761.859
        42.3004         39.9004
    569072.81645    455905.12145  24633707.8324   24633711.5044   24633706.208
        35.0004         33.8004
   -119018.30144    -81975.922 3                  23807522.548
        26.4004         22.400
 -13255017.62347 -10313733.52146  22201629.5204   22201634.3654   22201629.325
        43.7004         41.1004
 -13878121.75847 -10790621.50047  20733440.2274   20733444.1484   20733440.350
        47.0004         44.5004
 -17525259.76547 -13634041.83947  20042868.2124   20042872.3104   20042868.828
        47.9004         45.6004
 -13342909.87947 -10379943.48647  21432093.9054   21432098.7334   21432093.167
        45.8004         43.2004
 16  2 13  0 49  0.0000000  0  9G30G05G21G07G18G29G13G20G15
   -446348.30246   -342788.41746  23724929.3774   23724936.9884   23724929.459
        38.0004         36.0004
  -9639811.75247  -7488045.53847  21991392.3054   21991396.3304   21991391.896
        44.8004         42.1004
  -8868651.19947  -6899508.99746  22682006.2594   22682009.7344   22682006.279
        42.5004         40.0004
    615036.37845    491720.82445  24642453.5154   24642456.5534   24642451.571
        35.6004         34.0004
   -206486.80144   -150133.09245                                  23790879.028
        26.4004         33.8004
 -13170882.50647 -10248173.74146  22217639.9054   22217645.0614   22217640.302
        43.7004         40.9004
 -13891692.58847 -10801196.18547  20730858.3154   20730861.5304   20730857.873
        47.0004         44.5004
 -17537059.36747 -13643236.35247  20040622.6724   20040626.9444   20040623.265
        47.9004         45.4004
 -13421808.26247 -10441422.74647  21417080.3234   21417084.8424   21417080.146
        45.8004         43.3004
 16  2 13  0 49 30.0000000  0  9G30G05G21G07G18G29G13G20G15
   -448155.97346   -344196.98946  23724584.9124   23724593.0404   23724585.470
        38.2004         36.0004
  -9561189.99447  -7426781.88347  22006353.5904   22006357.6154   22006353.402
        44.8004         42.1004
  -8940704.62447  -6955654.55046  22668295.1574   22668298.0634   22668295.109
        42.5004         40.0004
    661499.67345    527925.91545  24651294.6494   24651300.4514   24651293.426
        35.9004         34.3004
   -291022.91546   -216005.27945                  23774798.0844   23774792.709
        36.3004         35.7004
 -13086355.69847 -10182308.75446  22233724.9254   22233729.4864   22233725.118
        43.6004         40.9004
 -13904646.21447 -10811289.92947  20728392.8944   20728396.7224   20728392.777
        47.0004         44.4004
 -17548432.12047 -13652098.25847  20038458.7644   20038462.6684   20038459.082
        47.7004         45.4004
 -13500264.39947 -10502557.38947  21402150.5904   21402155.1734   21402150.300
        45.8004         43.2004
 16  2 13  0 50  0.0000000  0  9G30G05G21G07G18G29G13G20G15
   -449382.37146   -345152.63446  23724351.7764   23724359.5024   23724352.336
        38.2004         36.0004
  -9482339.34847  -7365339.87946  22021358.2814   22021362.3864   22021357.876
        44.6004         41.9004
  -9012525.61647  -7011618.99046  22654627.7744   22654631.6054   22654628.103
        42.5004         40.0004
    708460.83045    564518.95045  24660231.3484   24660236.3674   24660229.813
        35.7004         34.0004
   -375449.70346   -281792.43946  23758725.3174   23758730.1284   23758726.545
        37.6004         36.0004
 -13001439.88947 -10116140.65446  22249884.2154   22249888.8804   22249884.528
        43.6004         40.9004
 -13916982.96147 -10820902.99147  20726045.2764   20726049.0434   20726045.294
        47.2004         44.5004
 -17559377.89047 -13660627.45147  20036375.6344   20036380.0114   20036376.176
        47.9004         45.4004
 -13578276.64547 -10563346.15347  21387305.1454   21387309.9584   21387304.829
        46.0004         43.3004
 16  2 13  0 50 30.0000000  0  9G30G05G21G07G18G29G13G20G15
   -450027.15446   -345655.07346  23724230.1034   23724236.4304   23724229.103
        38.3004         36.2004
  -9403260.89047  -7303720.34646  22036406.4544   22036410.6904   22036405.803
        44.6004         41.9004
  -9084111.66947  -7067400.35446  22641005.2544   22641009.0064   22641005.493
        42.7004         40.2004
    755918.51545    601498.88245  24669261.8114   24669264.0884   24669261.056
        35.2004         33.6004
   -459766.48946   -347493.83046  23742681.2374   23742685.3154   23742681.410
        38.0004         36.0004
 -12916137.95447 -10049671.67746  22266116.9584   22266121.6384   22266116.056
        43.6004         40.9004
 -13928702.74147 -10830035.30547  20723814.9754   20723818.9284   20723814.646
        47.2004         44.7004
 -17569896.76247 -13668823.99447  20034374.1344   20034378.2164   20034374.363
        47.9004         45.6004
 -13655843.02047 -10623787.48347  21372544.6864   21372549.2954   21372544.344
        46.0004         43.3004
 16  2 13  0 51  0.0000000  0  9G30G05G21G07G18G29G13G20G15
   -450089.99046   -345704.06246  23724217.7724   23724225.0274   23724217.775
        38.7004         36.6004
  -9323955.71947  -7241924.17046  22051497.9744   22051502.3294   22051497.600
        44.6004         41.9004
  -9155461.50347  -7122997.65746  22627428.4054   22627432.0424   22627428.193
        42.9004         40.2004
    803871.26645    638864.60845  24678385.9364   24678393.3654   24678384.958
        35.0004         33.6004
   -543972.49746   -413108.91345  23726657.2404   23726661.1744   23726657.692
        38.2004         35.9004
 -12830452.57347  -9982903.90946  22282422.6074   22282427.0204   22282421.787
        43.6004         40.9004
 -13939805.07647 -10838686.48447  20721702.5154   20721706.1354   20721702.372
        47.2004         44.5004
 -17579988.63547 -13676687.81847  20032453.7974   20032457.7124   20032454.381
        47.9004         45.6004
 -13732961.51747 -10683879.81147  21357869.6174   21357874.2454   21357868.934
        46.0004         43.5004
 16  2 13  0 51 30.0000000  0  9G30G05G21G07G18G29G13G20G15
   -449570.57946   -345299.34846  23724316.5434   23724324.4124   23724316.731
        39.0004         36.7004
  -9244425.44847  -7179952.58946  22066631.9504   22066636.2284   22066631.499
        44.6004         41.9004
  -9226573.72647  -7178409.80346  22613895.7554   22613899.5004   22613896.029
        42.7004         40.2004
    852317.28645    676614.68945  24687605.0274   24687610.6524   24687606.447
        35.6004         34.1004
   -628066.95646   -478637.08846  23710655.0474   23710657.5794   23710655.092
        38.2004         36.0004
 -12744386.48647  -9915839.47746  22298799.5884   22298805.1534   22298799.845
        43.4004         40.7004
 -13950290.25447 -10846856.76147  20719707.4504   20719711.2194   20719706.982
        47.0004         44.7004
 -17589653.15947 -13684218.62847  20030614.6374   20030618.8264   20030615.055
        47.9004         45.4004
 -13809630.28347 -10743621.71747  21343280.3364   21343285.3724   21343279.575
        46.0004         43.5004
 16  2 13  0 52  0.0000000  0  9G30G05G21G07G18G29G13G20G15
   -448468.63246   -344440.73146  23724525.6384   23724533.6314   23724525.832
        39.0004         36.9004
  -9164671.33047  -7117806.58046  22081808.8024   22081813.0654   22081808.080
        44.6004         41.9004
  -9297446.38647  -7233635.27446  22600409.0244   22600413.0324   22600409.663
        42.7004         40.2004
    901254.83745    714747.78945  24696916.7404   24696922.1244   24696917.668
        35.4004         33.8004
   -712049.25646   -544077.88146  23694673.8304   23694677.7064   23694674.046
        38.3004         36.2004
 -12657942.34447  -9848480.47246  22315249.1554   22315254.3324   22315248.956
        43.2004         40.6004
 -13960158.27147 -10854546.14247  20717829.5604   20717833.2094   20717829.108
        47.2004         44.5004
 -17598890.29747 -13691416.42147  20028856.9784   20028860.9254   20028857.305
        47.7004         45.4004
 -13885847.73847 -10803011.94547  21328776.5474   21328781.2354   21328775.747
        46.2004         43.5004
 16  2 13  0 52 30.0000000  0  9G30G05G21G07G18G29G13G20G15
   -446783.91546   -343128.03046  23724847.2694   23724854.5184   23724847.176
        39.2004         36.9004
  -9084694.55747  -7055487.07146  22097027.9844   22097032.3554   22097027.565
        44.4004         41.9004
  -9368077.37847  -7288672.43546  22586969.1274   22586972.5324   22586969.339
        42.7004         40.0004
    950682.41245    753262.77145  24706322.3864   24706328.8354   24706323.673
        35.2004         33.6004
   -795918.91646   -609430.86346  23678712.9874   23678717.4774   23678713.541
        38.3004         36.4004
 -12571123.36647  -9780829.36646  22331770.2484   22331775.5034   22331770.532
        43.0004         40.4004
 -13969408.83447 -10861754.38547  20716069.2334   20716072.9944   20716069.192
        47.2004         44.5004
 -17607699.96847 -13698281.11847  20027180.6084   20027184.5184   20027181.009
        47.7004         45.4004
 -13961611.85147 -10862048.92247  21314358.8774   21314364.0064   21314358.873
        46.2004         43.5004
 16  2 13  0 53  0.0000000  0  9G30G05G21G07G18G29G13G20G15
   -444516.16946   -341361.00246  23725278.3384   23725286.0074   23725278.564
        39.0004         36.7004
  -9004496.34447  -6992995.01246  22112289.2874   22112293.4024   22112288.836
        44.4004         41.8004
  -9438465.24347  -7343520.14746  22573574.7584   22573578.0094   22573574.363
        42.7004         40.2004
   1000598.61045    792158.48045  24715825.4294   24715826.6424   24715823.158
        35.2004         33.8004
   -879675.18046   -674695.50546  23662775.7324   23662779.3664   23662775.430
        38.5004         36.4004
 -12483932.16447  -9712888.23846  22348363.0174   22348367.3884   22348362.438
        43.0004         40.4004
 -13978042.22047 -10868481.71747  20714426.4324   20714429.8884   20714426.130
        47.0004         44.5004
 -17616082.41247 -13704812.91647  20025585.4694   20025589.5314   20025585.828
        47.7004         45.4004
 -14036920.78447 -10920731.22147  21300028.2564   21300032.7354   21300027.952
        46.2004         43.5004
 16  2 13  0 53 30.0000000  0  8G30G05G21G18G29G13G20G15
   -441665.17746   -339139.52346  23725820.2694   23725828.7134   23725820.761
        38.9004         36.7004
  -8924077.86847  -6930331.32146  22127592.6354   22127596.6284   22127591.913
        44.4004         41.8004
  -9508608.12647  -7398176.96546  22560226.4654   22560230.2524   22560226.952
        42.9004         40.4004
   -963317.70046   -739871.49346  23646858.6594   23646862.7504   23646858.973
        38.7004         36.4004
 -12396371.64647  -9644659.32246  22365025.6564   22365030.3594   22365025.017
        43.0004         40.6004
 -13986058.68747 -10874728.32547  20712901.3544   20712904.9294   20712900.560
        47.2004         44.5004
 -17624037.38047 -13711011.61647  20024071.4754   20024075.8094   20024072.245
        47.7004         45.4004
 -14111772.98747 -10979057.62747  21285784.7144   21285788.7734   21285784.091
        46.2004         43.3004
 16  2 13  0 54  0.0000000  0  8G30G05G21G18G29G13G20G15
   -438230.69746   -336463.39746  23726475.0244   23726482.6244   23726474.563
        39.0004         36.7004
  -8843440.74047  -6867497.25746  22142937.1144   22142941.8224   22142936.821
        44.4004         41.8004
  -9578504.21047  -7452641.46646  22546925.9284   22546929.6544   22546926.138
        42.9004         40.4004
  -1046845.99846   -804958.51446  23630962.9474   23630967.9624   23630964.052
        38.5004         36.4004
 -12308444.52247  -9576144.74446  22381757.1554   22381761.2914   22381757.216
        43.0004         40.4004
 -13993457.94647 -10880494.00247  20711492.9474   20711496.6534   20711492.568
        47.2004         44.5004
 -17631564.74847 -13716877.11347  20022639.4684   20022643.2284   20022640.069
        47.7004         45.4004
 -14186166.40947 -11037026.52747  21271628.1434   21271632.0684   21271627.002
        46.2004         43.5004
 16  2 13  0 54 30.0000000  0  8G30G05G21G18G29G13G20G15
   -434212.71646   -333332.58446  23727240.1984   23727246.4194   23727240.035
        38.7004         36.6004
  -8762586.16847  -6804493.75846  22158322.9754   22158327.5814   22158322.990
        44.2004         41.6004
  -9648152.21947  -7506912.66646  22533672.1114   22533676.2204   22533672.254
        43.0004         40.4004
  -1130258.83946   -869955.54046  23615090.7664   23615094.6374   23615091.351
        38.5004         36.4004
 -12220153.78447  -9507346.83346  22398558.2694   22398563.3474   22398557.377
        43.0004         40.6004
 -14000240.23147 -10885778.92347  20710202.2454   20710205.6104   20710201.827
        47.2004         44.5004
 -17638664.85347 -13722409.67847  20021288.0054   20021292.2384   20021288.409
        47.7004         45.4004
 -14260099.23047 -11094636.52647  21257558.7604   21257563.1144   21257558.255
        46.2004         43.7004
 16  2 13  0 55  0.0000000  0  8G30G05G21G18G29G13G20G15
   -429610.91446   -329746.83846  23728113.8514   23728122.7424   23728114.156
        38.3004         36.0004
  -8681515.29647  -6741321.70546  22173750.2784   22173755.1504   22173750.014
        44.1004         41.4004
  -9717549.25747  -7560988.31146  22520466.4704   22520470.3834   22520466.851
        43.0004         40.4004
  -1213555.65146   -934862.16046  23599239.6114   23599245.2284   23599240.587
        38.7004         36.6004
 -12131502.11147  -9438267.67946  22415428.5654   22415433.1534   22415428.300
        43.0004         40.4004
 -14006405.67647 -10890583.18247  20709028.8074   20709032.6034   20709028.837
        47.0004         44.5004
 -17645337.15447 -13727608.89347  20020018.3014   20020022.6404   20020018.814
        47.7004         45.4004
 -14333569.64947 -11151886.21747  21243577.8454   21243582.0724   21243576.976
        46.2004         43.5004
 16  2 13  0 55 30.0000000  0  8G30G05G21G18G29G13G20G15
   -424425.28546   -325706.19045  23729100.1954   23729109.4784   23729100.359
        37.8004         35.7004
  -8600229.53647  -6677982.21046  22189219.1664   22189223.3244   22189218.634
        44.1004         41.6004
  -9786694.00847  -7614867.36346  22507309.1674   22507312.2354   22507309.505
        43.0004         40.6004
  -1296736.13946   -999678.14446  23583411.4634   23583416.2114   23583411.293
        38.5004         36.4004
 -12042492.34947  -9368909.48646  22432365.8554   22432371.7934   22432365.601
        43.0004         40.2004
 -14011954.50947 -10894906.97247  20707973.1664   20707977.2424   20707973.114
        47.2004         44.7004
 -17651581.90947 -13732474.95947  20018830.0164   20018834.3354   20018830.524
        47.7004         45.4004
 -14406576.15947 -11208774.40947  21229685.3014   21229690.0324   21229684.930
        46.2004         43.7004
 16  2 13  0 56  0.0000000  0  8G30G05G21G18G29G13G20G15
   -418655.60646   -321210.42746  23730201.0154   23730208.3524   23730200.717
        37.8004         36.0004
  -8518729.95347  -6614476.10646  22204727.3724   22204732.1574   22204727.025
        44.1004         41.6004
  -9855584.91847  -7668548.61646  22494199.2894   22494203.3154   22494199.604
        43.0004         40.6004
  -1379799.24146  -1064402.65546  23567604.4894   23567608.8844   23567604.451
        38.5004         36.4004
 -11953127.32547  -9299274.46546  22449372.0124   22449376.9564   22449371.933
        42.9004         40.4004
 -14016886.76547 -10898750.30547  20707034.4104   20707038.5084   20707034.189
        47.2004         44.4004
 -17657398.88947 -13737007.68347  20017723.0374   20017727.4904   20017723.565
        47.7004         45.4004
 -14479116.85147 -11265299.62547  21215881.1194   21215885.9864   21215881.112
        46.3004         43.7004
 16  2 13  0 56 30.0000000  0  8G30G05G21G18G29G13G20G15
   -412301.95746   -316259.58645  23731407.5114   23731415.6264   23731408.578
        37.8004         35.9004
  -8437018.05647  -6550804.55346  22220277.1804   22220281.5354   22220276.419
        44.2004         41.6004
  -9924220.63647  -7722031.01646  22481138.2364   22481142.1724   22481138.667
        43.2004         40.7004
  -1462744.57946  -1129035.42946  23551820.4574   23551824.7224   23551821.315
        38.5004         36.4004
 -11863410.00047  -9229364.92846  22466444.8614   22466449.8534   22466444.499
        42.9004         40.2004
 -14021202.65647 -10902113.35947  20706213.4424   20706216.8394   20706212.759
        47.2004         44.5004
 -17662788.42447 -13741207.33747  20016697.4744   20016701.6704   20016697.792
        47.7004         45.4004
 -14551190.01547 -11321460.53147  21202166.2514   21202170.9084   21202165.496
        46.5004         43.9004
 16  2 13  0 57  0.0000000  0  8G30G05G21G18G29G13G20G15
   -405364.28246   -310853.67345  23732727.8354   23732737.1864   23732727.389
        37.5004         35.3004
  -8355094.96847  -6486968.45246  22235866.2754   22235871.3484   22235866.107
        44.1004         41.4004
  -9992598.57647  -7775312.55246  22468126.3484   22468130.3354   22468126.485
        43.4004         40.7004
  -1545571.69546  -1193576.03846  23536059.6924   23536062.9374   23536059.977
        38.5004         36.4004
 -11773343.17747  -9159183.04846  22483583.9334   22483588.4664   22483583.534
        42.7004         40.0004
 -14024902.68947 -10904996.52447  20705509.3084   20705512.8314   20705509.068
        47.0004         44.5004
 -17667750.35547 -13745073.79647  20015753.2944   20015757.4584   20015753.847
        47.7004         45.4004
 -14622793.70947 -11377255.61347  21188540.1274   21188544.7924   21188539.953
        46.5004         43.9004
 16  2 13  0 57 30.0000000  0  8G30G05G21G18G29G13G20G15
   -397842.53146   -304992.61045  23734160.9254   23734167.8644   23734161.014
        37.6004         35.9004
  -8272961.81147  -6422968.65746  22251495.7994   22251500.9024   22251495.443
        44.1004         41.4004
 -10060717.32747  -7828392.12646  22455163.7844   22455167.3424   22455164.124
        43.4004         40.7004
  -1628280.14346  -1258024.19846  23520320.3974   23520324.8594   23520320.822
        38.7004         36.4004
 -11682929.76847  -9088731.10046  22500788.7644   22500793.8724   22500788.894
        42.7004         40.0004
 -14027987.00947 -10907399.91047  20704922.3604   20704926.1094   20704922.204
        47.2004         44.5004
 -17672284.59747 -13748606.98847  20014890.2994   20014894.7974   20014890.662
        47.7004         45.2004
 -14693926.42847 -11432683.69847  21175004.1934   21175008.7994   21175003.625
        46.5004         44.0004
 16  2 13  0 58  0.0000000  0  8G30G05G21G18G29G13G20G15
   -389736.67146   -298676.38345  23735702.6174   23735711.3974   23735703.644
        37.8004         35.5004
  -8190619.72547  -6358806.06046  22267164.9294   22267169.8694   22267164.670
        43.9004         41.2004
 -10128575.15947  -7881268.38546  22442250.6584   22442254.9374   22442251.487
        43.4004         40.7004
  -1710868.74546  -1322378.96646  23504604.7944   23504607.9984   23504604.072
        38.7004         36.6004
 -11592172.73547  -9018011.39746  22518059.6914   22518064.7304   22518059.585
        42.7004         40.0004
 -14030455.78647 -10909323.65747  20704452.2784   20704456.1404   20704452.553
        47.2004         44.5004
 -17676391.54147 -13751807.21947  20014108.8554   20014113.1254   20014109.503
        47.7004         45.4004
 -14764586.42547 -11487743.44047  21161557.9034   21161562.7134   21161557.312
        46.7004         43.9004
 16  2 13  0 58 30.0000000  0  8G30G05G21G18G29G13G20G15
   -381046.77046   -291905.07245  23737356.1684   23737364.6924   23737355.791
        37.8004         35.9004
  -8108070.51347  -6294482.06946  22282873.2444   22282878.7494   22282873.159
        43.9004         41.2004
 -10196170.41547  -7933940.04346  22429388.0804   22429391.9684   22429388.483
        43.4004         40.7004
  -1793336.96346  -1386639.93946  23488912.2034   23488915.2054   23488912.177
        38.9004         36.7004
 -11501074.94647  -8947026.16846  22535394.5504   22535400.2144   22535394.654
        42.7004         40.0004
 -14032309.35447 -10910768.02047  20704099.7154   20704103.3624   20704099.310
        47.2004         44.5004
 -17680070.61247 -13754674.04747  20013408.9394   20013413.1454   20013409.511
        47.7004         45.4004
 -14834772.18447 -11542433.63247  21148201.8104   21148206.8154   21148201.748
        46.7004         44.0004
 16  2 13  0 59  0.0000000  0  8G30G05G21G18G29G13G20G15
   -371772.93346   -284678.74945  23739119.6264   23739128.1224   23739120.505
        38.0004         35.9004
  -8025315.14547  -6229997.43146  22298621.6884   22298625.7934   22298620.598
        43.9004         41.2004
 -10263500.55047  -7986405.11646  22416575.1754   22416579.2194   22416575.658
        43.4004         40.7004
  -1875684.06046  -1450806.53746  23473240.8114   23473245.3064   23473241.484
        38.9004         36.9004
 -11409639.39247  -8875777.75146  22552794.1824   22552799.3514   22552794.661
        42.5004         40.0004
 -14033547.90947 -10911733.15047  20703864.2754   20703867.6014   20703864.068
        47.2004         44.7004
 -17683321.84047 -13757207.48347  20012790.1264   20012794.3984   20012790.475
        47.7004         45.4004
 -14904482.01347 -11596752.97247  21134936.6844   21134941.1654   21134936.382
        46.7004         44.0004
 16  2 13  0 59 30.0000000  0  8G30G05G21G18G29G13G20G15
   -361915.12346   -276997.36046  23740997.1234   23741005.1734   23740998.385
        38.2004         36.0004
  -7942354.44547  -6165352.79846  22314408.6574   22314412.8254   22314408.257
        43.9004         41.2004
 -10330564.04647  -8038662.40546  22403813.9264   22403817.8664   22403814.136
        43.4004         40.9004
  -1957909.24546  -1514878.11046  23457594.3214   23457598.8654   23457594.982
        39.0004         36.7004
 -11317868.81347  -8804268.27246  22570258.3014   22570262.8574   22570257.748
        42.5004         40.0004
 -14034171.88847 -10912219.39147  20703745.7934   20703748.8564   20703745.078
        47.2004         44.7004
 -17686145.24947 -13759407.56047  20012252.9834   20012257.1994   20012253.442
        47.7004         45.4004
 -14973714.04847 -11650700.00147  21121762.2954   21121766.8564   21121761.768
        46.7004         44.0004
 16  2 13  1  0  0.0000000  0  8G30G05G21G18G29G13G20G15
   -351473.59646   -268861.12446  23742983.7094   23742992.4064   23742984.090
        38.2004         36.0004
  -7859190.17647  -6100549.54046  22330234.5614   22330238.7804   22330233.771
        43.9004         41.2004
 -10397359.36047  -8090710.72446  22391102.5664   22391107.2964   22391103.302
        43.6004         40.9004
  -2040012.33246  -1578854.53846  23441970.5134   23441974.4734   23441970.401
        39.2004         37.1004
 -11225766.00247  -8732499.91746  22587785.2434   22587789.5134   22587784.930
        42.5004         39.9004
 -14034181.76747 -10912227.11347  20703743.5174   20703747.2724   20703742.961
        47.2004         44.5004
 -17688541.37847 -13761274.69747  20011796.9714   20011801.2444   20011797.398
        47.7004         45.4004
 -15042466.56047 -11704273.38647  21108678.8824   21108683.6534   21108678.814
        46.7004         44.0004
 16  2 13  1  0 30.0000000  0  8G30G05G21G18G29G13G20G15
   -340448.52246   -260270.20546  23745082.6294   23745089.9224   23745081.366
        38.3004         36.2004
  -7775823.62547  -6035588.66346  22346098.4934   22346103.0264   22346098.067
        43.7004         41.2004
 -10463885.14347  -8142549.02446  22378443.4914   22378447.7544   22378443.883
        43.6004         40.9004
  -2121992.77346  -1642735.41346  23426370.4624   23426374.2324   23426370.783
        39.4004         37.3004
 -11133334.20747  -8660475.20246  22605373.6974   22605379.4514   22605373.386
        42.5004         39.7004
 -14033577.91347 -10911756.60347  20703858.8544   20703861.9334   20703858.351
        47.4004         44.7004
 -17690510.11447 -13762808.79747  20011422.2104   20011426.5394   20011422.879
        47.7004         45.4004
 -15110738.50847 -11757472.29747  21095687.6884   21095691.9804   21095687.120
        46.9004         44.2004
 16  2 13  1  1  0.0000000  0  8G30G05G21G18G29G13G20G15
   -328839.76246   -251224.44646  23747289.8754   23747298.3294   23747290.764
        38.3004         36.0004
  -7692255.47547  -5970470.69246  22362001.2644   22362005.7314   22362000.561
        43.9004         41.2004
 -10530138.67647  -8194175.18246  22365835.7004   22365840.2824   22365836.450
        43.6004         40.9004
  -2203849.51246  -1706519.88546  23410793.7464   23410797.9204   23410794.143
        39.7004         37.4004
 -11040575.88247  -8588196.03546  22623025.2694   22623030.4664   22623024.684
        42.2004         39.5004
 -14032360.56747 -10910808.03847  20704089.9044   20704093.8224   20704089.927
        47.2004         44.5004
 -17692051.22447 -13764009.67747  20011129.2304   20011133.2994   20011129.756
        47.7004         45.4004
 -15178527.68647 -11810295.01847  21082787.2084   21082792.2414   21082786.859
        46.9004         44.2004
 16  2 13  1  1 30.0000000  0  8G30G05G21G18G29G13G20G15
   -316647.74146   -241724.17846  23749611.6484   23749619.1754   23749612.122
        38.5004         36.4004
  -7608487.56947  -5905197.06546  22377941.4514   22377945.8394   22377941.256
        43.7004         41.1004
 -10596118.64447  -8245588.16746  22353279.7634   22353284.8344   22353280.327
        43.6004         40.9004
  -2285582.05446  -1770207.53446  23395240.0624   23395244.7364   23395240.450
        39.7004         37.4004
 -10947494.31847  -8515665.00546  22640738.0924   22640743.3214   22640737.807
        42.0004         39.3004
 -14030530.29747 -10909381.87547  20704438.5414   20704442.3824   20704437.686
        47.2004         44.5004
 -17693165.03047 -13764877.59647  20010917.2384   20010921.6104   20010917.924
        47.7004         45.4004
 -15245832.71347 -11862740.47547  21069980.0484   21069984.5604   21069979.656
        46.9004         44.4004
 16  2 13  1  2  0.0000000  0  8G30G05G21G18G29G13G20G15
   -303872.59346   -231769.55446  23752041.6884   23752051.2864   23752042.183
        38.3004         36.2004
  -7524520.89447  -5839768.56646  22393920.1184   22393924.3874   22393919.791
        43.7004         41.1004
 -10661823.02847  -8296786.41146  22340777.4524   22340780.9364   22340777.789
        43.6004         41.1004
  -2367189.93746  -1833798.09746  23379709.7984   23379714.3954   23379709.909
        39.7004         37.3004
 -10854092.51447  -8442884.44446  22658512.3164   22658517.2094   22658511.899
        42.0004         39.3004
 -14028087.52647 -10907478.44147  20704903.1114   20704906.9544   20704903.138
        47.2004         44.7004
 -17693851.51547 -13765412.53747  20010786.6334   20010790.8584   20010786.883
        47.7004         45.4004
 -15312652.10047 -11914807.51347  21057264.7824   21057269.4924   21057263.919
        47.0004         44.4004
 16  2 13  1  2 30.0000000  0  8G30G05G21G18G29G13G20G15
   -290514.62846   -221360.79646  23754584.2934   23754591.5804   23754583.815
        38.3004         36.0004
  -7440356.55447  -5774186.03546  22409935.8864   22409940.7264   22409935.504
        43.7004         41.1004
 -10727250.05747  -8347768.55046  22328327.2334   22328330.8544   22328327.948
        43.7004         41.1004
  -2448672.66946  -1897291.15446  23364205.2684   23364209.1724   23364205.379
        39.7004         37.4004
 -10760373.18746  -8369856.46746  22676345.8924   22676351.6344   22676345.721
        41.8004         39.3004
 -14025032.74447 -10905098.11447  20705484.2224   20705488.2704   20705484.384
        47.2004         44.5004
 -17694110.57247 -13765614.42347  20010737.2554   20010741.4564   20010737.833
        47.7004         45.4004
 -15378984.36747 -11966494.98547  21044641.6804   21044646.6884   21044641.628
        47.0004         44.4004
 16  2 13  1  3  0.0000000  0  8G30G05G21G18G29G13G20G15
   -276574.07146   -210498.04745  23757237.1004   23757243.9544   23757238.229
        38.0004         35.7004
  -7355995.84747  -5708450.49546  22425989.2704   22425994.1054   22425988.944
        43.7004         40.9004
 -10792398.57747  -8398533.65446  22315929.8924   22315934.0014   22315930.526
        43.7004         41.1004
  -2530028.87046  -1960685.58846  23348723.3074   23348726.9594   23348724.140
        39.7004         37.4004
 -10666339.41246  -8296583.46646  22694239.7804   22694245.3804   22694239.388
        41.6004         39.0004
 -14021366.46747 -10902241.29447  20706182.2184   20706185.9914   20706181.984
        47.0004         44.5004
 -17693942.61747 -13765483.56747  20010769.1644   20010773.6094   20010769.890
        47.7004         45.4004
 -15444827.61447 -12017801.39447  21032112.4494   21032117.0354   21032111.769
        47.0004         44.2004
 16  2 13  1  3 30.0000000  0  8G30G05G21G18G29G13G20G15
   -262051.11746   -199181.46845  23760000.6004   23760008.5014   23760000.904
        37.8004         35.9004
  -7271439.94647  -5642562.85846  22442079.8134   22442084.6114   22442079.402
        43.6004         41.1004
 -10857265.76347  -8449079.53146  22303585.9924   22303590.0724   22303586.117
        43.7004         41.2004
  -2611257.90446  -2023980.94346  23333265.8724   23333270.4154   23333266.196
        39.7004         37.3004
 -10571994.20446  -8223067.79046  22712193.1524   22712199.1914   22712192.667
        41.6004         39.2004
 -14017089.08347 -10898908.28147  20706996.2624   20707000.2564   20706995.904
        47.0004         44.5004
 -17693347.45347 -13765019.82347  20010882.6214   20010886.8804   20010883.165
        47.7004         45.4004
 -15510180.70447 -12068725.85747  21019676.0864   21019680.4404   21019675.785
        47.0004         44.4004
 16  2 13  1  4  0.0000000  0  8G30G05G21G18G29G13G20G15
   -246946.01146   -187411.31846  23762875.4154   23762884.3354   23762874.373
        38.0004         36.0004
  -7186690.23947  -5576524.19746  22458207.1354   22458211.7144   22458206.470
        43.6004         40.9004
 -10921850.42247  -8499405.26146  22291295.7484   22291299.7194   22291296.088
        43.7004         41.2004
  -2692359.65546  -2087177.13846  23317832.5534   23317837.6164   23317833.242
        39.6004         37.3004
 -10477340.39646  -8149311.63646  22730205.8094   22730211.0074   22730205.906
        41.6004         39.2004
 -14012201.63247 -10895099.89947  20707926.2114   20707930.1114   20707925.975
        47.2004         44.5004
 -17692324.80547 -13764222.97247  20011077.2084   20011081.6084   20011077.633
        47.7004         45.4004
 -15575041.87147 -12119267.01847  21007333.4884   21007337.5594   21007332.509
        46.9004         44.2004
 16  2 13  1  4 30.0000000  0  8G30G05G21G18G29G13G20G15
   -231259.23346   -175187.90246  23765860.9014   23765868.2164   23765861.384
        38.2004         36.2004
  -7101748.10547  -5510335.59646  22474370.8314   22474375.5534   22474370.285
        43.4004         40.7004
 -10986150.56447  -8549509.29046  22279059.5634   22279064.2494   22279060.261
        43.9004         41.2004
  -2773333.48846  -2150273.62746  23302424.0354   23302427.8064   23302424.630
        39.7004         37.3004
 -10382380.89446  -8075317.29346  22748276.0394   22748281.0814   22748275.339
        41.6004         39.2004
 -14006704.03347 -10890816.07647  20708972.2744   20708976.3834   20708972.033
        47.2004         44.5004
 -17690875.44247 -13763093.61847  20011352.9154   20011357.4164   20011353.474
        47.7004         45.4004
 -15639409.70947 -12169423.75647  20995084.7184   20995089.2264   20995084.324
        47.0004         44.4004
 16  2 13  1  5  0.0000000  0  8G30G05G21G18G29G13G20G15
   -214991.14946   -162511.50346  23768956.0414   23768964.1184   23768955.271
        38.3004         36.4004
  -7016614.27947  -5443997.62446  22490571.5644   22490576.4504   22490571.217
        43.4004         40.7004
 -11050164.37447  -8599390.20246  22266878.5924   22266882.8464   22266878.733
        43.9004         41.2004
  -2854178.52746  -2213269.76646  23287039.7174   23287044.1874   23287040.174
        39.9004         37.6004
 -10287118.66846  -8001087.06346  22766403.6384   22766408.4584   22766403.132
        41.6004         39.0004
 -14000597.25147 -10886057.56147  20710134.8894   20710138.2854   20710134.779
        47.2004         44.5004
 -17688999.18647 -13761631.62247  20011709.8894   20011714.4234   20011710.421
        47.7004         45.4004
 -15703282.78447 -12219194.96647  20982929.7004   20982934.5944   20982929.439
        47.0004         44.4004
 16  2 13  1  5 30.0000000  0  8G30G05G21G18G29G13G20G15
   -198142.07246   -149382.39446  23772162.4564   23772170.6984   23772161.751
        38.5004         36.4004
  -6931290.09047  -5377511.31446  22506808.1534   22506813.0184   22506807.835
        43.4004         40.7004
 -11113890.13647  -8649046.66146  22254751.9774   22254756.0314   22254752.643
        43.9004         41.4004
  -2934894.21346  -2276165.11546  23271679.5694   23271683.8224   23271680.690
        39.9004         37.6004
 -10191556.82146  -7926623.35846  22784588.2674   22784593.6424   22784588.430
        41.6004         39.2004
 -13993881.98747 -10880824.90247  20711412.2544   20711416.2594   20711412.381
        47.2004         44.5004
 -17686696.25047 -13759837.14247  20012148.3474   20012152.7864   20012148.911
        47.7004         45.4004
 -15766659.52847 -12268579.42947  20970869.7264   20970874.2334   20970868.856
        47.0004         44.4004
 16  2 13  1  6  0.0000000  0  8G30G05G21G18G29G13G20G15
   -180712.30646   -135800.80146  23775479.7644   23775488.3144   23775480.194
        38.9004         36.7004
  -6845776.71347  -5310877.59746  22523081.2844   22523085.5714   22523080.534
        43.4004         40.7004
 -11177325.83147  -8698477.09946  22242680.5224   22242684.7144   22242680.942
        43.9004         41.2004
  -3015479.77346  -2338959.05846  23256344.9844   23256349.0864   23256345.355
        40.1004         37.6004
 -10095697.98746  -7851928.24046  22802830.0724   22802834.6194   22802830.154
        41.6004         39.0004
 -13986558.47047 -10875118.28447  20712806.0284   20712809.8794   20712805.959
        47.2004         44.5004
 -17683966.48547 -13757710.07047  20012667.7494   20012671.9204   20012668.317
        47.7004         45.4004
 -15829538.46447 -12317575.99947  20958904.1914   20958908.7244   20958903.842
        47.0004         44.4004
 16  2 13  1  6 30.0000000  0  8G30G05G21G18G29G13G20G15
   -162702.42946   -121767.14446  23778906.1094   23778914.0304   23778906.644
        39.2004         36.9004
  -6760075.70847  -5244097.66546  22539389.8194   22539393.8754   22539389.063
        43.4004         40.7004
 -11240469.79247  -8747680.20546  22230664.8244   22230668.4864   22230665.434
        44.1004         41.4004
  -3095934.50746  -2401651.05946  23241035.3654   23241039.8464   23241035.503
        40.1004         37.8004
  -9999545.86246  -7777004.57846  22821127.8084   22821132.7244   22821127.397
        41.5004         39.2004
 -13978627.83147 -10868938.58247  20714315.3204   20714319.0744   20714314.988
        47.2004         44.5004
 -17680810.16847 -13755250.61647  20013268.4484   20013272.4784   20013268.732
        47.7004         45.4004
 -15891918.15447 -12366183.53447  20947033.6264   20947038.4434   20947033.347
        47.2004         44.5004
 16  2 13  1  7  0.0000000  0  8G30G05G21G18G29G13G20G15
   -144112.70446   -107281.70246  23782443.8294   23782452.6244   23782442.530
        39.0004         36.9004
  -6674187.89647  -5177172.16946  22555733.5134   22555737.6254   22555733.049
        43.2004         40.6004
 -11303320.26647  -8796654.61746  22218704.3824   22218708.7204   22218704.983
        43.9004         41.2004
  -3176258.23246  -2464240.96646  23225749.9364   23225754.2154   23225750.372
        40.1004         37.6004
  -9903102.66746  -7701854.11046  22839479.7874   22839484.7654   22839479.343
        41.5004         39.0004
 -13970090.65647 -10862286.25747  20715939.5874   20715943.8734   20715939.488
        47.2004         44.5004
 -17677227.37147 -13752458.84547  20013950.2184   20013954.5164   20013950.319
        47.7004         45.4004
 -15953797.11547 -12414400.90347  20935258.3964   20935263.1424   20935258.315
        47.2004         44.5004
 16  2 13  1  7 30.0000000  0  8G30G05G21G18G29G13G20G15
   -124943.68946    -92344.85046  23786091.3844   23786099.3704   23786091.781
        39.0004         36.9004
  -6588114.33647  -5110101.93546  22572112.6514   22572117.4034   22572112.691
        43.2004         40.6004
 -11365875.22047  -8845398.75146  22206800.9994   22206804.9104   22206801.739
        44.1004         41.4004
  -3256449.47746  -2526727.65146  23210490.6074   23210494.0304   23210490.586
        40.1004         37.8004
  -9806371.43946  -7626479.20346  22857887.2434   22857892.4474   22857887.213
        41.5004         39.0004
 -13960947.35447 -10855161.62047  20717679.3934   20717683.4354   20717679.799
        47.2004         44.7004
 -17673218.28047 -13749334.89647  20014713.1464   20014717.2454   20014713.559
        47.7004         45.4004
 -16015173.93247 -12462226.98247  20923579.1384   20923583.2244   20923578.586
        47.2004         44.5004
 16  2 13  1  8  0.0000000  0  8G30G05G21G18G29G13G20G15
   -105196.01746    -76957.07446  23789850.7894   23789858.1824   23789850.647
        39.0004         36.7004
  -6501856.53647  -5042888.15046  22588527.0514   22588531.6344   22588526.313
        43.2004         40.6004
 -11428133.21447  -8893911.49646  22194954.0844   22194957.3484   22194953.952
        44.1004         41.6004
  -3336508.24246  -2589111.10946  23195254.8454   23195259.0504   23195255.844
        40.1004         37.6004
  -9709355.64146  -7550882.55346  22876348.4924   22876354.0854   22876348.094
        41.5004         39.0004
 -13951199.05247 -10847565.56047  20719535.0264   20719538.7954   20719534.498
        47.2004         44.7004
 -17668783.11247 -13745878.93747  20015557.3224   20015561.2614   20015557.530
        47.7004         45.4004
 -16076047.54147 -12509660.95047  20911994.8034   20911999.6154   20911994.667
        47.2004         44.5004
 16  2 13  1  8 30.0000000  0  8G30G05G21G18G29G13G20G15
    -84869.88746    -61118.56946  23793716.3124   23793724.3994   23793715.805
        38.7004         36.4004
  -6415415.54447  -4975531.60946  22604976.4224   22604980.7294   22604976.567
        43.2004         40.6004
 -11490092.01747  -8942191.10546  22183163.3104   22183167.2784   22183164.097
        44.1004         41.6004
  -3416433.36146  -2651390.41446  23180046.4464   23180049.9334   23180046.690
        40.1004         37.6004
  -9612058.14646  -7475066.39246  22894863.9194   22894869.3164   22894863.270
        41.3004         38.6004
 -13940846.08847 -10839498.33547  20721505.0204   20721509.1444   20721504.740
        47.2004         44.7004
 -17663921.78747 -13742090.91347  20016482.2774   20016486.4974   20016482.624
        47.7004         45.2004
 -16136416.08547 -12556701.36747  20900507.2344   20900512.0174   20900507.202
        47.2004         44.5004
 16  2 13  1  9  0.0000000  0  8G30G05G21G18G29G13G20G15
    -63966.17846    -44830.01146  23797694.4824   23797703.6214   23797694.544
        38.5004         36.2004
  -6328792.73347  -4908033.38946  22621460.0544   22621464.9484   22621459.140
        43.2004         40.6004
 -11551750.12747  -8990236.40046  22171430.6534   22171434.1984   22171430.588
        44.2004         41.6004
  -3496224.79846  -2713565.57746  23164862.3494   23164866.2744   23164862.512
        40.1004         37.8004
  -9514481.65946  -7399032.83446  22913431.8594   22913437.1144   22913431.181
        41.1004         38.5004
 -13929889.70747 -10830960.91547  20723589.8524   20723593.8424   20723589.666
        47.2004         44.5004
 -17658635.11347 -13737971.44347  20017488.1354   20017492.4774   20017488.574
        47.5004         45.2004
 -16196278.68947 -12603347.54547  20889115.9284   20889120.7444   20889115.878
        47.2004         44.7004
 16  2 13  1  9 30.0000000  0  8G30G05G21G18G29G13G20G15
    -42485.21546    -28091.62046  23801784.4624   23801790.3464   23801783.800
        38.5004         36.4004
  -6241989.04847  -4840394.24046  22637978.0524   22637983.2594   22637977.584
        43.2004         40.6004
 -11613105.66047  -9038045.92646  22159754.7774   22159758.2964   22159755.042
        44.1004         41.6004
  -3575881.38946  -2775635.66446  23149704.2794   23149708.5424   23149703.945
        40.1004         37.6004
  -9416629.17846  -7322784.20346  22932052.3194   22932058.7424   22932052.641
        40.9004         38.3004
 -13918330.19147 -10821953.51747  20725789.7564   20725793.7394   20725789.513
        47.2004         44.7004
 -17652922.36647 -13733519.97447  20018575.1834   20018579.8304   20018575.891
        47.5004         45.2004
 -16255633.78747 -12649598.27347  20877821.0174   20877825.4194   20877820.723
        47.4004         44.7004
 16  2 13  1 10  0.0000000  0  8G30G05G21G18G29G13G20G15
    -20427.66046    -10903.92646  23805979.4924   23805987.8744   23805979.983
        38.3004         36.0004
  -6155006.00247  -4772615.32346  22654530.9924   22654535.6554   22654531.029
        43.4004         40.7004
 -11674156.93147  -9085618.37046  22148137.3194   22148140.6874   22148137.632
        44.2004         41.8004
  -3655402.58646  -2837600.24746  23134572.1734   23134575.7464   23134571.946
        40.3004         37.9004
  -9318504.04246  -7246323.13746  22950725.8604   22950730.7074   22950725.065
        40.6004         37.9004
 -13906168.74347 -10812477.08247  20728103.9274   20728107.7494   20728103.823
        47.4004         44.7004
 -17646783.97147 -13728736.83047  20019743.4724   20019747.7854   20019743.993
        47.7004         45.2004
 -16314479.83747 -12695452.33547  20866622.8194   20866627.4314   20866622.567
        47.4004         44.7004
 16  2 13  1 10 30.0000000  0  8G30G05G21G18G29G13G20G15
      2206.02446      6732.69546  23810288.1284   23810296.6724   23810286.398
        38.5004         36.2004
  -6067844.23547  -4704697.14646  22671117.2704   22671122.2174   22671117.324
        43.4004         40.9004
 -11734901.67347  -9132951.95346  22136577.9114   22136581.6954   22136578.400
        44.4004         41.8004
  -3734787.60046  -2899458.69946  23119465.7244   23119469.9144   23119466.087
        40.6004         38.1004
  -9220109.04046  -7169651.76946  22969449.1544   22969454.4614   22969448.277
        40.6004         38.1004
 -13893406.05847 -10802532.15847  20730532.2844   20730536.2724   20730531.965
        47.4004         44.7004
 -17640220.14047 -13723622.17247  20020992.4794   20020996.7084   20020992.857
        47.7004         45.2004
 -16372815.67347 -12740908.82547  20855522.0464   20855526.5034   20855521.577
        47.4004         44.9004
 16  2 13  1 11  0.0000000  0  8G30G05G21G18G29G13G20G15
     25414.96046     24817.55146  23814705.1734   23814712.3304   23814704.444
        38.5004         36.4004
  -5980505.30347  -4636640.92646  22687737.3944   22687742.8594   22687736.950
        43.4004         40.7004
 -11795338.43347  -9180045.55546  22125077.0244   22125080.5794   22125077.487
        44.2004         41.6004
  -3814036.31746  -2961210.94946  23104384.5014   23104388.9134   23104385.251
        40.4004         38.1004
  -9121447.28146  -7092772.54246  22988224.2114   22988229.3904   22988224.405
        40.4004         37.9004
 -13880042.99847 -10792119.40947  20733075.5554   20733079.4824   20733075.318
        47.4004         44.7004
 -17633231.25447 -13718176.30347  20022322.5484   20022326.7324   20022322.940
        47.7004         45.2004
 -16430640.24047 -12785966.93447  20844518.3114   20844522.8854   20844518.157
        47.5004         44.9004
 16  2 13  1 11 30.0000000  0  8G30G05G21G18G29G13G20G15
     49198.70246     43350.33546  23819230.0174   23819237.0794   23819229.966
        38.3004         36.0004
  -5892989.87347  -4568447.16346  22704390.8774   22704396.4954   22704390.046
        43.4004         40.7004
 -11855465.25247  -9226897.64646  22113635.2084   22113639.2154   22113635.483
        44.2004         41.6004
  -3893147.52446  -3022856.04746  23089329.9664   23089334.9904   23089330.711
        40.6004         38.1004
  -9022521.57446  -7015687.64646  23007049.8034   23007054.5784   23007049.397
        40.4004         37.9004
 -13866080.48947 -10781239.55247  20735732.9624   20735736.1524   20735732.821
        47.4004         44.7004
 -17625817.17447 -13712399.11647  20023733.4254   20023737.7134   20023733.968
        47.7004         45.2004
 -16487951.90847 -12830625.38847  20833612.5044   20833616.8644   20833612.035
        47.5004         44.9004
 16  2 13  1 12  0.0000000  0  8G30G05G21G18G29G13G20G15
     73556.25646     62330.23946  23823865.5194   23823872.6764   23823865.512
        38.5004         36.2004
  -5805300.01047  -4500117.48446  22721078.1834   22721082.8984   22721078.041
        43.2004         40.6004
 -11915280.90347  -9273507.26746  22102252.4574   22102256.2084   22102252.984
        44.2004         41.6004
  -3972120.50346  -3084393.44346  23074302.4434   23074305.7944   23074302.753
        40.6004         37.9004
  -8923335.23046  -6938399.65446  23025923.5724   23025929.2844   23025922.857
        40.4004         38.1004
 -13851519.43747 -10769893.29847  20738503.2124   20738507.4684   20738502.997
        47.4004         44.7004
 -17617978.58947 -13706291.15747  20025224.8804   20025229.3634   20025225.618
        47.7004         45.2004
 -16544749.66547 -12874883.38147  20822804.1874   20822808.6814   20822803.402
        47.5004         44.9004
 16  2 13  1 12 30.0000000  0  8G30G05G21G18G29G13G20G15
     98487.32646     81757.04946  23828609.9164   23828618.2324   23828609.662
        38.5004         36.4004
  -5717436.10547  -4431652.18946  22737798.1144   22737802.9214   22737797.453
        43.2004         40.6004
 -11974783.26947  -9319872.76346  22090929.7814   22090933.7994   22090929.849
        44.2004         41.6004
  -4050954.85446  -3145822.79746  23059300.1654   23059304.9734   23059301.105
        40.6004         38.3004
  -8823891.06846  -6860910.75646  23044847.6054   23044852.9994   23044847.008
        40.6004         38.3004
 -13836360.44547 -10758081.12247  20741388.1134   20741392.4004   20741387.786
        47.4004         44.7004
 -17609715.22547 -13699852.18647  20026797.5104   20026801.9704   20026797.712
        47.7004         45.4004
 -16601032.04047 -12918739.77747  20812093.8814   20812098.3744   20812093.543
        47.5004         45.1004
 16  2 13  1 13  0.0000000  0  8G30G05G21G18G29G13G20G15
    123990.94346    101629.99346  23833462.0254   23833471.6254   23833461.870
        38.5004         36.4004
  -5629399.75047  -4363052.51546  22754551.1324   22754555.5434   22754550.763
        43.2004         40.6004
 -12033970.42147  -9365992.64546  22079666.9024   22079670.7644   22079667.206
        44.2004         41.8004
  -4129649.55846  -3207143.33746  23044325.8044   23044330.4384   23044325.613
        40.6004         38.1004
  -8724192.09946  -6783223.32846  23063819.8574   23063825.3384   23063819.379
        40.8004         38.3004
 -13820604.85447 -10745804.06047  20744386.0584   20744390.5374   20744386.025
        47.4004         44.7004
 -17601027.08647 -13693082.22647  20028450.9094   20028455.1484   20028451.599
        47.7004         45.4004
 -16656797.86747 -12962193.67647  20801482.2734   20801486.5014   20801481.836
        47.5004         45.1004
 16  2 13  1 13 30.0000000  0  8G30G05G21G18G29G13G20G15
    150066.36446    121948.50346  23838424.8264   23838431.9524   23838424.506
        38.5004         36.2004
  -5541191.93847  -4294319.24546  22771336.0774   22771341.1704   22771336.172
        43.0004         40.4004
 -12092840.16747  -9411865.19846  22068463.6624   22068468.3954   22068464.133
        44.2004         41.6004
  -4208203.95646  -3268354.55246  23029377.1944   23029382.1424   23029378.042
        40.8004         38.3004
  -8624241.18246  -6705339.55846  23082840.0554   23082845.1914   23082840.288
        40.6004         38.3004
 -13804253.46547 -10733062.73647  20747497.6804   20747501.6724   20747497.809
        47.4004         44.7004
 -17591914.69947 -13685981.68647  20030184.7454   20030189.0134   20030185.371
        47.7004         45.4004
 -16712045.98047 -13005244.16147  20790968.7104   20790973.1454   20790968.194
        47.7004         45.1004
 16  2 13  1 14  0.0000000  0  8G30G05G21G18G29G13G20G15
    176712.89246    142712.02346  23843496.2274   23843503.7014   23843496.390
        38.5004         36.2004
  -5452813.76447  -4225453.22646  22788154.2014   22788159.5294   22788153.368
        42.9004         40.2004
 -12151391.03347  -9457489.27846  22057322.7054   22057326.4674   22057322.510
        44.2004         41.8004
  -4286618.26346  -3329456.61046  23014455.0594   23014459.2234   23014455.812
        40.6004         38.3004
  -8524041.46046  -6627261.92946  23101907.4174   23101913.5434   23101907.364
        40.4004         37.9004
 -13787307.39247 -10719858.03047  20750722.8764   20750726.6184   20750722.339
        47.4004         44.7004
 -17582378.37147 -13678550.80147  20031999.2774   20032003.9164   20031999.920
        47.5004         45.2004
 -16766775.02647 -13047890.17647  20780554.0334   20780558.5314   20780553.740
        47.7004         45.1004
 16  2 13  1 14 30.0000000  0  8G30G05G21G18G29G13G20G15
    203929.76046    163919.95545  23848674.9994   23848682.8644   23848674.740
        38.2004         35.9004
  -5364266.45047  -4156455.40846  22805003.8734   22805009.0344   22805003.436
        42.7004         40.0004
 -12209621.27447  -9502863.51546  22046241.5994   22046245.4674   22046242.012
        44.4004         41.8004
  -4364890.85446  -3390448.24146  22999560.7934   22999564.4484   22999560.631
        40.6004         38.3004
  -8423596.00446  -6548992.81546  23121021.4964   23121026.9184   23121021.239
        40.4004         37.9004
 -13769767.47147 -10706190.58047  20754060.2764   20754064.4374   20754060.473
        47.4004         44.7004
 -17572418.10947 -13670789.58047  20033894.7484   20033899.3294   20033895.332
        47.5004         45.1004
 -16820984.10547 -13090131.02447  20770238.4134   20770242.9204   20770238.124
        47.5004         45.1004
 16  2 13  1 15  0.0000000  0  8G30G05G21G18G29G13G20G15
    231716.08646    185571.60245  23853962.5094   23853969.9564   23853961.739
        37.8004         35.7004
  -5275551.29247  -4087326.80246  22821886.1604   22821891.2124   22821885.231
        42.7004         40.0004
 -12267529.23447  -9547986.61746  22035222.2944   22035225.4874   22035222.447
        44.4004         41.8004
  -4443021.17646  -3451329.00346  22984692.9174   22984697.7594   22984693.812
        40.8004         38.5004
  -8322908.03146  -6470534.72646  23140180.8394   23140187.8334   23140180.726
        40.3004         37.9004
 -13751634.82047 -10692061.25847  20757511.0234   20757514.8134   20757510.626
        47.4004         44.7004
 -17562034.34247 -13662698.34847  20035871.0744   20035875.4124   20035871.605
        47.5004         45.2004
 -16874672.01147 -13131965.77147  20760022.0144   20760026.5484   20760021.706
        47.7004         45.1004
 16  2 13  1 15 30.0000000  0  8G30G05G21G18G29G13G20G15
    260070.98846    207666.30745  23859359.3944   23859364.6554   23859359.894
        37.8004         35.5004
  -5186669.39347  -4018068.26346  22838800.0544   22838805.3454   22838799.858
        42.9004         40.4004
 -12325112.54247  -9592856.75946  22024264.4034   22024267.9804   22024264.822
        44.4004         41.9004
  -4521008.80446  -3512098.60446  22969852.9754   22969857.1374   22969852.740
        40.9004         38.6004
  -8221980.79046  -6391890.18846  23159387.7234   23159393.0184   23159387.139
        40.1004         37.6004
 -13732910.41947 -10677470.84347  20761074.3604   20761077.8724   20761073.949
        47.4004         44.7004
 -17551227.25347 -13654277.26247  20037927.6734   20037931.8624   20037927.971
        47.5004         45.2004
 -16927837.50747 -13173393.42947  20749905.0414   20749909.4834   20749904.790
        47.7004         45.1004
 16  2 13  1 16  0.0000000  0  8G30G05G21G18G29G13G20G15
    288993.72646    230203.47245  23864861.3074   23864870.8334   23864860.418
        37.6004         35.3004
  -5097621.55447  -3948680.43046  22855745.5964   22855750.8134   22855744.935
        42.9004         40.4004
 -12382369.76747  -9637472.80246  22013368.7004   22013372.5634   22013369.278
        44.6004         41.9004
  -4598852.86946  -3572756.33546  22955039.1764   22955043.1634   22955039.824
        41.1004         38.6004
  -8120816.58546  -6313061.01946  23178638.3664   23178645.0034   23178638.158
        40.1004         37.6004
 -13713595.46147 -10662420.24247  20764749.8734   20764753.5304   20764749.511
        47.4004         44.7004
 -17539997.04447 -13645526.46747  20040064.4584   20040068.9304   20040064.981
        47.5004         45.2004
 -16980479.44347 -13214413.12147  20739887.2954   20739891.8794   20739887.148
        47.7004         45.1004
 16  2 13  1 16 30.0000000  0  8G30G05G21G18G29G13G20G15
    318483.26746    253182.25345  23870473.2104   23870482.6174   23870474.543
        37.6004         35.3004
  -5008408.81147  -3879164.10146  22872721.6614   22872727.4534   22872721.243
        43.0004         40.6004
 -12439299.37547  -9681833.55547  22002535.8224   22002539.5424   22002535.528
        44.8004         42.1004
  -4676553.06646  -3633301.95346  22940253.0704   22940257.4294   22940253.048
        41.1004         38.8004
  -8019418.77946  -6234049.82946  23197933.5254   23197939.4454   23197933.596
        39.9004         37.4004
 -13693690.77947 -10646910.11447  20768537.5374   20768541.4004   20768537.317
        47.4004         44.7004
 -17528343.80147 -13636446.03847  20042282.1434   20042286.4094   20042282.378
        47.5004         45.2004
 -17032596.58847 -13255023.88547  20729970.1604   20729974.2004   20729969.436
        47.7004         45.2004
 16  2 13  1 17  0.0000000  0  8G30G05G21G18G29G13G20G15
    348538.79946    276602.09645  23876193.0464   23876200.4654   23876193.649
        37.1004         35.0004
  -4919032.39647  -3809520.23846  22889729.8074   22889735.0414   22889729.577
        43.0004         40.4004
 -12495899.54547  -9725937.61147  21991765.1624   21991769.0704   21991765.577
        44.8004         42.1004
  -4754108.36946  -3693734.68646  22925495.0654   22925499.3224   22925495.895
        41.3004         38.8004
  -7917790.26146  -6154858.84946  23217273.2854   23217278.7484   23217273.335
        39.9004         37.4004
 -13673197.68547 -10630941.49147  20772436.8024   20772441.5454   20772436.391
        47.2004         44.5004
 -17516268.01847 -13627036.35747  20044580.0154   20044584.3284   20044580.457
        47.5004         45.2004
 -17084188.08347 -13295225.06347  20720152.3174   20720156.9984   20720152.128
        47.7004         45.2004
 16  2 13  1 17 30.0000000  0  8G30G05G21G18G29G13G20G15
    379159.43946    300462.27645  23882019.3504   23882028.6564   23882019.395
        37.0004         35.0004
  -4829493.91947  -3739750.08446  22906767.8794   22906773.7654   22906767.605
        43.0004         40.4004
 -12552168.15647  -9769783.31047  21981057.3574   21981061.1974   21981057.582
        44.8004         42.1004
  -4831517.98646  -3754053.88846  22910765.0934   22910768.6234   22910765.069
        41.5004         39.0004
  -7815933.99846  -6075490.42446  23236655.9874   23236661.1664   23236655.680
        39.9004         37.6004
 -13652117.32847 -10614515.25747  20776448.5654   20776452.5444   20776448.357
        47.2004         44.7004
 -17503769.77847 -13617297.49447  20046958.4374   20046962.6504   20046958.816
        47.5004         45.2004
 -17135252.89147 -13335015.83447  20710434.6824   20710439.4884   20710434.489
        47.9004         45.2004
 16  2 13  1 18  0.0000000  0  8G30G05G21G18G29G13G20G15
    410344.16246    324761.97045  23887954.5674   23887963.5094   23887953.829
        37.1004         35.2004
  -4739794.08447  -3669854.21246  22923838.3414   22923843.1504   22923838.099
        43.0004         40.4004
 -12608103.33847  -9813369.19647  21970413.7504   21970417.0094   21970414.056
        44.8004         42.3004
  -4908781.45846  -3814259.20846  22896061.4434   22896066.3644   22896062.445
        41.5004         39.0004
  -7713853.37446  -5995947.14946  23256080.8884   23256086.7504   23256080.884
        39.7004         37.3004
 -13630450.71747 -10597632.19847  20780571.4354   20780575.5994   20780571.413
        47.4004         44.7004
 -17490849.55247 -13607229.80647  20049417.0224   20049421.4824   20049417.690
        47.5004         45.2004
 -17185789.81147 -13374395.26447  20700818.1894   20700822.9724   20700817.801
        47.9004         45.2004
 16  2 13  1 18 30.0000000  0  8G30G05G21G18G29G13G20G15
    442092.06946    349500.51545  23893996.9364   23894003.5474   23893996.310
        37.3004         35.2004
  -4649934.33747  -3599833.73046  22940938.0004   22940942.9824   22940936.857
        42.9004         40.4004
 -12663703.61547  -9856694.11247  21959833.0694   21959836.7694   21959833.135
        44.9004         42.3004
  -4985897.86046  -3874349.93046  22881386.9124   22881391.2524   22881386.906
        41.3004         39.0004
  -7611551.07346  -5916231.16846  23275548.2054   23275554.1874   23275548.729
        39.7004         37.6004
 -13608199.13447 -10580293.32047  20784805.8344   20784809.8884   20784805.434
        47.4004         44.7004
 -17477507.31847 -13596833.27547  20051956.0064   20051960.3354   20051956.422
        47.5004         45.4004
 -17235797.75147 -13413362.49247  20691302.0744   20691306.2254   20691301.825
        47.9004         45.4004
 16  2 13  1 19  0.0000000  0  8G30G05G21G18G29G13G20G15
    474402.08246    374677.06945  23900144.0604   23900151.1284   23900143.626
        37.0004         35.0004
  -4559915.58647  -3529689.34546  22958067.4454   22958073.2704   22958067.047
        42.9004         40.2004
 -12718967.95447  -9899757.25747  21949316.5914   21949320.3494   21949317.000
        44.8004         42.1004
  -5062866.60446  -3934325.58846  22866740.4874   22866744.5134   22866740.834
        41.3004         38.8004
  -7509030.30046  -5836344.93046  23295058.1334   23295064.0774   23295057.435
        39.7004         37.6004
 -13585363.70247 -10562499.49747  20789151.4684   20789155.2794   20789150.990
        47.2004         44.4004
 -17463743.61347 -13586108.33447  20054575.1764   20054579.5654   20054575.620
        47.5004         45.1004
 -17285275.81947 -13451916.83447  20681886.5804   20681891.2894   20681886.123
        47.7004         45.1004
 16  2 13  1 19 30.0000000  0  8G30G05G21G18G29G13G20G15
    507273.22846    400290.88445  23906399.0314   23906407.6254   23906397.880
        37.0004         35.2004
  -4469738.97447  -3459421.95846  22975227.7524   22975233.0314   22975227.273
        42.7004         40.0004
 -12773892.58347  -9942555.69547  21938864.3244   21938868.6604   21938864.505
        44.8004         42.1004
  -5139687.08946  -3994185.73346  22852121.6674   22852126.5704   22852122.361
        41.3004         38.8004
  -7406294.17946  -5756290.90246  23314607.6904   23314613.9864   23314607.943
        39.7004         37.4004
 -13561945.53447 -10544251.58747  20793608.0314   20793611.5674   20793607.573
        47.2004         44.5004
 -17449558.61247 -13575055.11047  20057274.5634   20057278.7954   20057274.920
        47.5004         45.1004
 -17334222.91947 -13490057.44047  20672572.3834   20672577.0764   20672571.879
        47.7004         45.1004
 16  2 13  1 20  0.0000000  0  8G30G05G21G18G29G13G20G15
    540704.44146    426341.07245  23912761.3304   23912769.6144   23912762.503
        37.3004         35.3004
  -4379405.58547  -3389032.40246  22992417.6134   22992423.1154   22992417.664
        42.5004         39.9004
 -12828477.05147  -9985089.07547  21928477.8054   21928481.5764   21928478.357
        44.8004         42.3004
  -5216358.59646  -4053929.78746  22837531.6954   22837536.1614   22837532.183
        41.3004         38.6004
  -7303345.84346  -5676071.51446  23334198.9504   23334204.0624   23334198.918
        39.7004         37.3004
 -13537946.03747 -10525550.69747  20798174.5544   20798178.4874   20798174.075
        47.2004         44.5004
 -17434952.53447 -13563673.76947  20060053.8684   20060058.3964   20060054.415
        47.5004         45.1004
 -17382638.20147 -13527783.63747  20663359.0054   20663363.6104   20663358.857
        47.7004         45.1004
 16  2 13  1 20 30.0000000  0  8G30G05G21G18G29G13G20G15
    574694.73246    452826.95245  23919229.4304   23919237.2784   23919229.094
        37.3004         35.5004
  -4288916.51447  -3318521.55246  23009637.5234   23009642.8304   23009637.509
        42.5004         39.9004
 -12882719.29547 -10027355.78447  21918155.3414   21918159.5354   21918155.457
        44.9004         42.1004
  -5292880.38546  -4113557.20046  22822970.1324   22822974.6764   22822969.771
        41.3004         38.8004
  -7200187.96446  -5595688.85646  23353828.8374   23353835.3514   23353828.914
        39.6004         37.1004
 -13513366.49747 -10506397.83247  20802851.7084   20802856.3004   20802851.590
        47.0004         44.5004
 -17419925.77347 -13551964.62847  20062913.4554   20062917.9234   20062913.980
        47.5004         45.2004
 -17430520.57947 -13565094.59047  20654247.5134   20654252.1904   20654247.063
        47.9004         45.2004
 16  2 13  1 21  0.0000000  0  8G30G05G21G18G29G13G20G15
    609243.11646    479747.68345  23925802.1954   23925812.1984   23925800.832
        37.0004         34.8004
  -4198272.89947  -3247890.25646  23026886.4634   23026891.9464   23026886.003
        42.3004         39.7004
 -12936617.69247 -10069354.56747  21907899.1114   21907902.8524   21907899.827
        44.8004         42.1004
  -5369251.72646  -4173067.36346  22808438.6414   22808441.8954   22808438.260
        41.5004         39.0004
  -7096823.80746  -5515145.45546  23373498.5474   23373504.4534   23373498.067
        39.4004         37.1004
 -13488207.64947 -10486793.54647  20807639.4094   20807643.8474   20807639.365
        47.2004         44.5004
 -17404478.64947 -13539927.92847  20065852.9204   20065857.4454   20065853.653
        47.5004         45.1004
 -17477868.85147 -13601989.34847  20645237.3774   20645241.9854   20645236.992
        47.9004         45.4004
 16  2 13  1 21 30.0000000  0  8G30G05G21G18G29G13G20G15
    644348.24546    507102.26245  23932485.8384   23932491.3924   23932486.227
        37.1004         35.3004
  -4107475.58947  -3177139.20546  23044164.7004   23044170.1194   23044163.355
        42.2004         39.7004
 -12990170.44847 -10111084.01647  21897707.8564   21897712.6824   21897708.342
        44.8004         42.1004
  -5445471.86646  -4232459.70546  22793933.5294   22793937.3304   22793934.215
        41.6004         39.2004
  -6993256.55646  -5434443.78246  23393206.0434   23393212.2464   23393205.763
        39.6004         37.3004
 -13462471.26947 -10466739.24047  20812536.9684   20812540.8974   20812536.858
        47.2004         44.4004
 -17388611.32547 -13527563.80247  20068872.0574   20068876.9974   20068872.548
        47.5004         45.1004
 -17524682.30948 -13638467.37747  20636328.8504   20636333.7364   20636328.897
        48.1004         45.6004
 16  2 13  1 22  0.0000000  0  8G30G05G21G18G29G13G20G15
    680009.28346    534890.03345  23939269.7634   23939280.1064   23939269.829
        37.1004         35.2004
  -4016526.06547  -3106269.54946  23061471.8084   23061477.3384   23061471.724
        42.2004         39.5004
 -13043375.49247 -10152542.51947  21887584.0204   21887587.6764   21887584.215
        44.9004         42.3004
  -5521539.98446  -4291733.58846  22779458.1154   22779462.1744   22779458.660
        41.6004         39.0004
  -6889488.77646  -5353585.88346  23412953.2494   23412959.2454   23412952.895
        39.6004         37.3004
 -13436158.57447 -10446235.84847  20817543.9524   20817548.4054   20817544.028
        47.0004         44.4004
 -17372323.74147 -13514872.20147  20071971.9464   20071976.2674   20071972.292
        47.4004         45.1004
 -17570959.81548 -13674527.76847  20627522.9204   20627527.4014   20627522.365
        48.1004         45.4004
 16  2 13  1 22 30.0000000  0  8G30G05G21G18G29G13G20G15
    716224.81546    563109.84745  23946161.1544   23946171.7344   23946161.336
        36.8004         34.8004
  -3925425.53147  -3035282.23246  23078807.9034   23078812.5584   23078807.261
        42.2004         39.5004
 -13096231.66747 -10193729.17847  21877525.7184   21877529.5374   21877525.776
        44.9004         42.3004
  -5597456.10346  -4350889.00646  22765011.5574   22765015.9654   22765011.533
        41.6004         39.0004
  -6785523.83646  -5272574.34046  23432737.2794   23432743.6514   23432736.846
        39.6004         37.3004
 -13409270.98347 -10425284.49547  20822660.9344   20822664.9044   20822660.758
        47.2004         44.5004
 -17355617.13747 -13501854.09347  20075151.0814   20075155.4794   20075151.526
        47.4004         45.1004
 -17616700.97148 -13710170.23147  20618818.5854   20618823.2954   20618818.415
        48.1004         45.4004
 16  2 13  1 23  0.0000000  0  8G30G05G21G18G29G13G20G15
    752993.80646    591760.93445  23953159.1474   23953167.4204   23953157.794
        36.6004         34.6004
  -3834174.60947  -2964177.72546  23096172.5294   23096177.3614   23096172.576
        42.2004         39.7004
 -13148736.61847 -10234642.15847  21867534.3064   21867538.3804   21867534.370
        44.9004         42.3004
  -5673218.41846  -4409924.58346  22750594.1124   22750598.9274   22750595.143
        41.6004         39.2004
  -6681364.60746  -5191411.40246  23452557.8924   23452563.6944   23452557.953
        39.4004         37.1004
 -13381809.62947 -10403886.04647  20827886.6664   20827890.3944   20827886.350
        47.2004         44.5004
 -17338491.26647 -13488509.28047  20078409.9584   20078414.5044   20078410.293
        47.5004         45.1004
 -17661904.54748 -13745393.79947  20610216.5004   20610220.8974   20610216.137
        48.1004         45.6004
 16  2 13  1 23 30.0000000  0  8G30G05G21G18G29G13G20G15
    790315.01846    620842.36945  23960260.1894   23960267.0424   23960261.327
        36.6004         34.6004
  -3742774.64247  -2892957.06946  23113564.7744   23113570.2404   23113564.704
        42.2004         39.7004
 -13200888.78047 -10275280.24147  21857610.3404   21857614.1774   21857610.605
        44.9004         42.5004
  -5748826.71446  -4468840.15046  22736206.4654   22736210.9574   22736207.199
        41.6004         39.2004
  -6577014.28446  -5110099.58446  23472415.6264   23472421.3584   23472416.185
        39.2004         36.7004
 -13353775.98147 -10382041.65747  20833220.8504   20833225.5814   20833220.633
        47.0004         44.4004
 -17320946.80447 -13474838.29947  20081748.4364   20081753.1184   20081749.148
        47.5004         45.1004
 -17706569.70848 -13780197.82347  20601717.3114   20601721.6364   20601716.794
        48.1004         45.4004
 16  2 13  1 24  0.0000000  0  8G30G05G21G18G29G13G20G15
    828187.37946    650353.30145  23967465.9584   23967478.0024   23967466.938
        36.4004         34.6004
  -3651226.64647  -2821621.08146  23130986.4354   23130991.8364   23130986.222
        42.3004         39.7004
 -13252686.35847 -10315642.01847  21847753.6714   21847757.1004   21847753.641
        44.9004         42.3004
  -5824280.52746  -4527635.32246  22721848.2864   22721852.5434   22721849.044
        41.6004         39.2004
  -6472475.93946  -5028641.22446  23492308.3814   23492314.4134   23492308.366
        39.2004         36.9004
 -13325171.26047 -10359752.27447  20838664.1484   20838668.5874   20838664.053
        47.0004         44.4004
 -17302983.68147 -13460841.08447  20085166.8474   20085171.4074   20085167.171
        47.5004         45.1004
 -17750695.64548 -13814581.66647  20593320.2744   20593324.6354   20593319.777
        48.1004         45.4004
 16  2 13  1 24 30.0000000  0  8G30G05G21G18G29G13G20G15
    866609.53146    680292.57545  23974779.8204   23974788.2594   23974779.116
        36.3004         34.5004
  -3559531.88747  -2750170.73846  23148435.9584   23148441.0574   23148435.779
        42.2004         39.9004
 -13304127.59647 -10355726.12347  21837964.6534   21837968.2464   21837965.156
        44.9004         42.5004
  -5899579.07746  -4586309.52646  22707519.5504   22707524.2754   22707519.339
        41.6004         39.3004
  -6367752.56846  -4947038.70746  23512236.4534   23512242.2184   23512236.174
        38.9004         36.4004
 -13295997.13247 -10337019.19547  20844216.5944   20844220.2294   20844215.931
        47.0004         44.5004
 -17284602.27247 -13446517.93547  20088664.6284   20088669.2794   20088665.124
        47.4004         45.1004
 -17794281.71248 -13848544.84047  20585026.3194   20585030.6684   20585025.797
        48.1004         45.4004
 16  2 13  1 25  0.0000000  0  8G30G05G21G18G29G13G20G15
    905580.24546    710659.37245  23982194.8474   23982200.4204   23982195.593
        36.3004         34.5004
  -3467691.34547  -2678606.79146  23165912.9104   23165917.5774   23165911.896
        42.2004         39.7004
 -13355210.78647 -10395531.23647  21828243.6004   21828247.4804   21828243.925
        45.1004         42.3004
  -5974721.67146  -4644862.20346  22693219.9034   22693225.2224   22693220.607
        41.8004         39.3004
  -6262846.98946  -4865294.19246  23532199.6114   23532205.5074   23532199.776
        38.9004         36.6004
 -13266254.80547 -10313843.36147  20849876.0964   20849879.9144   20849875.745
        47.0004         44.4004
 -17265803.14647 -13431869.29147  20092242.0944   20092246.8164   20092242.534
        47.4004         45.1004
 -17837327.02748 -13882086.64547  20576834.8614   20576839.4124   20576834.262
        48.1004         45.6004
 16  2 13  1 25 30.0000000  0  8G30G05G21G18G29G13G20G15
    945098.37146    741452.71845  23989714.2544   23989725.9114   23989712.295
        36.3004         34.6004
  -3375705.67647  -2606929.75246  23183417.0834   23183422.1794   23183416.020
        42.3004         39.7004
 -13405934.53347 -10435056.26247  21818591.5654   21818595.2984   21818592.055
        45.1004         42.6004
  -6049707.48547  -4703292.72446  22678950.5954   22678955.6234   22678951.377
        42.0004         39.5004
  -6157762.20846  -4783410.05746  23552196.4334   23552203.0064   23552195.220
        38.9004         36.6004
 -13235945.57647 -10290225.79247  20855643.1684   20855647.7404   20855643.218
        47.0004         44.4004
 -17246586.60047 -13416895.38847  20095898.9584   20095903.5904   20095899.601
        47.5004         45.2004
 -17879830.49148 -13915206.23847  20568746.8184   20568751.1564   20568746.182
        48.2004         45.6004
 16  2 13  1 26  0.0000000  0  8G30G05G21G18G29G13G20G15
    985162.52646    772671.50645  23997340.5974   23997347.9604   23997339.592
        36.4004         34.6004
  -3283576.45547  -2535140.87346  23200948.4634   23200954.2344   23200947.776
        42.2004         39.7004
 -13456296.22947 -10474299.16147  21809007.6634   21809011.7444   21809008.044
        45.1004         42.6004
  -6124535.17147  -4761600.00946  22664712.0504   22664716.7994   22664712.656
        42.0004         39.5004
  -6052501.25246  -4701388.64646  23572226.5284   23572233.1404   23572227.615
        38.7004         36.6004
 -13205070.75847 -10266167.50547  20861518.5224   20861522.8674   20861518.520
        47.0004         44.4004
 -17226952.80847 -13401596.35547  20099635.2874   20099639.8944   20099635.664
        47.5004         45.2004
 -17921791.39248 -13947903.04647  20560761.8834   20560766.4184   20560761.537
        48.2004         45.6004
 16  2 13  1 26 30.0000000  0  8G30G05G21G18G29G13G20G15
   1025771.30746    804314.68445  24005066.0554   24005073.3794   24005066.533
        36.3004         34.6004
  -3191304.73247  -2463240.93946  23218506.8654   23218513.3084   23218506.269
        42.0004         39.3004
 -13506294.77847 -10513259.09347  21799493.3904   21799497.5374   21799493.599
        45.1004         42.6004
  -6199204.82147  -4819784.16746  22650502.7974   22650507.0514   22650502.563
        42.0004         39.5004
  -5947067.77346  -4619232.80546  23592292.0504   23592296.2284   23592290.816
        38.7004         36.6004
 -13173632.22147 -10241669.95847  20867501.6894   20867505.4764   20867501.625
        47.0004         44.4004
 -17206902.34347 -13385972.64747  20103450.7294   20103455.2964   20103451.293
        47.5004         45.1004
 -17963209.19448 -13980176.66747  20552880.3914   20552884.6284   20552879.558
        48.2004         45.6004
 16  2 13  1 27  0.0000000  0  8G30G05G21G18G29G13G20G15
   1066923.59046    836381.38545  24012898.2444   24012906.3144   24012896.893
        36.3004         34.6004
  -3098890.82146  -2391230.21646  23236093.1424   23236099.5214   23236092.507
        41.8004         39.2004
 -13555928.47647 -10551934.71947  21790048.0324   21790052.8594   21790048.733
        45.1004         42.6004
  -6273715.55247  -4877844.49246  22636323.7154   22636328.0374   22636323.924
        42.0004         39.3004
  -5841464.28046  -4536944.45246  23612387.4214   23612392.4864   23612386.197
        38.9004         36.7004
 -13141631.35547 -10216734.23347  20873590.4654   20873595.0064   20873590.599
        47.0004         44.2004
 -17186435.39647 -13370024.40447  20107345.3134   20107349.7544   20107345.966
        47.4004         44.9004
 -18004083.02448 -14012026.40647  20545102.1644   20545106.8634   20545102.011
        48.2004         45.6004
 16  2 13  1 27 30.0000000  0  8G30G05G21G18G29G13G20G15
   1108617.76246    868870.33945  24020831.5354   24020841.0344   24020832.189
        36.6004         34.8004
  -3006337.19946  -2319110.62246  23253704.8044   23253711.0704   23253704.717
        41.6004         39.0004
 -13605195.37047 -10590324.53447  21780673.3594   21780677.4394   21780673.657
        45.1004         42.5004
  -6348066.67247  -4935780.45446  22622175.6904   22622179.9614   22622175.654
        42.0004         39.3004
  -5735693.87146  -4454526.05646  23632514.2524   23632519.7834   23632513.597
        38.9004         36.6004
 -13109069.73947 -10191361.56647  20879787.2004   20879791.1754   20879787.202
        46.9004         44.4004
 -17165552.57047 -13353752.10147  20111319.5614   20111323.9384   20111319.956
        47.4004         45.1004
 -18044412.29648 -14043451.82047  20537427.9334   20537432.4954   20537427.371
        48.2004         45.6004
 16  2 13  1 28  0.0000000  0  8G30G05G21G18G29G13G20G15
   1150852.67546    901780.64045  24028869.4834   24028877.8314   24028869.015
        36.8004         35.0004
  -2913644.20546  -2246882.42946  23271344.3564   23271350.0544   23271343.125
        41.5004         38.8004
 -13654093.88447 -10628427.29947  21771368.2214   21771372.1124   21771368.613
        45.1004         42.6004
  -6422257.45247  -4993591.47246  22608057.0494   22608062.1334   22608057.616
        42.0004         39.7004
  -5629759.53546  -4371979.94146  23652672.9084   23652679.4824   23652672.236
        39.0004         36.7004
 -13075948.63147 -10165552.93047  20886090.1334   20886094.0234   20886089.837
        46.9004         44.2004
 -17144254.06947 -13337155.89447  20115372.3464   20115376.6954   20115372.757
        47.5004         45.1004
 -18084196.27748 -14074452.33647  20529857.4314   20529861.7824   20529856.984
        48.2004         45.8004
 16  2 13  1 28 30.0000000  0  8G30G05G21G18G29G13G20G15
   1193626.87146    935111.14045  24037008.2534   24037016.6334   24037009.568
        36.8004         35.0004
  -2820812.64946  -2174546.25546  23289009.7664   23289014.8214   23289009.900
        41.3004         38.6004
 -13702621.98447 -10666241.42847  21762133.9084   21762137.6144   21762134.240
        45.3004         42.6004
  -6496286.88847  -5051276.76246  22593970.5224   22593974.0544   22593970.438
        42.2004         39.7004
  -5523664.23046  -4289308.41046  23672861.6714   23672868.4394   23672862.097
        38.9004         36.6004
 -13042269.47047 -10139309.43847  20892499.2454   20892503.0444   20892498.874
        46.9004         44.2004
 -17122540.28247 -13320236.08847  20119504.4254   20119508.9144   20119504.974
        47.5004         45.1004
 -18123434.07148 -14105027.24147  20522390.4334   20522395.0404   20522390.236
        48.2004         45.8004
 16  2 13  1 29  0.0000000  0  8G30G05G21G18G29G13G20G15
   1236938.92046    968860.77145  24045250.0474   24045258.9734   24045250.885
        37.0004         35.0004
  -2727843.79346  -2102103.08246  23306701.3544   23306706.5064   23306700.637
        41.1004         38.6004
 -13750778.35147 -10703765.89047  21752969.5864   21752974.0904   21752970.327
        45.1004         42.5004
  -6570154.11047  -5108835.65146  22579913.1374   22579917.5054   22579913.551
        42.2004         39.5004
  -5417411.27346  -4206514.00346  23693081.1644   23693087.5904   23693080.401
        38.7004         36.6004
 -13008033.82847 -10112632.34847  20899013.1994   20899017.7694   20899012.762
        46.9004         44.0004
 -17100411.79947 -13302993.14347  20123715.2754   20123720.0064   20123715.881
        47.5004         45.1004
 -18162125.29448 -14135176.25247  20515028.0724   20515032.5004   20515027.467
        48.2004         45.8004
 16  2 13  1 29 30.0000000  0  8G30G05G21G18G29G13G20G15
   1280787.44546   1003028.40145  24053593.3124   24053603.0664   24053594.155
        37.1004         35.2004
  -2634738.46146  -2029553.57946  23324418.2194   23324424.0844   23324417.748
        41.1004         38.6004
 -13798560.87847 -10740999.05247  21743877.2674   21743881.1014   21743877.900
        45.3004         42.5004
  -6643858.78747  -5166267.89146  22565888.0594   22565892.1694   22565888.700
        42.2004         39.5004
  -5311003.33846  -4123598.84546  23713330.5454   23713336.3574   23713329.919
        38.5004         36.2004
 -12973243.79747 -10085523.25647  20905634.2774   20905638.0954   20905634.252
        46.9004         44.2004
 -17077868.67847 -13285427.10547  20128005.2164   20128009.8404   20128005.668
        47.5004         45.1004
 -18200269.05748 -14164898.67347  20507769.4504   20507773.5734   20507769.109
        48.4004         45.8004
 16  2 13  1 30  0.0000000  0  8G30G05G21G18G29G13G20G15
   1325170.88046   1037612.82745  24062042.6784   24062048.8964   24062042.447
        37.3004         35.5004
  -2541498.12646  -1956898.88346  23342161.5354   23342167.1064   23342160.972
        41.1004         38.8004
 -13845967.95047 -10777939.64447  21734855.9974   21734859.8834   21734856.365
        45.3004         42.6004
  -6717400.21547  -5223572.90846  22551893.7324   22551897.6644   22551894.303
        42.2004         39.5004
  -5204443.68146  -4040565.45346  23733607.7334   23733614.4184   23733607.084
        38.3004         36.2004
 -12937900.61147 -10057983.13547  20912359.7984   20912363.9764   20912359.492
        46.9004         44.0004
 -17054911.49947 -13267538.42047  20132373.7904   20132378.3134   20132374.315
        47.5004         45.1004
 -18237864.92648 -14194194.15647  20500615.0804   20500619.5014   20500614.495
        48.2004         45.8004
 16  2 13  1 30 30.0000000  0  8G30G05G21G18G29G13G20G15
   1370087.87046   1072613.02245  24070588.1544   24070597.7874   24070587.752
        37.3004         35.5004
  -2448123.53946  -1884139.56746  23359931.2864   23359936.6974   23359930.473
        41.3004         39.0004
 -13892998.06947 -10814586.51247  21725906.7914   21725910.0284   21725907.014
        45.3004         42.6004
  -6790777.60347  -5280750.10746  22537929.5734   22537934.8394   22537930.411
        42.2004         39.7004
  -5097735.20046  -3957416.09646  23753913.9474   23753919.9494   23753914.466
        38.5004         36.2004
 -12902005.74947 -10030013.14147  20919190.0494   20919194.0364   20919190.217
        46.9004         44.0004
 -17031540.97347 -13249327.65347  20136820.9614   20136825.5094   20136821.526
        47.5004         45.1004
 -18274912.11048 -14223062.10347  20493565.4614   20493569.6854   20493564.914
        48.4004         45.8004
 16  2 13  1 31  0.0000000  0  8G30G05G21G18G29G13G20G15
   1415536.84146   1108027.71545  24079235.7344   24079245.7454   24079235.737
        37.1004         35.0004
  -2354616.07046  -1811276.71546  23377724.4134   23377730.2364   23377725.034
        41.5004         38.8004
 -13939649.29147 -10850938.13147  21717028.8994   21717033.1464   21717028.717
        45.3004         42.6004
  -6863989.93747  -5337798.69146  22523998.2204   22524002.4454   22523998.642
        42.2004         39.5004
  -4990881.19946  -3874153.33746  23774246.8004   23774254.5674   23774246.898
        38.3004         36.2004
 -12865560.89547 -10001614.59247  20926124.9594   20926129.8044   20926125.015
        46.7004         44.0004
 -17007757.13347 -13230794.82147  20141346.9464   20141351.6794   20141347.516
        47.5004         45.1004
 -18311410.24948 -14251502.22147  20486619.8874   20486624.5194   20486619.425
        48.4004         45.8004
 16  2 13  1 31 30.0000000  0  8G30G05G21G18G29G13G20G15
   1461516.25546   1143855.76845  24087987.1664   24087994.0554   24087987.175
        37.1004         35.2004
  -2260976.46446  -1738310.91946  23395543.4794   23395549.8784   23395542.837
        41.3004         38.8004
 -13985920.87447 -10886993.92947  21708223.1604   21708228.0394   21708223.837
        45.3004         42.6004
  -6937037.21547  -5394718.65346  22510097.6204   22510102.3004   22510098.317
        42.2004         39.7004
  -4883884.48646  -3790779.39546  23794609.8924   23794615.1374   23794608.839
        38.7004         36.6004
 -12828567.57447  -9972788.65747  20933165.0704   20933169.3414   20933165.081
        46.7004         44.2004
 -16983560.49947 -13211940.33147  20145951.5614   20145956.1074   20145952.053
        47.5004         45.1004
 -18347358.57848 -14279513.91247  20479779.0524   20479783.4594   20479778.589
        48.4004         45.8004
 16  2 13  1 32  0.0000000  0  8G30G05G21G18G29G13G20G15
   1508024.82046   1180096.15745  24096836.8344   24096844.1774   24096836.407
        37.3004         35.3004
  -2167205.76246  -1665242.96246  23413387.0734   23413393.3964   23413386.086
        41.3004         39.0004
 -14031809.53147 -10922751.34347  21699491.2854   21699495.4554   21699491.452
        45.3004         42.6004
  -7009917.91547  -5451508.82346  22496228.5024   22496233.1324   22496229.548
        42.3004         39.7004
  -4776747.88746  -3707296.41846  23814995.2694   23815002.0424   23814995.991
        38.3004         36.2004
 -12791027.28947  -9943536.52347  20940308.7894   20940312.7384   20940308.964
        46.9004         44.0004
 -16958951.18047 -13192764.27147  20150634.5584   20150639.2684   20150635.130
        47.5004         45.2004
 -18382756.57448 -14307096.77447  20473042.9334   20473047.7334   20473042.797
        48.4004         45.9004
 16  2 13  1 32 30.0000000  0  8G30G05G21G18G29G13G20G15
   1555060.92046   1216747.57845  24105787.5674   24105796.4944   24105787.512
        37.3004         35.3004
  -2073305.22546  -1592073.83046  23431256.3314   23431262.5924   23431256.520
        41.5004         39.0004
 -14077314.17847 -10958209.53747  21690831.8374   21690836.7434   21690832.641
        45.3004         42.8004
  -7082631.18647  -5508168.53846  22482392.1924   22482397.0214   22482392.412
        42.3004         39.7004
  -4669474.40046  -3623706.82246  23835409.5764   23835416.2454   23835409.458
        38.5004         36.4004
 -12752941.98947  -9913859.69647  20947556.2174   20947560.3144   20947555.709
        46.7004         44.2004
 -16933930.11247 -13173267.36747  20155396.0074   20155400.5954   20155396.510
        47.5004         45.1004
 -18417603.75648 -14334250.42547  20466411.9154   20466416.4634   20466411.743
        48.4004         45.9004
 16  2 13  1 33  0.0000000  0  8G30G05G21G18G29G13G20G15
   1602622.83946   1253808.72645  24114837.8994   24114848.7794   24114838.514
        37.1004         35.3004
  -1979275.69546  -1518804.18346  23449150.0594   23449155.7014   23449149.699
        41.5004         38.8004
 -14122433.51247 -10993367.47847  21682246.1984   21682250.7094   21682246.591
        45.3004         42.6004
  -7155176.68847  -5564697.51146  22468586.6574   22468591.9334   22468587.358
        42.3004         39.9004
  -4562067.40146  -3540013.16046  23855848.5054   23855855.0434   23855847.638
        38.3004         36.0004
 -12714313.39447  -9883759.52547  20954907.2534   20954911.5504   20954906.989
        46.7004         44.2004
 -16908497.60347 -13153449.85447  20160235.3994   20160239.9044   20160236.136
        47.5004         45.1004
 -18451899.60148 -14360974.46947  20459885.8884   20459890.0854   20459885.043
        48.4004         45.9004
 16  2 13  1 33 30.0000000  0  8G30G05G21G18G29G13G20G15
   1650709.18646   1291278.52145  24123988.8714   24123996.7604   24123988.933
        37.1004         35.2004
  -1885117.97546  -1445434.63846  23467067.2154   23467072.9964   23467066.231
        41.3004         38.6004
 -14167165.49447 -11028223.58947  21673734.1604   21673737.9694   21673734.311
        45.3004         42.6004
  -7227553.47947  -5621095.03046  22454814.2994   22454818.9494   22454815.031
        42.5004         40.0004
  -4454529.71646  -3456217.67446  23876312.7684   23876318.4264   23876312.812
        38.2004         36.2004
 -12675142.85247  -9853237.06447  20962361.2794   20962364.7534   20962360.940
        46.7004         44.0004
 -16882654.14847 -13133312.13247  20165153.1904   20165157.9014   20165154.112
        47.5004         45.1004
 -18485643.57248 -14387268.48147  20453464.5384   20453468.8344   20453464.756
        48.4004         45.9004
 16  2 13  1 34  0.0000000  0  8G30G05G21G18G29G13G20G15
   1699318.18246   1329155.60845  24133239.5484   24133245.9724   24133239.975
        37.0004         35.2004
  -1790833.59246  -1371966.39746  23485009.1484   23485014.8974   23485009.466
        41.1004         38.5004
 -14211509.30747 -11062777.22947  21665295.7414   21665299.7424   21665296.512
        45.3004         42.8004
  -7299761.02247  -5677360.65746  22441073.9894   22441078.1204   22441074.036
        42.5004         40.0004
  -4346864.39046  -3372322.72146  23896800.6724   23896807.1014   23896799.617
        38.3004         36.0004
 -12635432.32247  -9822293.83147  20969917.8774   20969922.2904   20969917.739
        46.7004         44.0004
 -16856400.23747 -13112854.57147  20170149.3344   20170153.7224   20170149.930
        47.5004         45.1004
 -18518835.24848 -14413132.12847  20447148.2424   20447152.6694   20447148.062
        48.4004         45.9004
 16  2 13  1 34 30.0000000  0  8G30G05G21G18G29G13G20G15
   1748448.39346   1367438.83045  24142586.3334   24142598.1534   24142587.207
        36.8004         35.0004
  -1696423.37646  -1298400.09046  23502974.4154   23502980.4914   23502973.834
        40.8004         38.1004
 -14255462.11147 -11097026.18647  21656931.9114   21656936.0274   21656932.043
        45.5004         42.8004
  -7371798.73547  -5733493.95146  22427365.7934   22427370.0314   22427366.089
        42.7004         40.2004
  -4239074.23246  -3288330.51146  23917313.0004   23917318.4364   23917311.723
        38.2004         36.0004
 -12595183.51347  -9790931.15447  20977577.0314   20977581.1334   20977576.635
        46.7004         44.2004
 -16829736.03247 -13092077.29747  20175223.3664   20175228.0074   20175223.769
        47.5004         45.2004
 -18551474.23548 -14438565.11147  20440937.1294   20440941.5954   20440936.499
        48.4004         45.9004
 16  2 13  1 35  0.0000000  0  8G30G05G21G18G29G13G20G15
   1798098.08546   1406126.84845  24152036.7984   24152045.0874   24152036.958
        36.8004         35.0004
  -1601888.26546  -1224736.45246  23520963.8234   23520970.0774   23520963.742
        40.4004         37.8004
 -14299022.62347 -11130969.46347  21648642.6644   21648646.9644   21648642.895
        45.5004         43.0004
  -7443665.60847  -5789494.11746  22413689.6944   22413694.3954   22413689.969
        42.7004         40.0004
  -4131162.56846  -3204243.62045  23937846.9894   23937854.5084   23937847.480
        38.0004         35.9004
 -12554398.28247  -9759150.48747  20985338.0464   20985342.4684   20985337.663
        46.7004         44.0004
 -16802662.15047 -13070980.80347  20180375.3644   20180380.3124   20180376.025
        47.5004         45.1004
 -18583560.08248 -14463567.07647  20434831.3934   20434835.9754   20434830.807
        48.4004         45.9004
 16  2 13  1 35 30.0000000  0  8G30G05G21G18G29G13G20G15
   1848265.68246   1445218.44845  24161582.8674   24161590.1864   24161581.473
        36.3004         34.1004
  -1507229.32946  -1150976.34746  23538977.2084   23538984.2554   23538977.341
        40.3004         37.9004
 -14342189.34347 -11164605.88547  21640428.1164   21640432.3554   21640428.389
        45.5004         43.0004
  -7515360.57147  -5845360.33146  22400046.2574   22400051.1534   22400047.151
        42.7004         40.2004
  -4023132.32946  -3120064.32346  23958405.7744   23958410.5314   23958405.130
        38.3004         36.0004
 -12513077.92747  -9726952.84047  20993200.4284   20993205.3014   20993200.382
        46.5004         44.0004
 -16775179.13547 -13049565.50247  20185605.1024   20185610.0834   20185605.629
        47.5004         45.2004
 -18615092.22048 -14488137.57847  20428831.2304   20428835.8324   20428830.952
        48.6004         46.1004
 16  2 13  1 36  0.0000000  0  8G30G05G21G18G29G13G20G15
   1898949.45546   1484712.26645  24171228.0114   24171236.3294   24171228.977
        36.3004         34.6004
  -1412447.63246  -1077120.60746  23557013.7764   23557020.6674   23557013.146
        40.1004         37.6004
 -14384960.73547 -11197934.26447  21632289.0584   21632293.1374   21632289.072
        45.6004         43.2004
  -7586883.13047  -5901092.20946  22386436.0954   22386441.2944   22386437.322
        42.9004         40.4004
  -3914986.33746  -3035794.84545  23978983.4664   23978990.7824   23978983.068
        38.2004         35.9004
 -12471224.44747  -9694339.77147  21001165.8234   21001169.5624   21001165.400
        46.5004         44.0004
 -16747287.57147 -13027831.84847  20190912.6834   20190917.7194   20190913.363
        47.5004         45.2004
 -18646070.32548 -14512276.37347  20422936.3254   20422940.7824   20422936.200
        48.6004         46.1004
 16  2 13  1 36 30.0000000  0  8G30G05G21G18G29G13G20G15
   1950147.80046   1524607.06845  24180970.6094   24180979.0844   24180969.875
        36.1004         34.3004
  -1317544.02346  -1003169.86546  23575072.5754   23575078.9114   23575071.575
        39.9004         37.4004
 -14427334.71447 -11230952.97047  21624225.3894   21624229.7834   21624225.633
        45.6004         42.8004
  -7658232.60547  -5956689.20546  22372858.7024   22372863.5974   22372859.550
        42.9004         40.4004
  -3806727.50146  -2951437.43445  23999586.1714   23999592.6644   23999585.556
        38.0004         35.9004
 -12428839.45547  -9661312.53647  21009231.0384   21009235.3834   21009230.897
        46.5004         44.0004
 -16718987.83747 -13005780.14047  20196298.2944   20196303.0054   20196298.855
        47.5004         45.2004
 -18676493.81848 -14535982.99547  20417146.7764   20417151.3804   20417146.716
        48.6004         46.1004
 16  2 13  1 37  0.0000000  0  8G30G05G21G18G29G13G20G15
   2001858.95046   1564901.42945  24190811.0644   24190818.8174   24190811.248
        36.3004         34.6004
  -1222519.68846   -929125.06346  23593155.5654   23593162.0224   23593155.717
        39.9004         37.4004
 -14469309.82347 -11263660.87147  21616238.0284   21616242.1224   21616238.323
        45.5004         43.0004
  -7729408.10547  -6012150.63946  22359315.4394   22359319.4184   22359315.411
        42.9004         40.2004
  -3698359.22346  -2866994.71845  24020206.3554   24020213.4784   24020207.425
        37.8004         35.7004
 -12385924.99147  -9627872.71747  21017397.5794   21017402.1044   21017397.226
        46.5004         43.9004
 -16690280.33647 -12983410.69147  20201761.0864   20201765.8404   20201761.686
        47.5004         45.1004
 -18706362.62648 -14559257.39847  20411462.8604   20411467.5994   20411462.106
        48.6004         45.9004
 16  2 13  1 37 30.0000000  0  8G30G05G21G18G29G13G20G15
   2054081.14946   1605594.04145  24200746.4754   24200759.8784   24200746.631
        36.3004         34.5004
  -1127375.47746   -854986.83746  23611261.1184   23611267.3164   23611260.863
        39.9004         37.8004
 -14510884.55647 -11296056.78847  21608326.5274   21608330.7044   21608327.060
        45.6004         43.0004
  -7800409.04147  -6067476.04546  22345803.0274   22345807.9304   22345804.579
        42.9004         40.2004
  -3589884.21246  -2782468.85046  24040849.0784   24040856.0724   24040849.225
        38.0004         36.0004
 -12342482.77547  -9594021.67447  21025664.0604   21025668.7004   21025663.920
        46.5004         43.9004
 -16661165.75047 -12960724.03147  20207301.3474   20207306.0404   20207302.224
        47.5004         45.2004
 -18735676.40648 -14582099.31547  20405884.9134   20405889.4634   20405884.252
        48.6004         46.1004
 16  2 13  1 38  0.0000000  0  8G30G05G21G18G29G13G20G15
   2106812.67946   1646683.50045  24210783.6724   24210791.3484   24210783.925
        36.1004         34.3004
  -1032112.08546   -780755.72546  23629389.4504   23629395.9094   23629389.220
        40.3004         37.9004
 -14552057.75247 -11328139.82347  21600491.6694   21600495.7474   21600492.119
        45.6004         43.0004
  -7871234.48147  -6122664.70746  22332326.0324   22332330.5084   22332326.010
        42.9004         40.2004
  -3481305.50646  -2697862.20345  24061511.6714   24061518.3964   24061511.703
        37.8004         35.7004
 -12298514.40047  -9559760.64147  21034031.1594   21034035.3594   21034031.080
        46.5004         43.7004
 -16631644.42247 -12937720.43147  20212919.2434   20212923.8654   20212919.611
        47.5004         45.1004
 -18764434.71248 -14604508.39347  20400412.2344   20400416.7314   20400411.768
        48.6004         45.9004
 16  2 13  1 38 30.0000000  0  8G30G05G21G18G29G13G20G15
   2160051.77345   1688168.52145  24220911.0284   24220921.2234   24220912.084
        35.9004         34.0004
   -936731.27946   -706433.12146  23647540.2194   23647546.0654   23647539.043
        40.4004         38.1004
 -14592827.23647 -11359908.26247  21592733.5434   21592737.8364   21592733.724
        45.6004         43.0004
  -7941883.73147  -6177716.06746  22318881.8184   22318886.7194   22318882.116
        42.9004         40.2004
  -3372625.95646  -2613176.96645  24082192.3254   24082199.9564   24082192.159
        37.6004         35.5004
 -12254021.98447  -9525091.25247  21042498.0634   21042502.3154   21042497.503
        46.5004         43.9004
 -16601716.71647 -12914400.17247  20218614.2464   20218619.0954   20218614.800
        47.5004         45.2004
 -18792637.21848 -14626484.37647  20395045.3804   20395049.9054   20395044.677
        48.6004         46.1004
 16  2 13  1 39  0.0000000  0  8G30G05G21G18G29G13G20G15
   2213796.79245   1730047.68945  24231140.4964   24231150.2174   24231141.064
        35.9004         34.5004
   -841233.82346   -632019.62646  23665713.0834   23665719.5464   23665712.531
        40.4004         38.1004
 -14633191.45847 -11391360.92647  21585052.3684   21585056.3774   21585052.898
        45.6004         43.0004
  -8012355.84747  -6232629.41246  22305471.6774   22305476.2294   22305472.206
        42.9004         40.4004
  -3263848.63746  -2528415.55345  24102892.7244   24102899.8664   24102892.589
        37.6004         35.7004
 -12209007.29247  -9490014.90047  21051064.0604   21051067.9334   21051063.730
        46.5004         43.9004
 -16571383.07847 -12890763.59947  20224386.6164   20224391.2624   20224387.188
        47.5004         45.2004
 -18820283.62848 -14648027.03947  20389784.4524   20389789.1924   20389784.114
        48.6004         46.1004
 16  2 13  1 39 30.0000000  0  8G30G05G21G18G29G13G20G15
   2268045.65646   1772319.50145  24241465.2464   24241471.6834   24241467.382
        36.3004         34.6004
   -745620.76346   -557516.04346  23683906.9074   23683913.7524   23683907.281
        40.3004         37.8004
 -14673148.47247 -11422496.28247  21577449.0004   21577453.4364   21577449.290
        45.6004         43.2004
  -8082650.53047  -6287404.49946  22292095.8974   22292099.4494   22292095.704
        42.9004         40.2004
  -3154976.57446  -2443580.32445  24123611.1934   24123618.0114   24123611.690
        37.8004         35.7004
 -12163472.17247  -9454533.02747  21059729.1514   21059733.2374   21059728.922
        46.5004         43.9004
 -16540644.43247 -12866811.43947  20230235.9384   20230240.7684   20230236.849
        47.5004         45.1004
 -18847373.80348 -14669136.27647  20384629.2804   20384634.0044   20384629.228
        48.6004         46.3004
 16  2 13  1 40  0.0000000  0  8G30G05G21G18G29G13G20G15
   2322796.88145   1814982.80145  24251882.1434   24251892.5484   24251879.931
        35.6004         33.6004
   -649892.66746   -482922.83546  23702123.4624   23702129.9194   23702123.450
        39.9004         37.4004
 -14712697.52647 -11453313.73947  21569923.0394   21569927.6764   21569923.321
        45.6004         43.0004
  -8152766.54147  -6342040.36846  22278751.9724   22278756.3784   22278752.422
        42.7004         40.0004
  -3046012.53346  -2358673.43345  24144344.9974   24144352.0754   24144344.785
        37.6004         35.5004
 -12117418.36547  -9418646.98047  21068492.9884   21068497.0284   21068492.627
        46.3004         43.7004
 -16509500.95547 -12842543.82547  20236162.5804   20236167.1844   20236162.746
        47.5004         45.1004
 -18873907.21448 -14689811.66647  20379580.4964   20379585.0084   20379579.496
        48.6004         46.1004
 16  2 13  1 40 30.0000000  0  8G30G05G21G18G29G13G20G15
   2378048.52745   1858035.94045  24262399.3154   24262404.5224   24262401.336
        35.9004         34.5004
   -554050.71146   -408240.89346  23720361.4944   23720368.2554   23720360.570
        39.7004         37.3004
 -14751835.91847 -11483811.20947  21562475.2304   21562479.4164   21562475.693
        45.6004         43.2004
  -8222702.96147  -6396536.28946  22265443.4244   22265448.1114   22265444.230
        42.9004         40.2004
  -2936959.74846  -2273697.39245  24165097.6634   24165103.3884   24165097.075
        37.5004         35.3004
 -12070847.52747  -9382358.04947  21077354.7244   21077359.6264   21077354.668
        46.3004         43.7004
 -16477953.33147 -12817961.28947  20242165.6564   20242170.6524   20242166.166
        47.5004         45.1004
 -18899883.70248 -14710053.08547  20374637.4264   20374641.8054   20374637.029
        48.8004         46.3004
 16  2 13  1 41  0.0000000  0  8G30G05G21G18G29G13G20G15
   2433798.57446   1901477.53745  24273007.0744   24273014.4114   24273007.373
        36.3004         34.6004
   -458096.12746   -333471.19546  23738621.7304   23738627.6934   23738621.591
        39.4004         36.9004
 -14790562.81547 -11513988.02847  21555105.8464   21555110.3024   21555105.715
        45.6004         43.0004
  -8292459.41047  -6450891.98046  22252169.8144   22252174.2714   22252169.889
        42.9004         40.4004
  -2827821.19746  -2188654.49745  24185865.3514   24185872.1164   24185865.111
        37.3004         35.3004
 -12023762.08247  -9345668.12447  21086315.4614   21086319.2254   21086314.979
        46.3004         43.5004
 -16446002.08847 -12793064.24947  20248246.0784   20248250.6714   20248246.625
        47.5004         45.1004
 -18925303.25648 -14729860.53947  20369800.2754   20369804.5704   20369799.819
        48.8004         46.1004
 16  2 13  1 41 30.0000000  0  8G30G05G21G18G29G13G20G15
   2490045.35345   1945306.07645  24283707.5764   24283719.4984   24283708.526
        35.9004         34.1004
   -362029.54346   -258614.23246  23756902.7414   23756908.7734   23756902.118
        39.2004         37.1004
 -14828876.61147 -11543842.95647  21547814.8824   21547819.0794   21547815.364
        45.6004         43.2004
  -8362035.00647  -6505106.74046  22238929.8124   22238934.2484   22238931.061
        43.0004         40.6004
  -2718599.58746  -2103546.87345  24206651.2824   24206657.8704   24206649.536
        37.3004         35.3004
 -11976163.78947  -9308578.57647  21095372.6404   21095376.9574   21095372.404
        46.3004         43.7004
 -16413647.52347 -12767852.93147  20254402.7074   20254407.7054   20254403.376
        47.5004         45.1004
 -18950165.57848 -14749233.77947  20365068.9474   20365073.4554   20365068.775
        48.8004         46.3004
 16  2 13  1 42  0.0000000  0  8G30G05G21G18G29G13G20G15
   2546787.00846   1989520.26845  24294508.9244   24294515.2474   24294509.033
        36.1004         34.5004
   -265852.07846   -183670.87246  23775205.0614   23775210.6764   23775204.609
        39.4004         37.1004
 -14866775.80047 -11573374.80847  21540603.1804   21540607.0644   21540603.424
        45.6004         43.0004
  -8431428.89847  -6559179.90446  22225724.9434   22225729.3894   22225724.897
        43.2004         40.7004
  -2609298.04746  -2018376.97845  24227448.7254   24227457.9924   24227449.325
        37.3004         35.3004
 -11928054.34247  -9271090.73847  21104527.3094   21104531.9674   21104527.363
        46.2004         43.5004
 -16380890.41447 -12742327.94247  20260636.3794   20260641.1364   20260636.734
        47.5004         45.1004
 -18974470.71548 -14768172.85647  20360443.8684   20360448.3134   20360443.614
        48.8004         46.3004
 16  2 13  1 42 30.0000000  0  8G30G05G21G18G29G13G20G15
   2604021.52046   2034118.57145  24305400.0874   24305406.4684   24305400.368
        36.1004         34.3004
   -169564.99346   -108642.08446  23793527.6214   23793533.3794   23793526.872
        39.6004         37.4004
 -14904258.84747 -11602582.39647  21533469.9624   21533474.1204   21533470.419
        45.6004         43.0004
  -8500640.48347  -6613111.01146  22212553.9884   22212559.0994   22212554.767
        43.4004         40.9004
  -2499919.54346  -1933147.10545  24248263.2154   24248271.0554   24248263.047
        37.3004         35.3004
 -11879435.72347  -9233206.13747  21113779.3964   21113783.5404   21113779.349
        46.2004         43.5004
 -16347731.39447 -12716489.77747  20266946.4934   20266950.8494   20266947.026
        47.5004         45.1004
 -18998218.30948 -14786677.47547  20355924.8564   20355929.2234   20355924.615
        48.8004         46.3004
 16  2 13  1 43  0.0000000  0  8G30G05G21G18G29G13G20G15
   2661747.24845   2079099.60245  24316382.8324   24316390.8614   24316381.756
        35.7004         34.0004
    -73168.91946    -33528.36846  23811871.7604   23811878.0124   23811872.086
        39.7004         37.4004
 -14941324.56347 -11631464.79747  21526416.7064   21526421.0084   21526416.920
        45.6004         43.0004
  -8569668.52147  -6666899.09746  22199419.0074   22199423.0374   22199419.200
        43.4004         40.7004
  -2390466.63146  -1847859.24845  24269091.5124   24269099.2134   24269092.669
        37.1004         35.2004
 -11830309.94847  -9194926.34547  21123127.9014   21123131.9234   21123127.837
        46.2004         43.3004
 -16314170.69547 -12690338.61147  20273332.7274   20273337.4294   20273333.293
        47.5004         44.9004
 -19021407.98248 -14804747.35347  20351512.1324   20351516.4664   20351511.613
        48.8004         46.3004
 16  2 13  1 43 30.0000000  0  8G30G05G21G18G29G13G20G15
   2719962.10845   2124461.77545  24327462.7754   24327471.7634   24327461.582
        35.7004         34.1004
     23334.82046     41669.23546  23830235.7384   23830241.7754   23830235.677
        39.7004         37.4004
 -14977970.60547 -11660020.17047  21519443.2194   21519447.9014   21519443.491
        45.6004         43.0004
  -8638512.63047  -6720543.85846  22186318.3114   22186322.8254   22186318.468
        43.4004         40.9004
  -2280942.76746  -1762516.11045  24289934.1974   24289941.1694   24289934.501
        37.0004         35.0004
 -11780678.72247  -9156252.69647  21132572.4374   21132576.5424   21132571.811
        46.0004         43.2004
 -16280209.20547 -12663875.14147  20279795.2694   20279799.9634   20279795.924
        47.4004         44.9004
 -19044039.94748 -14822382.65447  20347205.2564   20347209.8554   20347204.992
        48.8004         46.3004
 16  2 13  1 44  0.0000000  0  8G30G05G21G18G29G13G20G15
   2778664.15045   2170203.58245  24338633.2844   24338641.0034   24338633.460
        35.7004         34.3004
    119945.48746    116950.14646  23848619.2934   23848626.0884   23848619.401
        39.6004         37.3004
 -15014195.33547 -11688247.26447  21512550.0564   21512554.1874   21512550.239
        45.6004         43.0004
  -8707171.63947  -6774044.38246  22173252.8414   22173257.5764   22173253.217
        43.4004         40.7004
  -2171350.76446  -1677119.87445  24310788.9484   24310795.2434   24310789.104
        36.8004         34.8004
 -11730544.27347  -9117186.93947  21142112.8074   21142117.0874   21142112.448
        46.0004         43.3004
 -16245847.46447 -12637099.79647  20286334.2294   20286338.9594   20286334.624
        47.4004         44.9004
 -19066114.09948 -14839583.30047  20343005.1744   20343009.1284   20343004.771
        48.8004         46.3004
 16  2 13  1 44 30.0000000  0  8G30G05G21G18G29G13G20G15
   2837851.48345   2216323.50145  24349892.7224   24349905.0644   24349893.445
        35.7004         34.0004
    216662.06746    192313.59746  23867024.8434   23867030.8604   23867024.469
        39.6004         37.1004
 -15049997.60347 -11716145.15047  21505737.0654   21505741.3774   21505737.279
        45.6004         43.0004
  -8775645.11047  -6827400.33546  22160222.8834   22160227.2574   22160223.206
        43.4004         40.7004
  -2061693.50546  -1591672.75745  24331655.9994   24331664.5484   24331655.434
        37.0004         35.2004
 -11679908.50847  -9077730.53447  21151748.3334   21151752.8984   21151748.266
        46.0004         43.3004
 -16211086.12347 -12610013.06647  20292948.6134   20292953.8074   20292949.141
        47.4004         44.7004
 -19087630.03448 -14856348.96047  20338910.3934   20338914.6994   20338909.839
        48.8004         46.3004
 16  2 13  1 45  0.0000000  0  8G30G05G21G18G29G13G20G15
   2897522.09345   2262819.98745  24361250.7004   24361259.7204   24361251.415
        35.9004         34.3004
    313483.66046    267758.87546  23885449.8144   23885455.4794   23885448.315
        39.2004         36.9004
 -15085375.70947 -11743712.52947  21499004.8234   21499008.6064   21499005.357
        45.6004         43.2004
  -8843932.00147  -6880610.90346  22147228.3424   22147232.1644   22147228.632
        43.4004         40.7004
  -1951973.87846  -1506177.08545  24352536.2884   24352542.3384   24352534.621
        37.0004         35.0004
 -11628773.45547  -9037885.06847  21161479.2834   21161483.6314   21161479.142
        46.0004         43.2004
 -16175925.40347 -12582615.13647  20299639.8974   20299644.6424   20299640.391
        47.4004         44.9004
 -19108587.89048 -14872679.75847  20334922.3884   20334926.5464   20334922.006
        48.9004         46.5004
 16  2 13  1 45 30.0000000  0  8G30G05G21G18G29G13G20G15
   2957674.05246   2309691.60245  24372695.9404   24372704.6774   24372697.201
        36.4004         34.8004
    410409.46546    343285.35446  23903893.4594   23903900.5324   23903891.292
        39.2004         36.9004
 -15120328.50647 -11770948.49847  21492353.5124   21492357.9364   21492353.983
        45.6004         43.2004
  -8912032.00247  -6933675.84846  22134268.9784   22134273.4004   22134269.642
        43.4004         40.9004
  -1842194.94246  -1420635.17245  24373424.6174   24373432.3604   24373424.240
        36.6004         34.8004
 -11577140.89747  -8997651.94647  21171304.6704   21171308.9634   21171304.302
        45.8004         43.2004
 -16140365.83847 -12554906.41647  20306406.4494   20306411.5504   20306407.338
        47.4004         44.9004
 -19128987.61248 -14888575.65347  20331040.4744   20331044.7584   20331040.050
        48.9004         46.5004
 16  2 13  1 46  0.0000000  0  8G30G05G21G18G29G13G20G15
   3018305.27346   2356936.60445  24384234.3774   24384243.9704   24384233.091
        36.4004         34.6004
    507438.16546    418892.00846  23922357.8374   23922364.2564   23922358.385
        39.0004         36.7004
 -15154854.72047 -11797852.06547  21485783.3694   21485787.7404   21485784.073
        45.8004         43.2004
  -8979943.62947  -6986594.00346  22121346.0084   22121350.3084   22121346.503
        43.6004         41.2004
  -1732359.63846  -1335049.35845  24394327.5064   24394332.9644   24394326.449
        36.8004         35.0004
 -11525013.05447  -8957032.87847  21181223.6714   21181228.3904   21181223.807
        45.8004         43.3004
 -16104408.41347 -12526887.66847  20313249.0134   20313254.0674   20313249.757
        47.4004         44.9004
 -19148829.43648 -14904036.81047  20327264.2964   20327269.1274   20327264.253
        48.9004         46.6004
 16  2 13  1 46 30.0000000  0  8G30G05G21G18G29G13G20G15
   3079413.86246   2404553.56945  24395865.0464   24395873.0184   24395864.803
        37.0004         35.2004
    604569.15046    494578.35146  23940842.0414   23940848.3664   23940841.893
        38.9004         36.6004
 -15188952.40647 -11824421.71247  21479295.1694   21479299.2094   21479295.476
        45.8004         43.2004
  -9047666.16047  -7039364.80946  22108459.0584   22108463.3004   22108459.341
        43.9004         41.2004
  -1622470.77246  -1249421.78345  24415239.2154   24415245.7244   24415238.327
        37.1004         35.3004
 -11472391.87247  -8916029.39647  21191237.2174   21191242.2364   21191236.965
        45.8004         43.2004
 -16068053.52147 -12498559.21347  20320167.2164   20320172.1204   20320167.813
        47.4004         44.9004
 -19168112.75848 -14919062.78447  20323595.0724   20323599.5054   20323594.866
        49.1004         46.6004
 16  2 13  1 47  0.0000000  0  8G30G05G21G18G29G13G20G15
   3140997.74646   2452540.93945  24407583.1344   24407591.0904   24407582.537
        36.8004         34.8004
    701801.21146    570343.46546  23959344.8204   23959351.3834   23959344.884
        38.9004         36.6004
 -15222620.08547 -11850656.29247  21472888.3744   21472892.3464   21472888.699
        45.8004         43.2004
  -9115198.95347  -7091987.76246  22095608.0754   22095612.4024   22095608.106
        43.9004         41.4004
  -1512531.10946  -1163754.62445  24436158.7154   24436166.7214   24436158.852
        37.5004         35.5004
 -11419279.12847  -8874642.87847  21201344.8154   21201349.2384   21201344.415
        45.8004         43.3004
 -16031301.82647 -12469921.55847  20327161.0254   20327165.6084   20327161.481
        47.4004         44.9004
 -19186837.98648 -14933653.87147  20320031.9124   20320036.0484   20320031.412
        48.9004         46.6004
 16  2 13  1 47 30.0000000  0  8G30G05G21G18G29G13G20G15
   3203054.99546   2500897.10745  24419390.0604   24419403.5124   24419389.709
        36.6004         34.6004
    799133.54546    646186.72346  23977866.2184   23977873.0134   23977865.927
        38.7004         36.6004
 -15255856.36747 -11876554.72247  21466563.4884   21466568.1284   21466563.739
        45.8004         43.2004
  -9182541.38247  -7144462.38346  22082792.6114   22082797.3374   22082793.098
        43.9004         41.2004
  -1402543.73646  -1078050.28145  24457087.9314   24457096.1654   24457088.025
        37.6004         35.7004
 -11365677.10747  -8832875.09747  21211544.6904   21211549.1604   21211544.605
        45.8004         43.2004
 -15994153.83947 -12440975.10047  20334230.0154   20334235.0324   20334230.490
        47.4004         44.9004
 -19205005.34248 -14947810.26547  20316574.6384   20316578.9804   20316574.541
        48.9004         46.6004
 16  2 13  1 48  0.0000000  0  8G30G05G21G18G29G13G20G15
   3265583.43646   2549620.42245  24431291.7414   24431298.1864   24431292.160
        36.3004         34.1004
    896565.03946    722107.25046  23996406.2684   23996413.5834   23996405.594
        38.7004         36.4004
 -15288659.57647 -11902115.68447  21460321.1084   21460325.3414   21460321.631
        45.6004         43.0004
  -9249692.43647  -7196787.88146  22070014.1184   22070018.7024   22070014.421
        43.7004         40.9004
  -1292511.70546   -992311.14545  24478026.7254   24478035.1104   24478025.235
        37.5004         35.3004
 -11311588.06447  -8790727.82647  21221837.5364   21221842.0054   21221837.362
        45.8004         43.0004
 -15956610.22047 -12411720.36147  20341374.2834   20341379.3164   20341374.895
        47.4004         44.9004
 -19222614.64948 -14961531.80847  20313223.7274   20313227.8854   20313223.468
        48.9004         46.5004
 16  2 13  1 48 30.0000000  0  8G30G05G21G18G29G13G20G15
   3328580.97845   2598709.37145  24443278.3824   24443287.0424   24443279.802
        35.6004         33.8004
    994094.59246    798104.19046  24014966.0394   24014973.0874   24014966.014
        38.9004         36.6004
 -15321028.51547 -11927338.25847  21454161.6574   21454165.9424   21454161.825
        45.6004         43.2004
  -9316651.31847  -7248963.63646  22057272.6864   22057276.8504   22057272.791
        43.7004         41.1004
  -1182437.79746   -906539.37045  24498973.9794   24498980.7644   24498972.349
        37.1004         35.2004
 -11257013.91547  -8748202.54547  21232221.9444   21232226.8834   21232222.409
        45.8004         43.0004
 -15918671.49447 -12382157.74447  20348593.8954   20348598.9704   20348594.536
        47.5004         44.9004
 -19239665.82548 -14974818.44147  20309979.0404   20309983.3954   20309978.488
        48.9004         46.5004
 16  2 13  1 49  0.0000000  0  8G30G05G21G18G29G13G20G15
   3392045.73545   2648162.31845  24455353.0674   24455367.6124   24455353.425
        35.2004         33.8004
   1091721.39446    874176.89546  24033544.7194   24033551.0424   24033543.484
        38.9004         36.9004
 -15352961.79347 -11952221.36047  21448084.7004   21448089.3194   21448085.045
        45.6004         43.2004
  -9383417.42547  -7300989.18246  22044567.0874   22044572.1354   22044567.783
        43.7004         41.1004
  -1072324.71246   -820737.04945  24519927.7534   24519935.9784   24519927.895
        37.1004         35.2004
 -11201956.62247  -8705300.79247  21242700.1074   21242705.0194   21242699.789
        45.8004         43.2004
 -15880338.37847 -12352287.82047  20355888.7134   20355893.5384   20355889.509
        47.5004         44.9004
 -19256158.87048 -14987670.17047  20306840.5384   20306844.7204   20306840.289
        48.9004         46.5004
 16  2 13  1 49 30.0000000  0  8G30G05G21G18G29G13G20G15
   3455975.47745   2697977.55745  24467521.9014   24467529.4174   24467522.171
        35.6004         34.0004
   1189444.53646    950324.67446  24052139.7394   24052146.6644   24052139.807
        39.0004         36.9004
 -15384458.25147 -11976764.08047  21442091.2724   21442095.8174   21442091.685
        45.8004         43.2004
  -9449989.86647  -7352863.81246  22031898.6664   22031903.4734   22031899.385
        43.7004         41.2004
   -962175.62246   -734906.70145  24540889.0654   24540895.8094   24540888.428
        37.3004         35.2004
 -11146418.02747  -8662023.98447  21253268.7484   21253272.8754   21253268.597
        46.0004         43.3004
 -15841611.55747 -12322111.10047  20363258.0514   20363262.7504   20363258.315
        47.5004         44.9004
 -19272094.21248 -15000087.32347  20303808.2254   20303812.5944   20303807.772
        49.1004         46.6004
 16  2 13  1 50  0.0000000  0  8G30G05G21G18G29G13G20G15
   3520368.14245   2748153.59645  24479776.1224   24479780.6664   24479775.697
        35.6004         33.8004
   1287263.29346   1026546.95746  24070755.0944   24070760.8904   24070754.858
        39.2004         36.9004
 -15415515.71647 -12000964.73147  21436181.3694   21436185.5454   21436181.146
        45.8004         43.2004
  -9516367.36247  -7404586.55046  22019267.5024   22019272.3434   22019267.943
        43.7004         41.1004
   -851993.27546   -649050.43545  24561855.3784   24561862.5254   24561855.051
        36.8004         34.8004
 -11090400.40147  -8618373.91747  21263928.3184   21263933.0414   21263928.514
        45.8004         43.2004
 -15802491.47047 -12291627.95047  20370702.0464   20370707.1244   20370702.711
        47.5004         45.1004
 -19287472.02148 -15012070.04147  20300881.8474   20300886.4134   20300881.410
        49.1004         46.6004
 16  2 13  1 50 30.0000000  0  8G30G05G21G18G29G13G20G15
   3585221.69145   2798688.72445  24492111.0434   24492124.9704   24492115.035
        35.0004         33.3004
   1385176.66646   1102842.97846  24089386.1244   24089393.1314   24089386.210
        39.0004         36.7004
 -15446133.15147 -12024822.49847  21430355.3274   21430359.7234   21430355.767
        45.8004         43.2004
  -9582549.41647  -7456156.98946  22006673.7514   22006678.0784   22006674.206
        43.9004         41.2004
   -741780.68046   -563170.59845  24582829.1074   24582834.1014   24582828.729
        36.6004         34.8004
 -11033905.80747  -8574352.18947  21274678.5514   21274683.3864   21274678.610
        45.8004         43.0004
 -15762978.94447 -12260839.00247  20378221.4894   20378226.3314   20378222.103
        47.5004         44.9004
 -19302292.40748 -15023618.40547  20298061.4124   20298066.0284   20298061.118
        49.1004         46.6004
 16  2 13  1 51  0.0000000  0  7G30G05G21G18G13G20G15
   3650534.01445   2849581.39645  24504544.0904   24504551.7944   24504544.632
        34.9004         33.6004
   1483183.60646   1179211.90846  24108036.5864   24108043.4914   24108035.709
        38.7004         36.4004
 -15476309.26447 -12048336.37947  21424612.8094   21424617.3584   21424613.133
        45.8004         43.2004
  -9648535.15247  -7507574.45046  21994117.0944   21994121.9614   21994117.855
        43.9004         41.4004
 -10976936.41847  -8529960.49447  21285520.6574   21285524.3094   21285520.018
        45.6004         42.8004
 -15723074.26847 -12229744.47647  20385815.0234   20385819.7834   20385815.507
        47.5004         44.9004
 -19316555.30348 -15034732.35047  20295347.2404   20295351.6904   20295347.011
        49.1004         46.6004
 16  2 13  1 51 30.0000000  0  7G30G05G21G18G13G20G15
   3716302.79045   2900829.76545  24517060.6884   24517066.0374   24517061.125
        34.9004         33.4004
   1581282.86846   1255652.75545  24126704.3664   24126712.2324   24126703.319
        38.2004         35.9004
 -15506042.55947 -12071505.20547  21418954.9994   21418959.2104   21418955.281
        45.8004         43.2004
  -9714323.57547  -7558838.15846  21981597.9514   21981602.3254   21981598.480
        44.1004         41.4004
 -10919494.35147  -8485200.47047  21296450.9474   21296455.1804   21296450.847
        45.6004         43.0004
 -15682778.36647 -12198345.09947  20393483.0024   20393488.1664   20393483.647
        47.5004         44.9004
 -19330260.93048 -15045412.07247  20292739.5044   20292743.6724   20292738.992
        49.1004         46.8004
 16  2 13  1 52  0.0000000  0  7G30G05G21G18G13G20G15
   3782526.03545   2952432.28045  24529660.8364   24529672.8604   24529662.520
        34.9004         33.6004
   1679474.04346   1332165.21746  24145390.6214   24145395.8744   24145389.628
        38.0004         36.0004
 -15535331.36147 -12094327.67647  21413381.4804   21413385.6964   21413382.024
        45.8004         43.3004
  -9779914.20747  -7609947.74146  21969116.6884   21969121.4004   21969117.061
        44.2004         41.6004
 -10861581.69747  -8440073.76347  21307471.1964   21307475.4994   21307471.029
        45.6004         43.0004
 -15642092.00647 -12166641.47547  20401225.3844   20401230.6674   20401226.029
        47.4004         44.9004
 -19343409.71248 -15055657.88547  20290237.2104   20290241.7064   20290236.820
        49.1004         46.8004
 16  2 13  1 52 30.0000000  0  7G30G05G21G18G13G20G15
   3849201.46345   3004387.13645  24542349.8714   24542359.2344   24542348.815
        34.7004         33.3004
   1777755.71346   1408748.20545  24164091.1014   24164098.5984   24164091.585
        38.0004         35.9004
 -15564174.75147 -12116803.06947  21407893.0404   21407897.1434   21407892.980
        45.8004         43.2004
  -9845306.00747  -7660902.39546  21956673.4154   21956677.4814   21956673.392
        44.2004         41.6004
 -10803200.63947  -8394582.06647  21318580.3604   21318585.2784   21318580.493
        45.6004         42.8004
 -15601015.62147 -12134633.93347  20409041.7544   20409046.8344   20409042.276
        47.4004         44.7004
 -19356001.50648 -15065469.68647  20287841.1924   20287845.5934   20287840.850
        49.3004         46.8004
 16  2 13  1 53  0.0000000  0  7G30G05G21G18G13G20G15
   3916326.88445   3056692.60245  24555124.5574   24555133.1654   24555125.532
        34.7004         33.4004
   1876127.26146   1485401.22645  24182811.4784   24182818.3614   24182812.607
        38.0004         35.9004
 -15592571.10047 -12138930.11747  21402488.9714   21402493.4454   21402489.656
        45.8004         43.2004
  -9910498.04247  -7711701.38946  21944267.1294   21944271.5824   21944267.590
        44.2004         41.4004
 -10744353.19047  -8348726.93647  21329778.9714   21329783.7294   21329778.990
        45.5004         42.6004
 -15559549.96747 -12102323.06347  20416932.7134   20416937.5874   20416933.167
        47.4004         44.9004
 -19368036.52148 -15074847.62447  20285550.9544   20285555.4334   20285550.804
        49.3004         46.8004
 16  2 13  1 53 30.0000000  0  7G30G05G21G18G13G20G15
   3983900.21645   3109347.11945  24567980.9654   24567990.2674   24567981.230
        34.0004         32.9004
   1974587.57346   1562123.41845  24201548.7434   24201556.2984   24201547.790
        38.0004         35.7004
 -15620519.08247 -12160707.78947  21397170.7864   21397175.1214   21397171.031
        46.0004         43.3004
  -9975489.93047  -7762344.42146  21931899.6774   21931904.0834   21931900.140
        44.2004         41.6004
 -10685041.36647  -8302509.96947  21341065.7044   21341070.0684   21341065.661
        45.5004         42.6004
 -15517695.62247 -12069709.32247  20424897.3444   20424902.4034   20424898.108
        47.4004         44.7004
 -19379515.41448 -15083792.23247  20283366.5834   20283371.0464   20283366.016
        49.3004         46.8004
 16  2 13  1 54  0.0000000  0  7G30G05G21G18G13G20G15
   4051919.27545   3162348.86745  24580926.3324   24580937.0164   24580923.675
        33.5004         32.7004
   2073136.03246   1638914.30745  24220301.8174   24220308.6144   24220300.499
        37.8004         35.7004
 -15648017.33747 -12182135.02147  21391938.0574   21391942.3134   21391938.624
        46.0004         43.3004
 -10040280.78547  -7812830.80046  21919570.6674   21919575.3354   21919570.960
        44.2004         41.6004
 -10625267.66147  -8255933.07547  21352440.4954   21352444.7024   21352440.344
        45.3004         42.8004
 -15475453.04947 -12036793.05747  20432936.1214   20432940.9054   20432936.388
        47.4004         44.7004
 -19390438.53948 -15092303.76347  20281287.9924   20281292.5084   20281287.795
        49.3004         46.8004
 16  2 13  1 54 30.0000000  0  7G30G05G21G18G13G20G15
   4120381.62045   3215696.08145  24593957.1864   24593962.6174   24593956.854
        33.3004         32.6004
   2171771.44846   1715772.96745  24239071.1994   24239077.1074   24239070.364
        37.8004         35.7004
 -15675064.89347 -12203211.06747  21386791.0924   21386795.5354   21386791.598
        46.0004         43.3004
 -10104869.01847  -7863159.30746  21907280.0474   21907284.1394   21907279.860
        44.4004         41.8004
 -10565034.04447  -8208997.82147  21363902.8024   21363907.0304   21363902.384
        45.5004         42.8004
 -15432823.27947 -12003575.09047  20441048.6264   20441053.0564   20441049.052
        47.4004         44.7004
 -19400805.96448 -15100382.28847  20279315.3104   20279319.6114   20279314.801
        49.3004         46.8004
 16  2 13  1 55  0.0000000  0  7G30G05G21G18G13G20G15
   4189285.27545   3269387.27645  24607065.0404   24607077.1574   24607065.072
        33.0004         32.0004
   2270492.93946   1792698.70745  24257856.8474   24257864.3084   24257855.663
        37.8004         35.7004
 -15701659.52147 -12223934.17547  21381730.3474   21381734.7024   21381731.022
        46.0004         43.3004
 -10169253.87247  -7913329.31546  21895028.0444   21895032.3104   21895028.317
        44.4004         41.9004
 -10504342.59947  -8161705.81147  21375451.7364   21375456.5314   21375451.695
        45.3004         42.6004
 -15389806.96447 -11970055.91147  20449233.9724   20449238.9704   20449234.326
        47.4004         44.7004
 -19410617.39748 -15108027.56447  20277448.0324   20277452.3404   20277447.700
        49.3004         46.8004
 16  2 13  1 55 30.0000000  0  7G30G05G21G18G13G20G15
   4258627.99255   3323420.46145  24620257.9615                   24620255.573
        32.3004         31.9004
   2369299.92046   1869691.05545  24276659.7354   24276667.1594   24276659.288
        37.8004         35.7004
 -15727800.43647 -12244303.74047  21376755.6374   21376760.1434   21376756.335
        45.8004         43.3004
 -10233434.87247  -7963340.48046  21882814.4184   21882819.3694   21882814.843
        44.6004         41.9004
 -10443195.48247  -8114058.74147  21387087.8964   21387092.0484   21387087.251
        45.3004         42.5004
 -15346404.58147 -11936235.90847  20457493.0934   20457498.1004   20457493.741
        47.4004         44.7004
 -19419873.71048 -15115240.28347  20275686.6184   20275691.1264   20275686.271
        49.3004         46.8004
 16  2 13  1 56  0.0000000  0  7G30G05G21G18G13G20G15
   4328407.33645   3377793.81945  24633545.0864                   24633544.135
        32.1004         31.5004
   2468190.81446   1946748.77945  24295478.4534   24295484.6014   24295477.407
        37.6004         35.5004
 -15753486.66447 -12264319.00347  21371867.6604   21371872.1374   21371868.041
        45.8004         43.3004
 -10297411.13847  -8013192.11746  21870639.9254   21870645.0084   21870640.666
        44.6004         41.9004
 -10381595.10947  -8066058.48347  21398810.1094   21398814.8364   21398809.530
        45.1004         42.5004
 -15302617.08247 -11902115.80647  20465825.4464   20465830.3224   20465825.953
        47.2004         44.7004
 -19428575.25448 -15122020.71347  20274030.6114   20274035.3234   20274030.454
        49.3004         46.8004
 16  2 13  1 56 30.0000000  0  7G30G05G21G18G13G20G15
   4398621.12545   3432505.86945  24646900.6614                   24646901.935
        32.1004         31.7004
   2567164.95046   2023871.38545  24314313.3904   24314319.3514   24314312.888
        37.5004         35.5004
 -15778716.86947 -12283978.93047  21367066.8924   21367071.0904   21367067.281
        45.8004         43.3004
 -10361181.95947  -8062883.66446  21858504.6764   21858509.5944   21858505.259
        44.6004         41.9004
 -10319543.48847  -8017706.59647  21410617.6984   21410622.2404   21410617.881
        45.1004         42.5004
 -15258445.12647 -11867696.13247  20474231.2914   20474236.1634   20474231.567
        47.2004         44.7004
 -19436722.47248 -15128369.20547  20272480.6624   20272484.8074   20272480.579
        49.3004         47.0004
 16  2 13  1 57  0.0000000  0  7G30G05G21G18G13G20G15
   4469267.05045   3487554.63445  24660340.7544   24660355.7294   24660343.578
        32.1004         31.9004
   2666221.52946   2101058.20845  24333163.1564   24333169.2104   24333161.887
        37.3004         35.3004
 -15803489.48947 -12303282.29547  21362352.6864   21362357.4234   21362353.226
        46.0004         43.5004
 -10424746.58947  -8112414.53546  21846408.7674   21846413.6974   21846409.277
        44.6004         41.9004
 -10257043.16447  -7969005.08147  21422510.8664   21422515.3004   21422511.006
        45.1004         42.5004
 -15213889.17947 -11832977.24747  20482710.1124   20482714.9634   20482710.521
        47.2004         44.7004
 -19444315.55348 -15134285.90447  20271035.6694   20271039.9354   20271035.158
        49.3004         47.0004
 16  2 13  1 57 30.0000000  0  7G30G05G21G18G13G20G15
   4540343.02545   3542938.40745  24673873.6234   24673884.1074   24673869.924
        32.3004         31.9004
   2765359.54546   2178308.50845  24352028.8074   24352034.7394   24352027.152
        37.6004         35.7004
 -15827803.13347 -12322228.01447  21357726.0214   21357730.8364   21357726.340
        46.0004         43.3004
 -10488103.84247  -8161783.81747  21834352.7084   21834358.0024   21834352.881
        44.6004         42.1004
 -10194095.75247  -7919955.17247  21434490.0424   21434494.4524   21434489.341
        45.1004         42.3004
 -15168950.20647 -11797959.89747  20491261.3804   20491266.6584   20491261.817
        47.2004         44.7004
 -19451354.70448 -15139770.96247  20269696.2524   20269700.4004   20269696.148
        49.3004         47.0004
 16  2 13  1 58  0.0000000  0  7G30G05G21G18G13G20G15
   4611846.53245   3598655.36945  24687472.4364                   24687477.949
        32.3004         31.9004
   2864578.25546   2255621.67645  24370909.5694   24370916.0734   24370909.016
        37.5004         35.7004
 -15851657.01547 -12340815.47147  21353186.6354   21353191.6844   21353187.436
        46.0004         43.5004
 -10551252.88747  -8210990.86947  21822335.8964   21822340.4424   21822336.302
        44.8004         42.3004
 -10130703.60847  -7870558.72647  21446552.5654   21446557.3964   21446552.771
        45.1004         42.5004
 -15123628.69147 -11762644.45947  20499885.7424   20499890.8174   20499886.234
        47.2004         44.5004
 -19457840.79248 -15144825.06547  20268461.7414   20268466.3484   20268461.122
        49.3004         47.0004
 16  2 13  1 58 30.0000000  0  7G30G05G21G18G13G20G15
   4683775.43145   3654703.88145                                  24701165.452
        31.9004         31.7004
   2963876.54146   2332996.86045  24389804.0464   24389812.5624   24389802.569
        37.5004         35.5004
 -15875049.51847 -12359043.41547  21348735.1214   21348739.8354   21348735.546
        46.0004         43.5004
 -10614193.02147  -8260035.12747  21810358.9354   21810363.8854   21810359.239
        44.9004         42.3004
 -10066869.26847  -7820817.71047  21458699.5104   21458705.3014   21458699.928
        44.9004         42.3004
 -15077925.41047 -11727031.54347  20508582.6324   20508588.1614   20508583.441
        47.2004         44.7004
 -19463774.00848 -15149448.35847  20267332.8284   20267336.9904   20267332.533
        49.3004         47.0004
 16  2 13  1 59  0.0000000  0  7G30G05G21G18G13G20G15
   4756127.36745   3711081.98245                                  24714930.821
        31.7004         31.2004
   3063253.92346   2410433.66745  24408714.4584   24408722.7854   24408715.732
        37.5004         35.3004
 -15897979.44047 -12376910.89947  21344372.0444   21344376.4324   21344371.701
        46.0004         43.5004
 -10676923.04147  -8308915.66247  21798421.1324   21798426.2014   21798422.014
        44.9004         42.5004
 -10002594.69047  -7770733.66247  21470930.9654   21470935.8434   21470930.843
        44.9004         42.3004
 -15031841.06847 -11691121.69647  20517352.3464   20517357.7364   20517352.957
        47.2004         44.5004
 -19469154.77848 -15153641.17347  20266308.8724   20266313.2184   20266308.307
        49.3004         47.0004
 16  2 13  1 59 30.0000000  0  6G05G21G18G13G20G15
   3162709.27346   2487931.25145  24427641.5154   24427648.6664   24427641.809
        37.6004         35.7004
 -15920445.59347 -12394417.02047  21340096.6134   21340101.2474   21340097.420
        46.0004         43.5004
 -10739442.28947  -8357631.95847  21786524.0284   21786528.9354   21786524.976
        44.9004         42.3004
  -9937881.99647  -7720308.21747  21483245.5894   21483249.9764   21483245.690
        44.9004         42.3004
 -14985376.58447 -11654915.64547  20526194.4064   20526199.3514   20526194.903
        47.2004         44.5004
 -19473983.64348 -15157403.93147  20265389.6004   20265394.4764   20265389.573
        49.5004         47.0004
 16  2 13  2  0  0.0000000  0  6G05G21G18G13G20G15
   3262241.35346   2565488.61246  24446581.7504   24446589.6414   24446581.130
        38.0004         36.0004
 -15942446.79047 -12411560.83447  21335910.1634   21335914.6804   21335910.403
        46.0004         43.5004
 -10801749.56947  -8406183.07947  21774668.1344   21774672.4534   21774668.637
        44.9004         42.5004
  -9872733.61447  -7669543.27847  21495642.9214   21495647.6494   21495642.454
        44.9004         42.5004
 -14938532.56947 -11618413.84947  20535108.3844   20535114.0864   20535108.970
        47.2004         44.5004
 -19478260.98648 -15160736.93747  20264576.1684   20264580.5364   20264575.609
        49.5004         47.2004
 16  2 13  2  0 30.0000000  0  6G05G21G18G13G20G15
   3361849.49546   2643105.24245  24465537.0494   24465543.9374   24465536.394
        37.8004         35.9004
 -15963981.70747 -12428341.31047  21331812.1844   21331816.8624   21331812.500
        46.0004         43.5004
 -10863844.53047  -8454568.76547  21762851.3604   21762856.2584   21762851.842
        45.1004         42.5004
  -9807151.84947  -7618440.63247  21508123.0694   21508127.1674   21508123.375
        44.9004         42.3004
 -14891309.26447 -11581616.50047  20544095.0064   20544100.1124   20544095.435
        47.2004         44.7004
 -19481987.53248 -15163640.74047  20263866.5684   20263871.2654   20263866.240
        49.5004         47.0004
 16  2 13  2  1  0.0000000  0  6G05G21G18G13G20G15
   3461532.61746   2720780.26745  24484507.0234   24484513.0554   24484505.804
        37.6004         35.5004
 -15985049.44247 -12444757.74947  21327802.9804   21327807.3744   21327803.526
        46.0004         43.5004
 -10925725.93047  -8502788.03747  21751075.7304   21751080.5614   21751076.215
        45.1004         42.5004
  -9741138.71847  -7567001.87047  21520684.7464   21520689.5914   21520684.436
        44.9004         42.1004
 -14843707.93847 -11544524.59647  20553153.4294   20553158.3584   20553153.962
        47.2004         44.7004
 -19485163.47648 -15166115.51047  20263262.5754   20263266.9084   20263262.264
        49.5004         47.2004
 16  2 13  2  1 30.0000000  0  6G05G21G18G13G20G15
   3561290.04546   2798513.19645  24503488.7004   24503496.9204   24503489.338
        37.5004         35.3004
 -16005648.84647 -12460809.25947  21323882.9734   21323887.6684   21323883.440
        46.0004         43.5004
 -10987393.17547  -8550840.43847  21739340.7254   21739345.6704   21739341.604
        45.1004         42.5004
  -9674696.67547  -7515228.88647  21533328.6664   21533332.7804   21533328.093
        44.9004         42.3004
 -14795729.46147 -11507138.80947  20562283.1694   20562288.7124   20562284.147
        47.2004         44.7004
 -19487789.42148 -15168161.70347  20262762.8724   20262767.2644   20262762.541
        49.5004         47.3004
 16  2 13  2  2  0.0000000  0  6G05G21G18G13G20G15
   3661121.09646   2876303.48045  24522486.2464   24522492.3384   24522486.411
        37.1004         34.8004
 -16025778.35047 -12476494.60947  21320052.5424   21320057.4374   21320052.943
        46.0004         43.5004
 -11048845.06347  -8598725.02847  21727647.3334   21727651.7984   21727648.011
        45.1004         42.3004
  -9607827.71547  -7463123.23947  21546053.2764   21546057.5414   21546052.900
        44.9004         42.3004
 -14747374.19447 -11469459.42247  20571485.0484   20571490.0044   20571485.621
        47.2004         44.7004
 -19489865.99948 -15169779.82647  20262367.7594   20262372.1354   20262367.576
        49.6004         47.2004
 16  2 13  2  2 30.0000000  0  6G05G21G18G13G20G15
   3761024.60846   2954150.25145  24541498.8084   24541505.3994   24541495.928
        36.6004         34.8004
 -16045437.05047 -12491813.09747  21316311.9144   21316316.2824   21316312.501
        46.0004         43.3004
 -11110081.24747  -8646441.53047  21715994.1004   21715998.5034   21715994.514
        45.1004         42.3004
  -9540534.51647  -7410687.00647  21558858.8794   21558863.2624   21558858.953
        44.9004         42.1004
 -14698643.13747 -11431487.20547  20580757.9154   20580763.4394   20580758.796
        47.2004         44.5004
 -19491393.97548 -15170970.46147  20262076.7494   20262081.4314   20262076.428
        49.5004         47.2004
 16  2 13  2  3  0.0000000  0  6G05G21G18G13G20G15
   3860999.44346   3032052.56945  24560522.7424   24560529.0334   24560524.437
        36.6004         34.6004
 -16064623.96847 -12506763.96547  21312660.6304   21312665.3804   21312660.737
        46.0004         43.3004
 -11171100.53047  -8693989.02747  21704382.3534   21704387.4634   21704382.651
        45.1004         42.3004
  -9472819.04847  -7357921.74646  21571744.8934   21571749.1994   21571744.373
        44.8004         41.9004
 -14649536.92747 -11393222.66347  20590103.1514   20590108.1484   20590103.450
        47.2004         44.4004
 -19492373.70748 -15171733.89547  20261890.5474   20261894.9654   20261890.222
        49.5004         47.0004
 16  2 13  2  3 30.0000000  0  7G05G21G27G18G13G20G15
   3961044.70346   3110009.77645  24579561.4754   24579567.0414   24579561.368
        36.8004         34.8004
 -16083337.66747 -12521346.09147  21309099.3774   21309104.2974   21309099.795
        46.0004         43.3004
    -29625.70044    -18668.911                    23981974.982
        26.4004          1.500
 -11231901.61647  -8741366.50447  21692812.8164   21692817.3714   21692812.871
        45.1004         42.5004
  -9404683.61547  -7304829.23647  21584710.6354   21584714.9494   21584710.236
        44.8004         42.1004
 -14600056.21547 -11354666.30147  20599518.9024   20599523.8304   20599519.599
        47.2004         44.5004
 -19492805.81348 -15172070.60547  20261808.4054   20261812.9424   20261808.099
        49.6004         47.2004
 16  2 13  2  4  0.0000000  0  7G05G21G27G18G13G20G15
   4061160.06646   3188021.60045  24598612.7964   24598619.8554   24598612.810
        36.6004         34.8004
 -16101577.05147 -12535558.62147  21305628.5964   21305633.4594   21305629.083
        46.2004         43.5004
    -32718.35244    -21078.769                    23981386.469
        26.4004          1.500
 -11292484.08947  -8788573.63047  21681284.3644   21681288.8874   21681284.693
        45.3004         42.5004
  -9336130.34047  -7251411.14547  21597754.9234   21597759.8204   21597754.879
        44.8004         42.1004
 -14550201.83547 -11315818.77047  20609005.5034   20609010.8704   20609005.979
        47.2004         44.5004
 -19492690.78248 -15171980.97847  20261830.3014   20261834.5614   20261829.726
        49.6004         47.2004
 16  2 13  2  4 30.0000000  0  7G05G21G27G18G13G20G15
   4161344.33346   3266087.09245  24617676.4534   24617684.2084   24617676.001
        36.4004         34.6004
 -16119341.39047 -12549400.99347  21302248.4004   21302252.8464   21302248.932
        46.2004         43.5004
    -32718.35245    -21078.769                    23981386.469
        33.5004          1.500
 -11352846.68447  -8835609.42847  21669797.6304   21669802.2364   21669798.108
        45.3004         42.6004
  -9267161.69847  -7197669.38646  21610880.0564   21610884.6914   21610879.703
        44.6004         41.9004
 -14499974.83047 -11276680.87847  20618563.6264   20618569.0684   20618563.762
        47.2004         44.5004
 -19492029.19648 -15171465.46347  20261956.0754   20261960.4544   20261955.534
        49.5004         47.2004
 16  2 13  2  5  0.0000000  0  6G05G21G18G13G20G15
   4261596.35846   3344205.40545  24636751.6334   24636761.7414   24636753.086
        36.4004         34.6004
 -16136629.30447 -12562872.11847  21298958.4084   21298963.2584   21298959.194
        46.2004         43.5004
 -11412988.92147  -8882473.51347  21658352.8724   21658357.6934   21658352.709
        45.3004         42.6004
  -9197779.91147  -7143605.70046  21624082.6374   21624087.1024   21624082.541
        44.6004         41.8004
 -14449375.63947 -11237252.97247  20628192.5534   20628197.5384   20628192.888
        47.0004         44.5004
 -19490821.85248 -15170524.68247  20262185.7384   20262190.0714   20262185.418
        49.5004         47.3004
 16  2 13  2  5 30.0000000  0  7G05G21G27G18G13G20G15
   4361915.54346   3422375.98345  24655843.8504   24655852.1704   24655843.182
        36.6004         35.0004
 -16153439.98047 -12575971.36847  21295759.3244   21295764.5064   21295759.988
        46.2004         43.5004
    -32718.35244
        26.4004
 -11472909.50847  -8929164.88547  21646950.2024   21646955.2414   21646950.631
        45.5004         42.8004
  -9127987.25547  -7089221.85546  21637364.2844   21637368.3194   21637363.501
        44.4004         41.9004
 -14398405.07347 -11197535.68847  20637891.7754   20637897.0484   20637892.185
        47.0004         44.5004
 -19489069.39448 -15169159.13947  20262519.5124   20262523.7824   20262518.932
        49.6004         47.2004
 16  2 13  2  6  0.0000000  0  7G05G21G27G18G13G20G15
   4462301.18746   3500598.38045  24674947.2854   24674954.9664   24674946.280
        37.1004         35.3004
 -16169771.97847 -12588697.63047  21292651.9494   21292656.6094   21292651.832
        46.2004         43.5004
    -32718.35244
        26.4004
 -11532607.52347  -8975682.82747  21635589.9064   21635595.3644   21635590.707
        45.5004         42.8004
  -9057786.07647  -7034519.68546  21650722.5054   21650727.5504   21650722.730
        44.4004         41.6004
 -14347063.96347 -11157529.66347  20647661.5504   20647666.8664   20647662.177
        47.0004         44.4004
 -19486772.52648 -15167369.38047  20262956.3984   20262960.7504   20262956.103
        49.5004         47.2004
 16  2 13  2  6 30.0000000  0  7G05G21G27G18G13G20G15
   4562752.39846   3578871.86845  24694063.1574   24694071.4444   24694064.013
        37.5004         35.5004
 -16185624.41447 -12601050.20147  21289635.1834   21289639.7784   21289635.448
        46.0004         43.5004
    -32718.35244
        26.4004
 -11592082.09547  -9022026.65747  21624273.0294   21624277.0464   21624273.413
        45.5004         43.0004
  -8987178.53547  -6979500.86046  21664159.1004   21664163.3154   21664159.239
        44.4004         41.6004
 -14295353.06547 -11117235.48847  20657501.8734   20657507.5474   20657502.018
        47.0004         44.4004
 -19483931.88948 -15165155.90447  20263497.0484   20263501.3924   20263496.700
        49.5004         47.2004
 16  2 13  2  7  0.0000000  0  7G05G21G27G18G13G20G15
   4663268.01446   3657195.52745  24713190.1894   24713197.4234   24713188.867
        37.6004         35.7004
 -16200996.44647 -12613028.43847  21286709.9854   21286714.4374   21286711.179
        46.2004         43.5004
    -32718.35244
        26.4004
 -11651332.77947  -9068196.03047  21612997.5604   21613002.3824   21612998.199
        45.5004         43.0004
  -8916166.96047  -6924167.21246  21677671.9834   21677676.3834   21677671.968
        44.2004         41.6004
 -14243273.25747 -11076653.85647  20667412.3734   20667417.8914   20667413.069
        47.0004         44.4004
 -19480548.39148 -15162519.42147  20264140.8404   20264145.1754   20264140.637
        49.6004         47.2004
 16  2 13  2  7 30.0000000  0  7G05G21G27G18G13G20G15
   4763846.97246   3735568.54545  24732328.7824   24732338.0144   24732327.766
        37.5004         35.7004
 -16215886.88847 -12624631.40547  21283876.6174   21283880.9414   21283876.971
        46.2004         43.7004
    -32718.35244
        26.4004
 -11710358.48147  -9114190.09247  21601765.0964   21601770.1564   21601765.436
        45.6004         42.8004
  -8844753.69947  -6868520.56046  21691260.8874   21691266.4454   21691261.373
        44.2004         41.6004
 -14190825.62847 -11035785.61247  20677392.7364   20677397.9094   20677393.480
        47.0004         44.4004
 -19476622.85648 -15159460.57347  20264887.9624   20264892.2024   20264887.769
        49.6004         47.3004
 16  2 13  2  8  0.0000000  0  7G05G21G27G18G13G20G15
   4864488.75046   3813990.50245  24751480.3944   24751489.2924   24751480.826
        37.6004         35.3004
 -16230295.11247 -12635858.61647  21281134.3144   21281139.5194   21281134.501
        46.2004         43.7004
    -32718.35245
        32.8004
 -11769158.21947  -9160008.08147  21590575.7334   21590580.9834   21590576.555
        45.6004         43.0004
  -8772941.10647  -6812562.75946  21704927.1354   21704932.2564   21704926.469
        44.2004         41.6004
 -14138010.84147 -10994631.27247  20687443.0194   20687448.3724   20687443.763
        47.0004         44.4004
 -19472155.80248 -15155979.76147  20265737.6764   20265742.2944   20265737.596
        49.6004         47.3004
 16  2 13  2  8 30.0000000  0  6G05G21G18G13G20G15
   4965192.54446   3892460.79145  24770644.5554   24770652.8234   24770644.608
        37.3004         35.3004
 -16244219.63647 -12646708.91947  21278484.8444   21278489.5174   21278485.003
        46.2004         43.7004
 -11827731.15847  -9205649.32847  21579429.6274   21579434.8664   21579430.311
        45.6004         43.2004
  -8700731.30647  -6756295.43646  21718668.5994   21718672.7014   21718668.116
        44.2004         41.6004
 -14084829.09947 -10953190.98447  20697563.4724   20697568.6644   20697563.783
        47.0004         44.4004
 -19467147.93048 -15152077.53247  20266690.8664   20266695.0884   20266690.511
        49.6004         47.2004
 16  2 13  2  9  0.0000000  0  6G05G21G18G13G20G15
   5065957.39646   3970978.61745  24789820.0914   24789829.6814   24789822.110
        37.0004         34.8004
 -16257659.49847 -12657181.57147  21275927.5304   21275932.1134   21275928.314
        46.2004         43.7004
 -11886076.20547  -9251113.00447  21568327.4724   21568332.2314   21568327.767
        45.6004         43.0004
  -8628126.77447  -6699720.52346  21732484.6224   21732489.6834   21732484.293
        44.2004         41.4004
 -14031281.63047 -10911465.72347  20707753.3164   20707758.5794   20707753.966
        47.0004         44.4004
 -19461599.97448 -15147754.46047  20267746.8774   20267751.1404   20267746.294
        49.6004         47.2004
 16  2 13  2  9 30.0000000  0  7G05G21G18G13G20G15G10
   5166782.36146   4049543.27145  24809005.6054   24809015.7354   24809003.841
        36.3004         34.0004
 -16270613.86447 -12667275.91147  21273462.4224   21273467.2374   21273462.658
        46.2004         43.7004
 -11944192.51247  -9296398.44347  21557268.3534   21557272.8524   21557268.839
        45.6004         43.0004
  -8555129.83747  -6642839.84646  21746375.2744   21746379.3624   21746374.992
        44.1004         41.4004
 -13977369.34947 -10869456.18647  20718012.3314   20718017.6644   20718012.940
        47.0004         44.4004
 -19455512.79948 -15143011.21747  20268904.9394   20268909.5994   20268904.681
        49.6004         47.3004
    -61741.66044    -35835.42943                                  23959358.409
        26.4004         23.4004
 16  2 13  2 10  0.0000000  0  7G05G21G18G13G20G15G10
   5267666.50145   4128154.07845  24828204.8204   24828212.2104   24828204.309
        35.4004         33.6004
 -16283081.83147 -12676991.23447  21271089.7814   21271094.6214   21271089.750
        46.2004         43.7004
 -12002079.05747  -9341504.84947  21546253.2504   21546257.1644   21546253.591
        45.6004         43.2004
  -8481742.81447  -6585655.20546  21760340.2134   21760345.4904   21760339.794
        43.9004         41.4004
 -13923093.02547 -10827162.98447  20728340.6584   20728346.0814   20728341.186
        46.9004         44.4004
 -19448887.40848 -15137848.58747  20270165.7794   20270170.0824   20270165.231
        49.6004         47.3004
   -122961.54344    -83539.352 4                  23947718.448
        26.4004         24.800
 16  2 13  2 10 30.0000000  0  7G05G21G18G13G20G15G10
   5368609.24845   4206810.55345  24847414.8614   24847421.6044   24847410.050
        34.7004         33.1004
 -16295062.50447 -12686326.85547  21268810.1354   21268814.4034   21268810.895
        46.2004         43.7004
 -12059735.24947  -9386431.75147  21535281.1074   21535285.8654   21535281.606
        45.8004         43.0004
  -8407968.16347  -6528168.51146  21774378.9674   21774384.1484   21774378.692
        43.9004         41.2004
 -13868453.43147 -10784586.71447  20738738.2924   20738743.9374   20738739.004
        46.9004         44.2004
 -19441724.83248 -15132267.36647  20271528.6744   20271533.3334   20271528.336
        49.6004         47.2004
   -184146.49344   -131215.940 4                  23936070.828
        28.1004         27.600
 16  2 13  2 11  0.0000000  0  7G05G21G18G13G20G15G10
   5469609.28445   4285511.70145  24866629.8944   24866638.1564   24866632.099
        34.5004         33.3004
 -16306555.02647 -12695282.10247  21266623.2154   21266627.7954   21266623.900
        46.2004         43.5004
 -12117159.82547  -9431178.17047  21524353.3584   21524357.9794   21524353.716
        45.8004         43.0004
  -8333807.80847  -6470381.27746  21788491.0574   21788496.4784   21788490.941
        43.9004         41.2004
 -13813451.38747 -10741728.01447  20749205.0454   20749210.1094   20749205.624
        46.9004         44.2004
 -19434025.45148 -15126267.86447  20272993.8954   20272998.4114   20272993.551
        49.6004         47.2004
   -351419.13046   -261558.18246  23904235.5044   23904243.7404   23904236.145
        38.2004         37.1004
 16  2 13  2 11 30.0000000  0  7G05G21G18G13G20G15G10
   5570665.79345   4364256.86045  24885862.7184   24885869.8784   24885862.264
        35.2004         33.8004
 -16317558.22747 -12703856.05047  21264529.3684   21264533.9754   21264529.575
        46.2004         43.7004
 -12174352.15447  -9475743.62647  21513469.8944   21513474.8284   21513470.564
        45.8004         43.2004
  -8259264.40847  -6412295.56446  21802676.7984   21802681.2884   21802676.368
        43.9004         41.4004
 -13758087.75047 -10698587.55847  20759740.5034   20759745.8034   20759740.840
        46.9004         44.2004
 -19425790.06148 -15119850.69047  20274561.1694   20274565.5184   20274560.932
        49.6004         47.2004
   -447800.52546   -336660.56046  23885894.1824   23885902.3804   23885894.398
        39.0004         37.1004
 16  2 13  2 12  0.0000000  0  6G21G18G13G20G15G10
 -16328071.30947 -12712048.08647  21262528.7344   21262533.5844   21262529.262
        46.2004         43.5004
 -12231311.04747  -9520127.18447  21502631.9944   21502635.5864   21502632.311
        45.8004         43.2004
  -8184340.13847  -6353913.06846  21816934.2774   21816939.1684   21816934.164
        43.9004         41.2004
 -13702363.29447 -10655165.93747  20770344.4334   20770349.9764   20770344.543
        46.9004         44.2004
 -19417019.70348 -15113016.65647  20276229.9364   20276234.4294   20276229.822
        49.6004         47.2004
   -544091.32746   -411692.35646  23867570.0874   23867579.5214   23867570.434
        39.2004         37.1004
 16  2 13  2 12 30.0000000  0  6G21G18G13G20G15G10
 -16338093.59147 -12719857.68547  21260621.5944   21260626.4354   21260621.947
        46.2004         43.7004
 -12288035.47047  -9564328.04347  21491837.4964   21491841.7614   21491837.871
        46.0004         43.3004
  -8109037.22447  -6295235.53246  21831263.6744   21831268.6504   21831264.076
        43.7004         41.1004
 -13646279.02147 -10611463.95047  20781016.9674   20781022.3274   20781017.393
        46.9004         44.2004
 -19407715.27048 -15105766.46747  20278000.4814   20278004.9964   20278000.363
        49.6004         47.2004
   -640290.52546   -486652.78646  23849263.5814   23849272.2784   23849263.654
        39.0004         36.7004
 16  2 13  2 13  0.0000000  0  6G21G18G13G20G15G10
 -16347624.04147 -12727284.03947  21258807.9464   21258812.6764   21258808.383
        46.2004         43.5004
 -12344524.54347  -9608345.50347  21481087.5754   21481091.6324   21481087.748
        46.0004         43.3004
  -8033358.04547  -6236264.79746  21845665.3894   21845670.2194   21845665.415
        43.7004         41.2004
 -13589835.58547 -10567482.08947  20791758.2174   20791763.2624   20791758.849
        46.9004         44.2004
 -19397877.35348 -15098100.56547  20279872.8474   20279877.2574   20279872.567
        49.6004         47.3004
   -736397.00546   -561540.95946  23830975.9954   23830984.7414   23830975.766
        39.0004         36.9004
 16  2 13  2 13 30.0000000  0  7G21G24G18G13G20G15G10
 -16356661.83647 -12734326.50847  21257087.7924   21257092.7674   21257088.470
        46.2004         43.5004
   -305900.48946   -215484.99846  23225694.5814   23225703.9724   23225695.196
        38.3004         36.7004
 -12400777.43447  -9652178.93247  21470383.1154   21470387.4194   21470383.020
        45.8004         43.2004
  -7957305.06347  -6177002.78946  21860138.0174   21860142.7214   21860137.801
        43.7004         41.1004
 -13533033.91347 -10523221.09247  20802567.2384   20802572.3644   20802567.715
        46.9004         44.2004
 -19387507.16448 -15090019.91547  20281846.0684   20281850.5134   20281845.686
        49.6004         47.3004
   -832409.69546   -636356.03246  23812705.1244   23812714.3164   23812704.327
        39.0004         36.9004
 16  2 13  2 14  0.0000000  0  7G21G24G18G13G20G15G10
 -16365206.23447 -12740984.50547  21255462.1844   21255466.8484   21255462.407
        46.2004         43.5004
   -408822.67246   -295684.09246  23206110.3644   23206119.8364   23206108.691
        39.0004         37.1004
 -12456793.34447  -9695827.69447  21459724.0024   21459728.3934   21459724.052
        46.0004         43.2004
  -7880880.40747  -6117451.16346  21874681.2604   21874685.5794   21874680.973
        43.7004         40.9004
 -13475874.69647 -10478681.47947  20813443.7414   20813449.1834   20813443.985
        46.9004         44.0004
 -19376605.66448 -15081525.25747  20283920.4014   20283925.0394   20283920.222
        49.6004         47.2004
   -928327.55746   -711097.23946  23794453.0364   23794461.3774   23794452.440
        39.0004         36.7004
 16  2 13  2 14 30.0000000  0  7G21G24G18G13G20G15G10
 -16373256.72547 -12747257.63947  21253930.2414   21253934.9324   21253930.248
        46.2004         43.5004
   -511506.52246   -375697.46746  23186569.5314   23186578.8294   23186569.459
        39.2004         37.1004
 -12512571.28247  -9739291.03147  21449109.6694   21449113.8764   21449109.966
        46.0004         43.2004
  -7804086.64447  -6057611.91346  21889293.9634   21889299.4674   21889293.705
        43.6004         40.7004
 -13418358.93647 -10433864.04247  20824388.7274   20824394.4164   20824389.331
        46.7004         43.9004
 -19365173.79048 -15072617.31947  20286096.0964   20286100.5194   20286095.714
        49.6004         47.2004
  -1024149.68846   -785763.83046  23776217.4964   23776226.6494   23776217.671
        39.0004         36.9004
 16  2 13  2 15  0.0000000  0  7G21G24G18G13G20G15G10
 -16380811.95747 -12753144.86047  21252492.6334   21252497.4494   21252492.598
        46.2004         43.5004
   -613948.57746   -455522.42946  23167075.4474   23167085.4434   23167075.520
        39.4004         37.3004
 -12568110.09547  -9782568.02947  21438540.4954   21438545.5404   21438541.135
        46.0004         43.2004
  -7726926.07847  -5997486.85646  21903977.7574   21903982.7444   21903977.314
        43.4004         40.9004
 -13360487.51847 -10388769.47647  20835401.6954   20835406.5964   20835402.003
        46.7004         43.9004
 -19353212.55148 -15063296.89047  20288372.1254   20288376.6534   20288371.611
        49.5004         47.0004
  -1119874.76646   -860354.79446  23758001.7584   23758011.0904   23758001.540
        38.9004         36.6004
 16  2 13  2 15 30.0000000  0  8G21G27G24G18G13G20G15G10
 -16387871.15447 -12758645.56247  21251149.2354   21251154.0764   21251149.459
        46.2004         43.5004
    -32718.35244
        26.4004
   -716146.62646   -535157.26546  23147628.1104   23147637.7444   23147627.405
        39.6004         37.4004
 -12623409.09147  -9825658.16347  21428017.2954   21428022.3124   21428017.599
        45.8004         43.2004
  -7649401.12647  -5937077.85546  21918730.3364   21918734.9174   21918730.115
        43.4004         40.7004
 -13302261.42947 -10343398.54247  20846481.6204   20846486.7684   20846482.042
        46.7004         43.9004
 -19340723.32448 -15053565.04847  20290749.0004   20290753.2604   20290748.818
        49.5004         47.2004
  -1215502.04046   -934869.55146  23739805.1994   23739813.8964   23739804.615
        38.9004         36.7004
 16  2 13  2 16  0.0000000  0  8G21G27G24G18G13G20G15G10
 -16394433.69947 -12763759.26447  21249900.4784   21249905.2684   21249901.629
        46.2004         43.7004
    -32718.35244
        26.4004
   -818096.55746   -614598.77246  23128228.0104   23128236.3874   23128227.248
        39.7004         37.4004
 -12678467.25347  -9868560.63247  21417540.4294   21417545.1374   21417540.422
        46.0004         43.3004
  -7571513.84447  -5876386.52746  21933551.8034   21933556.2734   21933551.815
        43.4004         40.7004
 -13243681.64447 -10297752.00247  20857628.4584   20857634.7614   20857629.092
        46.7004         44.0004
 -19327706.51548 -15043422.09747  20293225.7164   20293230.3914   20293225.555
        49.6004         47.2004
  -1311030.19646  -1009307.07746  23721626.3754   23721635.5264   23721626.520
        39.2004         37.1004
 16  2 13  2 16 30.0000000  0  8G21G27G24G18G13G20G15G10
 -16400499.05647 -12768485.54647  21248746.2414   21248751.2144   21248746.699
        46.2004         43.7004
    -50651.14646    -36770.52746                  23834904.2604   23834897.404
        37.5004         36.9004
   -919795.96746   -693845.05646  23108875.1064   23108883.8054   23108874.588
        39.7004         37.4004
 -12733283.61347  -9911274.68747  21407109.1734   21407113.8674   21407110.272
        46.0004         43.5004
  -7493266.55347  -5815414.67646  21948442.1674   21948446.5254   21948442.316
        43.4004         40.9004
 -13184748.59047 -10251830.18047  20868843.5174   20868849.0814   20868844.144
        46.7004         44.0004
 -19314162.99948 -15032868.72847  20295803.1034   20295807.7084   20295802.675
        49.6004         47.2004
  -1406458.11446  -1083666.49946  23703467.2484   23703475.6594   23703466.919
        39.4004         37.4004
 16  2 13  2 17  0.0000000  0  8G21G27G24G18G13G20G15G10
 -16406066.31747 -12772823.70047  21247687.0424   21247691.7674   21247687.431
        46.2004         43.5004
    -72489.67746    -53787.57946  23830741.6014   23830750.4124   23830742.480
        39.2004         37.3004
  -1021241.86646   -772893.79446  23089569.4504   23089579.8304   23089569.673
        39.6004         37.3004
 -12787857.12147  -9953799.49847  21396724.5744   21396728.4804   21396724.767
        46.2004         43.5004
  -7414661.83047  -5754164.31246  21963399.4744   21963404.8104   21963399.695
        43.4004         40.9004
 -13125463.34647 -10205633.92847  20880124.9964   20880130.6384   20880126.148
        46.7004         43.9004
 -19300094.12748 -15021905.99247  20298480.4524   20298484.8834   20298480.025
        49.6004         47.2004
  -1501784.97146  -1157947.17846  23685326.7234   23685336.0734   23685326.977
        39.6004         37.3004
 16  2 13  2 17 30.0000000  0  8G21G27G24G18G13G20G15G10
 -16411134.78547 -12776773.18047  21246722.4234   21246727.2364   21246722.609
        46.2004         43.5004
    -93740.31146    -70346.54946  23826697.8534   23826706.4484   23826697.754
        39.6004         37.3004
  -1122431.00246   -851742.45346  23070313.9334   23070323.6864   23070314.049
        39.6004         37.3004
 -12842186.62247  -9996134.17947  21386385.6984   21386390.2624   21386386.056
        46.2004         43.5004
  -7335701.89647  -5692637.15946  21978425.3614   21978430.4974   21978425.185
        43.4004         40.7004
 -13065826.42347 -10159163.63747  20891473.8584   20891479.4704   20891474.096
        46.7004         43.9004
 -19285500.58448 -15010534.42147  20301257.6374   20301261.9694   20301257.276
        49.6004         47.0004
  -1597009.26946  -1232147.92146  23667207.1104   23667214.6284   23667206.136
        39.7004         37.6004
 16  2 13  2 18  0.0000000  0  8G21G27G24G18G13G20G15G10
 -16415704.08347 -12780333.70647  21245853.0684   21245857.7654   21245854.098
        46.2004         43.7004
   -114402.80646    -86447.24846  23822765.8014   23822773.6934   23822765.850
        39.6004         37.3004
  -1223360.62246   -930388.88146  23051108.1344   23051117.9794   23051106.812
        39.7004         37.4004
 -12896271.83647 -10038278.50347  21376094.0044   21376098.1284   21376094.016
        46.2004         43.5004
  -7256389.37447  -5630835.24546  21993518.5064   21993523.3344   21993518.197
        43.4004         40.7004
 -13005839.23747 -10112420.41847  20902889.1784   20902894.4484   20902890.046
        46.7004         44.0004
 -19270383.86548 -14998755.18347  20304134.0074   20304138.4024   20304133.959
        49.5004         47.2004
  -1692130.47746  -1306268.34446  23649106.5704   23649114.6934   23649105.595
        39.7004         37.4004
 16  2 13  2 18 30.0000000  0  8G21G27G24G18G13G20G15G10
 -16419772.31847 -12783503.78647  21245078.9894   21245083.7384   21245080.178
        46.2004         43.7004
   -134476.18146   -102088.89746  23818946.6484   23818954.6274   23818946.279
        39.7004         37.4004
  -1324027.26446  -1008830.37246  23031952.2294   23031961.3474   23031951.759
        39.7004         37.4004
 -12950111.29347 -10080231.32947  21365848.0354   21365852.7204   21365848.763
        46.3004         43.7004
  -7176726.03847  -5568759.96746  22008677.8214   22008682.4054   22008677.773
        43.4004         40.7004
 -12945502.50147 -10065404.81747  20914370.7794   20914376.3294   20914370.840
        46.7004         44.0004
 -19254744.66748 -14986568.81647  20307110.3054   20307114.4144   20307110.196
        49.6004         47.3004
  -1787147.06946  -1380307.23546  23631024.9854   23631034.0124   23631025.434
        39.7004         37.6004
 16  2 13  2 19  0.0000000  0  8G21G27G24G18G13G20G15G10
 -16423339.69747 -12786283.59147  21244400.1434   21244404.8284   21244400.260
        46.3004         43.7004
   -153960.17546   -117271.27446  23815238.3714   23815247.1554   23815238.425
        39.7004         37.4004
  -1424428.59046  -1087065.12846  23012846.6544   23012855.4704   23012846.623
        39.9004         37.6004
 -13003704.12047 -10121991.97747  21355649.6744   21355654.4394   21355650.056
        46.3004         43.9004
  -7096714.62447  -5506413.46846  22023902.8974   22023908.6594   22023902.953
        43.0004         40.4004
 -12884817.35547 -10018117.72747  20925918.6234   20925924.4674   20925919.403
        46.7004         44.0004
 -19238584.43148 -14973976.44347  20310185.4244   20310189.9904   20310185.363
        49.6004         47.3004
  -1882058.11446  -1454263.88246  23612964.1274   23612972.0164   23612963.210
        39.7004         37.4004
 16  2 13  2 19 30.0000000  0  8G21G27G24G18G13G20G15G10
 -16426405.82647 -12788672.81147  21243816.3774   21243821.6444   21243816.324
        46.3004         43.7004
   -172854.13346   -131993.87946  23811642.5564   23811650.8474   23811642.605
        39.7004         37.3004
  -1524561.30646  -1165090.55846  22993791.6564   22993800.8864   22993791.883
        39.9004         37.4004
 -13057049.34247 -10163559.70047  21345498.9434   21345503.1374   21345499.418
        46.3004         43.7004
  -7016357.49547  -5443797.58646  22039194.5674   22039199.7444   22039194.184
        43.0004         40.6004
 -12823784.48947  -9970559.68647  20937533.0524   20937538.5114   20937533.492
        46.7004         44.0004
 -19221903.94948 -14960978.69447  20313359.6934   20313364.2414   20313359.259
        49.6004         47.3004
  -1976862.42046  -1528137.33046  23594922.0764   23594931.2104   23594922.562
        39.7004         37.4004
 16  2 13  2 20  0.0000000  0  8G21G27G24G18G13G20G15G10
 -16428969.49747 -12790670.50847  21243328.7164   21243333.4934   21243328.976
        46.2004         43.5004
   -191157.57346   -146256.35246  23808159.7724   23808168.1244   23808159.690
        39.7004         37.4004
  -1624421.86046  -1242903.92846  22974787.8634   22974798.0044   22974787.306
        39.7004         37.6004
 -13110146.10647 -10204933.81247  21335395.1624   21335399.1084   21335395.378
        46.3004         43.7004
  -6935656.93447  -5380914.09846  22054551.4454   22054556.8544   22054551.551
        43.0004         40.6004
 -12762404.86347  -9922731.44547  20949213.2394   20949218.7454   20949213.924
        46.7004         43.9004
 -19204704.49148 -14947576.54247  20316632.8484   20316636.9634   20316632.241
        49.6004         47.3004
  -2071558.93646  -1601926.79846  23576902.0214   23576911.2444   23576901.787
        39.6004         37.3004
 16  2 13  2 20 30.0000000  0  8G21G27G24G18G13G20G15G10
 -16431030.84147 -12792276.77847  21242936.5134   21242941.3664   21242937.568
        46.2004         43.5004
   -208870.03646   -160058.31646  23804789.7474   23804797.9934   23804789.341
        39.7004         37.3004
  -1724007.69046  -1320503.21346  22955837.8814   22955847.5164   22955837.140
        39.9004         37.8004
 -13162993.35247 -10246113.48647  21325338.3924   21325342.7564   21325338.603
        46.3004         43.9004
  -6854615.21347  -5317764.77446  22069973.8504   22069978.1004   22069973.365
        43.0004         40.6004
 -12700679.17547  -9874633.53547  20960959.0494   20960964.8204   20960959.835
        46.5004         43.9004
 -19186986.97948 -14933770.70847  20320004.2304   20320008.7384   20320004.185
        49.6004         47.2004
  -2166146.57846  -1675631.42646  23558903.5464   23558911.5724   23558903.221
        39.7004         37.6004
 16  2 13  2 21  0.0000000  0  8G21G27G24G18G13G20G15G10
 -16432587.93547 -12793490.13547  21242640.3694   21242644.9994   21242641.367
        46.2004         43.5004
   -225991.06746   -173399.44046  23801531.4704   23801538.8584   23801531.171
        39.6004         37.1004
  -1823315.62346  -1397885.94646  22936940.7224   22936949.5694   22936940.022
        40.3004         38.1004
 -13215590.19547 -10287098.04647  21315329.3464   21315334.0424   21315329.810
        46.3004         43.7004
  -6773234.81247  -5254351.53346  22085459.2684   22085464.4954   22085459.541
        43.0004         40.4004
 -12638608.33847  -9826266.68347  20972770.9104   20972776.5064   20972771.397
        46.5004         43.7004
 -19168752.57748 -14919562.10447  20323473.8884   20323478.5484   20323473.420
        49.5004         47.0004
  -2260624.19346  -1749250.31146  23540925.0524   23540933.4784   23540924.817
        40.1004         37.8004
 16  2 13  2 21 30.0000000  0  8G21G27G24G18G13G20G15G10
 -16433641.97247 -12794311.49147  21242439.7754   21242444.3744   21242439.914
        46.2004         43.5004
   -242520.24946   -186279.37646  23798386.4744   23798393.8994   23798386.178
        39.4004         37.1004
  -1922342.69246  -1475049.81946  22918096.7274   22918106.0294   22918096.276
        40.6004         38.3004
 -13267935.46047 -10327886.57447  21305368.5384   21305372.8194   21305368.797
        46.3004         43.7004
  -6691517.81847  -5190676.02546  22101010.1724   22101015.2194   22101009.602
        43.0004         40.6004
 -12576193.48747  -9777631.77547  20984648.1204   20984653.6504   20984648.641
        46.5004         43.7004
 -19150002.70148 -14904951.83947  20327042.1484   20327046.5644   20327041.739
        49.5004         47.0004
  -2354990.69546  -1822782.63546  23522967.8544   23522976.1004   23522967.073
        40.3004         37.9004
 16  2 13  2 22  0.0000000  0  8G21G27G24G18G13G20G15G10
 -16434191.18747 -12794739.47647  21242334.8844   21242340.1544   21242335.065
        46.2004         43.5004
   -258457.15446   -198697.78746  23795353.3154   23795361.8414   23795354.003
        39.4004         37.1004
  -2021086.25946  -1551992.79846  22899305.8334   22899315.6104   22899305.837
        40.8004         38.3004
 -13320028.20547 -10368478.33247  21295455.4694   21295460.2364   21295456.232
        46.3004         43.7004
  -6609466.84947  -5126740.27346  22116623.7184   22116628.8004   22116623.645
        42.9004         40.4004
 -12513435.51147  -9728729.48747  20996590.8164   20996595.9374   20996590.986
        46.3004         43.7004
 -19130738.16448 -14889940.53247  20330707.9844   20330712.6564   20330707.834
        49.5004         47.0004
  -2449244.98246  -1896227.54146  23505031.2454   23505039.8764   23505031.220
        40.4004         38.3004
 16  2 13  2 22 30.0000000  0  8G21G27G24G18G13G20G15G10
 -16434235.46047 -12794774.01047  21242326.9674   21242331.8064   21242327.032
        46.2004         43.7004
   -273801.41646   -210654.39846  23792433.4884   23792441.7634   23792433.579
        39.4004         37.1004
  -2119543.41246  -1628712.60446  22880569.9874   22880579.6724   22880569.597
        40.6004         38.1004
 -13371867.73247 -10408872.77947  21285590.3214   21285595.4954   21285590.870
        46.3004         43.5004
  -6527084.13047  -5062546.00746  22132300.6504   22132305.9944   22132301.222
        42.9004         40.2004
 -12450335.30147  -9679560.53447  21008598.1634   21008603.5244   21008598.732
        46.3004         43.5004
 -19110960.50848 -14874529.39647  20334471.6364   20334476.1234   20334471.259
        49.5004         47.0004
  -2543385.90346  -1969584.10746  23487116.8194   23487125.5754   23487116.251
        40.6004         38.3004
 16  2 13  2 23  0.0000000  0  8G21G27G24G18G13G20G15G10
 -16433773.39947 -12794413.98947  21242415.0974   21242419.6064   21242415.085
        46.2004         43.5004
   -288552.81346   -222149.03646  23789626.9534   23789634.7684   23789626.756
        39.6004         37.3004
  -2217710.71846  -1705206.55746  22861889.4954   22861898.8904   22861888.390
        40.6004         38.1004
 -13423453.11947 -10449069.19347  21275774.6314   21275779.1264   21275774.845
        46.3004         43.7004
  -6444372.04647  -4998095.09846  22148040.8524   22148045.2184   22148040.595
        42.7004         40.2004
 -12386893.92247  -9630125.73347  21020670.8964   21020675.9434   21020671.020
        46.2004         43.5004
 -19090670.88448 -14858719.31947  20338332.4814   20338336.9874   20338332.344
        49.5004         46.8004
  -2637412.37946  -2042851.47946  23469223.8144   23469232.4154   23469223.666
        40.6004         38.3004
 16  2 13  2 23 30.0000000  0  8G21G27G24G18G13G20G15G10
 -16432805.30647 -12793659.66447  21242598.9994   21242603.6174   21242598.915
        46.2004         43.5004
   -302710.74046   -233181.23946  23786932.1354   23786940.5574   23786932.370
        39.7004         37.4004
  -2315585.50246  -1781472.56546  22843264.7284   22843273.4064   22843263.563
        40.4004         38.1004
 -13474783.17047 -10489066.64047  21266006.6954   21266011.1534   21266006.958
        46.3004         43.7004
  -6361332.68147  -4933389.15246  22163843.0834   22163847.1684   22163842.937
        42.7004         40.0004
 -12323112.05447  -9580425.60347  21032808.1264   21032813.7294   21032808.333
        46.2004         43.3004
 -19069870.09848 -14842510.93347  20342290.7174   20342295.5404   20342290.382
        49.3004         46.8004
  -2731323.12546  -2116028.66946  23451353.8424   23451362.0854   23451353.358
        40.6004         38.3004
 16  2 13  2 24  0.0000000  0  8G21G27G24G18G13G20G15G10
 -16431330.56547 -12792510.54347  21242879.8244   21242884.4764   21242879.848
        46.2004         43.5004
   -316275.02046   -243750.85446  23784350.8714   23784359.4614   23784351.173
        39.6004         37.1004
  -2413164.28146  -1857507.92346  22824695.3104   22824704.8034   22824695.484
        40.6004         38.1004
 -13525856.71447 -10528864.21247  21256287.3434   21256292.3304   21256287.742
        46.3004         43.9004
  -6277968.54947  -4868430.14746  22179706.3614   22179710.6674   22179706.451
        42.5004         39.9004
 -12258990.73647  -9530460.98247  21045009.5154   21045015.1254   21045010.552
        46.2004         43.5004
 -19048559.40548 -14825905.22147  20346346.1224   20346350.7324   20346345.735
        49.3004         47.0004
  -2825117.00746  -2189114.81146  23433505.5694   23433514.2004   23433505.320
        40.8004         38.3004
 16  2 13  2 24 30.0000000  0  8G21G27G24G18G13G20G15G10
 -16429348.86747 -12790966.39347  21243256.7204   21243261.4704   21243256.888
        46.2004         43.5004
   -329245.36646   -253857.65746  23781883.5754   23781891.8794   23781882.647
        39.4004         37.3004
  -2510444.21046  -1933310.41946  22806184.0254   22806192.9804   22806183.387
        40.6004         38.1004
 -13576673.17747 -10568461.46747  21246617.8154   21246622.1954   21246618.428
        46.5004         43.9004
  -6194282.08647  -4803219.98246  22195631.1884   22195636.2224   22195631.132
        42.5004         39.9004
 -12194530.73347  -9480232.45247  21057276.0614   21057281.4744   21057276.602
        46.2004         43.3004
 -19026740.13648 -14808903.21747  20350498.0234   20350502.9034   20350497.599
        49.3004         47.0004
  -2918792.93946  -2262109.03646  23415679.8264   23415688.5134   23415679.429
        40.9004         38.5004
 16  2 13  2 25  0.0000000  0  8G21G27G24G18G13G20G15G10
 -16426860.18747 -12789027.18847  21243730.3924   21243734.9814   21243730.606
        46.2004         43.5004
   -341621.71346   -263501.60046  23779528.0874   23779536.1154   23779528.603
        39.6004         37.3004
  -2607422.68346  -2008878.02146  22787729.0264   22787738.9084   22787728.891
        40.6004         38.1004
 -13627231.62347 -10607857.66947  21236996.7564   21237001.5284   21236997.538
        46.5004         43.9004
  -6110275.58147  -4737760.43546  22211617.3604   22211621.8424   22211617.326
        42.5004         39.9004
 -12129733.34247  -9429741.01047  21069606.7064   21069612.5024   21069607.255
        46.0004         43.2004
 -19004413.79448 -14791506.08647  20354746.8424   20354751.2114   20354746.570
        49.3004         46.8004
  -3012349.93346  -2335010.59746  23397876.1884   23397884.8944   23397876.259
        40.9004         38.5004
 16  2 13  2 25 30.0000000  0  8G21G27G24G18G13G20G15G10
 -16423862.63847 -12786691.46447  21244300.8274   21244305.4834   21244301.004
        46.2004         43.5004
   -353403.55846   -272682.29446  23777285.6804   23777294.0144   23777285.615
        39.6004         37.3004
  -2704096.59646  -2084208.30846  22769333.3264   22769341.6854   22769332.930
        40.8004         38.5004
 -13677530.65047 -10647051.72647  21227425.2434   21227429.8134   21227425.606
        46.5004         44.0004
  -6025951.24847  -4672053.23646  22227663.2074   22227668.9284   22227663.966
        42.5004         40.2004
 -12064599.11647  -9378987.11247  21082001.3064   21082007.0374   21082001.912
        46.0004         43.3004
 -18981581.46248 -14773714.67747  20359091.8704   20359096.1454   20359091.360
        49.3004         46.8004
  -3105786.53646  -2407818.34446  23380096.4484   23380104.2094   23380095.836
        41.1004         38.6004
 16  2 13  2 26  0.0000000  0  8G21G27G24G18G13G20G15G10
 -16420356.48647 -12783959.43447  21244968.0634   21244972.8474   21244968.186
        46.2004         43.5004
   -364590.94246   -281399.76446  23775157.3424   23775165.2344   23775157.373
        39.6004         37.3004
  -2800462.87546  -2159298.88846  22750995.9404   22751004.4524   22750995.029
        40.9004         38.6004
 -13727569.41747 -10686042.97747  21217903.5624   21217907.8934   21217903.705
        46.5004         43.9004
  -5941311.55347  -4606100.30646  22243770.8004   22243775.2144   22243770.534
        42.7004         40.2004
 -11999129.29347  -9327971.70847  21094459.7114   21094465.5634   21094460.427
        46.0004         43.2004
 -18958243.96948 -14755529.63747  20363532.6434   20363537.4254   20363531.864
        49.3004         46.8004
  -3199101.82946  -2480531.56946  23362338.8144   23362346.7624   23362338.606
        40.9004         38.5004
 16  2 13  2 26 30.0000000  0  8G21G27G24G18G13G20G15G10
 -16416340.83547 -12780830.37647  21245732.2204   21245737.2424   21245732.265
        46.2004         43.5004
   -375183.46146   -289653.72346  23773141.3084   23773149.8974   23773141.696
        39.6004         37.3004
  -2896518.87746  -2234147.70146  22732716.8724   22732725.4264   22732716.909
        41.1004         38.6004
 -13777347.08347 -10724830.77847  21208430.5334   21208435.5074   21208431.052
        46.7004         43.9004
  -5856358.88147  -4539903.48646  22259936.8874   22259941.3114   22259936.691
        42.7004         40.2004
 -11933324.63347  -9276695.39347  21106981.8174   21106987.7774   21106982.657
        45.8004         43.2004
 -18934402.90148 -14736952.20147  20368069.3404   20368074.1944   20368069.186
        49.3004         46.8004
  -3292294.48846  -2553149.22746  23344605.0164   23344613.2184   23344604.824
        41.1004         38.6004
 16  2 13  2 27  0.0000000  0  8G21G27G24G18G13G20G15G10
 -16411816.01447 -12777304.56347  21246593.3464   21246598.1514   21246593.857
        46.2004         43.5004
   -385181.07646   -297444.11146  23771238.9974   23771247.9044   23771238.810
        39.6004         37.3004
  -2992260.76946  -2308751.75746  22714497.0314   22714506.8094   22714496.100
        41.1004         38.8004
 -13826862.83247 -10763414.48747  21199008.1834   21199012.4264   21199008.540
        46.5004         43.9004
  -5771095.33247  -4473464.42846  22276160.9764   22276166.8294   22276161.079
        42.7004         39.9004
 -11867186.19747  -9225158.99847  21119567.9614   21119573.4504   21119568.459
        45.8004         43.2004
 -18910059.56948 -14717983.38647  20372701.6464   20372706.4404   20372701.319
        49.3004         46.8004
  -3385363.36146  -2625670.41246  23326894.4704   23326902.5224   23326893.857
        40.9004         38.3004
 16  2 13  2 27 30.0000000  0  8G21G27G24G18G13G20G15G10
 -16406781.33847 -12773381.47647  21247551.4384   21247556.0524   21247551.881
        46.2004         43.5004
   -394583.64046   -304770.84546  23769449.6654   23769458.2684   23769449.264
        39.4004         37.1004
  -3087686.19046  -2383109.20646  22696337.9424   22696347.6054   22696337.514
        41.3004         38.8004
 -13876115.01847 -10801792.81547  21189635.8144   21189640.2774   21189636.320
        46.5004         43.9004
  -5685523.56647  -4406785.19946  22292445.0994   22292450.3944   22292444.413
        42.2004         39.5004
 -11800714.88847  -9173363.22447  21132217.0134   21132222.7984   21132217.571
        45.8004         43.2004
 -18885215.17948 -14698624.13947  20377429.5224   20377434.1044   20377429.018
        49.1004         46.6004
  -3478307.33546  -2698094.30446  23309206.9914   23309216.0044   23309206.779
        40.8004         38.3004
 16  2 13  2 28  0.0000000  0  8G21G27G24G18G13G20G15G10
 -16401236.87847 -12769061.15247  21248606.3954   21248611.0074   21248606.806
        46.0004         43.3004
   -403391.04646   -311633.81546  23767773.5944   23767781.8924   23767773.708
        39.6004         37.3004
  -3182792.47846  -2457217.97946  22678240.4824   22678249.2204   22678241.107
        41.3004         39.0004
 -13925102.88147 -10839965.18047  21180313.7874   21180318.3744   21180314.119
        46.5004         43.9004
  -5599645.67247  -4339867.41246  22308786.2354   22308792.9894   22308786.490
        42.0004         39.2004
 -11733912.04147  -9121309.11147  21144929.7744   21144934.7734   21144930.166
        45.8004         43.2004
 -18859871.33048 -14678875.70247  20382252.5584   20382256.9434   20382252.091
        49.1004         46.8004
  -3571125.26946  -2770419.98546  23291544.8134   23291553.0894   23291544.139
        40.6004         38.1004
 16  2 13  2 28 30.0000000  0  8G21G27G24G18G13G20G15G10
 -16395181.34547 -12764342.59547  21249758.6844   21249763.6154   21249758.974
        46.2004         43.5004
   -411603.23646   -318032.98046  23766211.3104   23766220.0614   23766211.471
        39.7004         37.4004
  -3277576.60446  -2531075.71146  22660203.2744   22660212.7564   22660203.162
        41.5004         39.0004
 -13973825.89147 -10877931.16147  21171041.9584   21171046.7924   21171042.370
        46.5004         44.0004
  -5513463.78346  -4272712.77346  22325186.4664   22325192.5194   22325186.088
        41.8004         39.2004
 -11666778.30047  -9068997.14547  21157704.4154   21157709.9994   21157704.984
        45.8004         43.2004
 -18834029.12548 -14658738.93647  20387170.1384   20387174.7664   20387169.811
        49.3004         46.8004
  -3663815.87246  -2842646.43246  23273905.7914   23273914.4694   23273905.769
        40.6004         38.3004
 16  2 13  2 29  0.0000000  0  8G21G27G24G18G13G20G15G10
 -16388615.48847 -12759226.37647  21251008.2924   21251013.2164   21251008.515
        46.2004         43.5004
   -419220.14746   -323968.27846  23764761.2664   23764770.4964   23764761.094
        39.7004         37.4004
  -3372034.86346  -2604679.51846  22642228.4334   22642237.6604   22642227.467
        41.5004         39.0004
 -14022282.71447 -10915689.72947  21161821.0534   21161825.5014   21161821.428
        46.5004         43.9004
  -5426980.12546  -4205322.98946  22341643.8864   22341649.5674   22341643.859
        41.6004         39.0004
 -11599314.57147  -9016428.05847  21170542.5434   21170548.0634   21170542.858
        45.8004         43.2004
 -18807689.88848 -14638214.87747  20392182.2644   20392186.7664   20392181.979
        49.1004         46.6004
  -3756378.02246  -2914772.78546  23256292.0984   23256300.2434   23256291.752
        40.8004         38.3004
 16  2 13  2 29 30.0000000  0  8G21G27G24G18G13G20G15G10
 -16381538.17047 -12753711.61547  21252354.9634   21252360.0734   21252355.506
        46.2004         43.7004
   -426241.78346   -329439.71846  23763425.7164   23763434.4614   23763425.924
        39.7004         37.4004
  -3466164.87946  -2678027.56246  22624316.5214   22624325.4584   22624315.364
        41.5004         39.0004
 -14070472.47747 -10953240.20047  21152650.6474   21152655.6494   21152651.081
        46.7004         44.0004
  -5340197.96247  -4137700.58446  22358158.1304   22358163.8784   22358158.452
        42.0004         39.7004
 -11531521.81247  -8963602.58447  21183442.8464   21183448.5954   21183443.742
        45.8004         43.2004
 -18780854.84448 -14617304.46947  20397288.7524   20397293.2914   20397288.259
        49.1004         46.8004
  -3848810.50246  -2986798.07646  23238703.2054   23238711.6154   23238702.615
        41.1004         38.8004
 16  2 13  2 30  0.0000000  0  8G21G27G24G18G13G20G15G10
 -16373949.52347 -12747798.41247  21253799.2194   21253804.0304   21253799.031
        46.0004         43.3004
   -432668.20946   -334447.38646  23762202.8774   23762210.7934   23762202.114
        39.6004         37.1004
  -3559964.02346  -2751117.77046  22606466.9314   22606475.7934   22606467.362
        41.5004         39.0004
 -14118394.13847 -10990581.75447  21143531.5954   21143536.1314   21143531.744
        46.7004         43.9004
  -5253119.06147  -4069846.96646  22374728.4154   22374734.8384   22374728.833
        42.2004         39.7004
 -11463401.19147  -8910521.63047  21196406.0504   21196411.7674   21196406.848
        45.8004         43.2004
 -18753525.47848 -14596008.87947  20402489.5904   20402494.2234   20402489.140
        49.1004         46.6004
  -3941112.22346  -3058721.49446  23221138.5504   23221147.6234   23221138.197
        41.3004         38.8004
 16  2 13  2 30 30.0000000  0  8G21G27G24G18G13G20G15G10
 -16365848.77747 -12741486.17647  21255340.7534   21255345.2044   21255341.088
        46.0004         43.5004
   -438499.17246   -338991.04546  23761093.4944   23761101.1164   23761093.280
        39.2004         36.9004
  -3653428.78546  -2823947.42746  22588680.7294   22588689.9874   22588679.691
        41.3004         38.8004
 -14166046.77147 -11027713.69047  21134463.5364   21134468.2704   21134464.168
        46.7004         44.0004
  -5165745.32647  -4001763.60946  22391355.9674   22391361.1034   22391355.206
        42.2004         39.7004
 -11394953.41647  -8857185.74847  21209430.9824   21209436.7154   21209431.722
        45.8004         43.0004
 -18725703.07548 -14574329.10647  20407783.4484   20407788.4654   20407783.523
        49.1004         46.8004
  -4033281.71746  -3130541.87046  23203599.8424   23203608.0274   23203599.405
        41.6004         39.2004
 16  2 13  2 31  0.0000000  0  8G21G27G24G18G13G20G15G10
 -16357236.20147 -12734775.12247  21256979.7644   21256984.4384   21256980.295
        46.0004         43.5004
   -443734.96746   -343070.93246  23760096.9244   23760105.4094   23760096.843
        39.2004         37.1004
  -3746556.48746  -2896514.43546  22570959.4964   22570968.2774   22570958.318
        41.3004         38.8004
 -14213429.55947 -11064635.33847  21125446.9404   21125451.6374   21125447.317
        46.7004         44.0004
  -5078079.49847  -3933452.65446  22408037.6684   22408043.5924   22408037.648
        42.2004         39.5004
 -11326179.59147  -8803595.80747  21222518.3754   21222524.5094   21222518.628
        45.6004         43.0004
 -18697388.85448 -14552266.09947  20413172.2314   20413176.2754   20413171.601
        49.1004         46.6004
  -4125317.98346  -3202258.43846  23186085.9634   23186093.6184   23186085.075
        41.6004         39.2004
 16  2 13  2 31 30.0000000  0  8G21G27G24G18G13G20G15G10
 -16348111.36847 -12727664.89347  21258715.9044   21258720.8354   21258716.507
        46.0004         43.5004
   -448375.51346   -346686.99446  23759213.3764   23759222.0884   23759213.236
        39.0004         36.9004
  -3839344.32746  -2968816.59246  22553302.1134   22553310.9444   22553302.518
        41.3004         39.0004
 -14260540.84947 -11101345.43847  21116481.8564   21116486.2914   21116482.608
        46.7004         44.2004
  -4990123.74646  -3864915.78146  22424774.9804   22424780.7004   22424775.590
        41.8004         39.2004
 -11257080.84847  -8749752.68447  21235667.5724   21235673.4384   21235668.517
        45.6004         43.0004
 -18668584.49448 -14529821.15647  20418653.1164   20418658.0064   20418652.837
        49.1004         46.6004
  -4217219.74146  -3273870.18246  23168596.8174   23168605.8234   23168596.919
        41.6004         39.0004
 16  2 13  2 32  0.0000000  0  8G21G27G24G18G13G20G15G10
 -16338473.76147 -12720155.10547  21260550.0894   21260555.4624   21260550.911
        46.0004         43.5004
   -452420.99346   -349839.36446  23758444.1554   23758452.3714   23758443.789
        39.0004         36.9004
  -3931789.18046  -3040851.47246  22535710.4004   22535719.8324   22535710.205
        41.6004         39.2004
 -14307379.97247 -11137843.46547  21107569.0184   21107573.1554   21107569.392
        46.7004         44.2004
  -4901880.43846  -3796154.83446  22441568.5054   22441573.5684   22441568.111
        41.6004         39.0004
 -11187658.19547  -8695657.16547  21248877.9894   21248883.8314   21248878.552
        45.6004         42.8004
 -18639291.14248 -14506995.19147  20424227.2844   20424232.2874   20424226.866
        49.1004         46.6004
  -4308985.73446  -3345376.14446  23151134.5274   23151143.2394   23151133.915
        41.5004         39.0004
 16  2 13  2 32 30.0000000  0  8G21G27G24G18G13G20G15G10
 -16328323.32347 -12712245.70947  21262481.5684   21262486.7544   21262482.179
        46.0004         43.3004
   -455871.50346   -352528.13846  23757787.6864   23757795.9614   23757787.366
        39.0004         36.7004
  -4023888.13046  -3112616.83546  22518184.8084   22518194.0754   22518184.393
        41.8004         39.3004
 -14353945.84147 -11174128.55047  21098707.3404   21098712.0754   21098707.761
        46.7004         44.0004
  -4813351.66346  -3727171.44046  22458414.6944   22458420.3634   22458414.444
        41.5004         38.8004
 -11117912.51647  -8641309.93647  21262150.6004   21262155.5744   21262150.717
        45.5004         42.5004
 -18609510.40648 -14483789.44947  20429894.3584   20429899.3144   20429893.990
        49.1004         46.5004
  -4400614.79846  -3416775.38846  23133698.3624   23133706.6874   23133697.545
        41.5004         38.8004
 16  2 13  2 33  0.0000000  0  8G21G27G24G18G13G20G15G10
 -16317660.48547 -12703937.04147  21264510.8864   21264515.8124   21264511.162
        46.0004         43.3004
   -458727.35046   -354753.53346  23757243.5464   23757253.5274   23757243.790
        38.9004         36.6004
  -4115638.89647  -3184110.86146  22500725.3374   22500734.3464   22500725.353
        42.0004         39.5004
 -14400237.73047 -11210200.15747  21089898.3924   21089903.4274   21089898.871
        46.7004         44.2004
  -4724540.15046  -3657967.75246  22475314.7444   22475320.1464   22475314.876
        41.3004         38.8004
 -11047844.97347  -8586711.91047  21275483.8924   21275489.6114   21275484.996
        45.5004         42.6004
 -18579243.46348 -14460204.84147  20435654.1394   20435659.0104   20435653.812
        48.9004         46.5004
  -4492105.87546  -3488067.13246  23116288.0084   23116296.3804   23116287.489
        41.3004         39.0004
 16  2 13  2 33 30.0000000  0  8G21G27G24G18G13G20G15G10
 -16306484.57347 -12695228.57247  21266637.5864   21266642.4084   21266637.874
        46.0004         43.3004
   -460988.49746   -356515.49846  23756813.8954   23756822.3584   23756813.801
        38.9004         36.7004
  -4207037.55646  -3255330.51346  22483332.2864   22483341.0644   22483332.463
        41.8004         39.3004
 -14446254.53447 -11246057.40547  21081141.7864   21081146.5204   21081142.414
        46.9004         44.4004
  -4635448.13946  -3588545.47146  22492268.6644   22492273.5324   22492268.014
        41.3004         38.8004
 -10977456.43147  -8531863.74647  21288878.2854   21288884.1594   21288878.807
        45.3004         42.6004
 -18548491.94448 -14436242.64147  20441506.1774   20441510.4554   20441505.784
        48.9004         46.5004
  -4583457.54446  -3559250.22346  23098904.8594   23098912.3994   23098904.081
        41.6004         39.2004
 16  2 13  2 34  0.0000000  0  8G21G27G24G18G13G20G15G10
 -16294795.18047 -12686119.99047  21268862.1074   21268866.7344   21268862.222
        46.0004         43.3004
   -462655.06646   -357814.17346  23756497.1044   23756505.1194   23756497.292
        39.0004         36.7004
  -4298082.07746  -3326274.20546  22466007.0954   22466015.8594   22466006.576
        41.8004         39.3004
 -14491995.11347 -11281699.41047  21072437.3054   21072442.3954   21072437.836
        46.9004         44.2004
  -4546077.51146  -3518906.10046  22509274.9034   22509280.8804   22509274.618
        41.3004         38.8004
 -10906747.73147  -8476766.11747  21302334.2814   21302339.5144   21302334.363
        45.3004         42.6004
 -18517257.24448 -14411903.92947  20447449.4964   20447454.4724   20447449.524
        48.9004         46.5004
  -4674668.39446  -3630323.58946  23081547.5994   23081555.6584   23081547.153
        41.8004         39.3004
 16  2 13  2 34 30.0000000  0  8G21G27G24G18G13G20G15G10
 -16282592.27347 -12676611.26947  21271184.3324   21271189.3004   21271184.530
        46.0004         43.3004
   -463727.55746   -358649.91646  23756293.0634   23756300.8274   23756291.996
        39.0004         36.9004
  -4388769.20747  -3396939.41746  22448749.8624   22448758.7654   22448749.025
        42.0004         39.5004
 -14537459.08947 -11317125.89147  21063786.1694   21063790.9064   21063786.489
        46.9004         44.4004
  -4456430.98246  -3449051.73646  22526334.1324   22526339.8354   22526334.278
        41.6004         39.2004
 -10835720.15747  -8421420.00847  21315850.2734   21315855.6664   21315850.981
        45.3004         42.6004
 -18485540.81448 -14387189.85547  20453485.4444   20453490.0114   20453484.850
        48.9004         46.6004
  -4765737.54347  -3701286.53646  23064217.6724   23064225.7494   23064217.223
        42.0004         39.7004
 16  2 13  2 35  0.0000000  0  8G21G27G24G18G13G20G15G10
 -16269875.78147 -12666702.35047  21273603.8794   21273609.0274   21273604.089
        46.0004         43.3004
   -464206.04846   -359022.81546  23756201.6734   23756210.6694   23756201.550
        39.2004         36.9004
  -4479096.25847  -3467324.02246  22431560.9834   22431570.1464   22431560.251
        42.0004         39.5004
 -14582644.55747 -11352335.35247  21055187.6614   21055192.2624   21055188.544
        46.9004         44.4004
  -4366510.76946  -3378984.11146  22543445.9044   22543451.6314   22543445.499
        41.6004         39.0004
 -10764374.53247  -8365826.07147  21329427.0094   21329432.6674   21329427.348
        45.3004         42.6004
 -18453344.02548 -14362101.47347  20459612.0644   20459616.6954   20459612.012
        48.9004         46.5004
  -4856663.60047  -3772137.98346  23046914.8634   23046923.0864   23046914.058
        42.3004         39.9004
 16  2 13  2 35 30.0000000  0  8G21G27G24G18G13G20G15G10
 -16256645.52047 -12656393.08847  21276121.6814   21276126.6664   21276122.068
        46.0004         43.3004
   -464090.78946   -358933.05746  23756223.5794   23756231.4224   23756224.026
        39.4004         37.1004
  -4569059.70247  -3537425.30546  22414441.0714   22414450.8994   22414441.187
        42.0004         39.5004
 -14627551.05947 -11387327.42547  21046642.1394   21046646.9144   21046642.144
        47.0004         44.4004
  -4276318.89846  -3308704.80846  22560608.8974   22560614.4474   22560607.944
        41.5004         38.8004
 -10692712.02147  -8309985.21747  21343063.8734   21343069.7104   21343064.674
        45.3004         42.6004
 -18420668.33548 -14336639.91947  20465830.1194   20465834.8234   20465829.621
        48.9004         46.3004
  -4947445.26947  -3842876.91746  23029639.4314   23029648.3264   23029639.462
        42.3004         39.9004
 16  2 13  2 36  0.0000000  0  8G21G27G24G18G13G20G15G10
 -16242901.62447 -12645683.59047  21278736.9024   21278742.3044   21278737.338
        46.0004         43.3004
   -463382.12546   -358380.88946  23756358.0814   23756367.1064   23756358.035
        39.2004         36.9004
  -4658657.50847  -3607241.67646  22397391.3394   22397401.1714   22397391.142
        42.2004         39.7004
 -14672177.31747 -11422101.15047  21038150.2914   21038155.2324   21038150.925
        47.0004         44.2004
  -4185857.81246  -3238215.72546  22577823.2114   22577828.6594   22577822.914
        41.3004         38.6004
 -10620733.62847  -8253898.20947  21356760.8314   21356766.6494   21356761.445
        45.3004         42.5004
 -18387515.13348 -14310806.27847  20472139.1184   20472143.7074   20472138.530
        48.9004         46.3004
  -5038081.31247  -3913502.36846  23012391.9364   23012401.1054   23012391.554
        42.3004         39.9004
 16  2 13  2 36 30.0000000  0  8G21G27G24G18G13G20G15G10
 -16228644.14847 -12634573.90347  21281450.2094   21281455.2014   21281450.836
        46.0004         43.3004
   -462080.46046   -357366.65446  23756605.6494   23756615.0814   23756606.486
        39.0004         36.9004
  -4747886.91147  -3676770.99046  22380411.7694   22380420.7024   22380411.265
        42.2004         39.7004
 -14716522.52447 -11456655.84647  21029710.9494   21029716.4104   21029711.816
        47.0004         44.4004
  -4095130.15446  -3167518.91546  22595088.1854   22595092.5744   22595087.859
        41.1004         38.6004
 -10548440.36847  -8197565.85747  21370518.0614   21370523.8354   21370518.422
        45.1004         42.5004
 -18353886.32448 -14284602.02847  20478538.2524   20478543.1894   20478538.203
        48.9004         46.5004
  -5128570.59847  -3984013.46446  22995172.3734   22995181.0854   22995171.792
        42.2004         39.5004
 16  2 13  2 37  0.0000000  0  8G21G27G24G18G13G20G15G10
 -16213872.79847 -12623063.79347  21284260.9794   21284265.9674   21284261.760
        46.0004         43.3004
   -460186.11846   -355890.58946  23756967.1324   23756974.8424   23756966.582
        39.0004         36.7004
  -4836744.36247  -3746010.46546  22363502.3814   22363511.2694   22363502.014
        42.2004         39.7004
 -14760585.77147 -11490990.84247  21021326.3214   21021331.4534   21021326.655
        47.0004         44.4004
  -4004137.69646  -3096615.79246  22612402.5364   22612408.8954   22612402.867
        41.1004         38.5004
 -10475833.31847  -8140988.99247  21384334.4194   21384340.6354   21384335.348
        45.1004         42.5004
 -18319782.98448 -14258028.01947  20485027.9144   20485032.9474   20485027.217
        48.8004         46.3004
  -5218911.73047  -4054409.11346  22977980.6684   22977989.5934   22977980.691
        42.2004         39.5004
 16  2 13  2 37 30.0000000  0  8G21G27G24G18G13G20G15G10
 -16198587.43747 -12611153.15847  21287170.0594   21287175.3444   21287170.462
        46.0004         43.3004
   -457699.31846   -353952.87546  23757440.0324   23757448.5794   23757439.851
        39.2004         36.9004
  -4925227.40047  -3814958.21146  22346664.8644   22346673.5664   22346663.944
        42.2004         39.7004
 -14804365.82047 -11525105.17647  21012995.7164   21013000.4254   21012996.569
        47.0004         44.4004
  -3912882.65446  -3025508.06046  22629768.3424   22629774.0834   22629767.714
        40.9004         38.5004
 -10402913.31247  -8084168.27147  21398210.6614   21398216.5584   21398211.183
        45.1004         42.5004
 -18285206.51648 -14231085.33947  20491607.6094   20491612.3414   20491607.453
        48.8004         46.5004
  -5309103.43647  -4124688.33646  22960818.1534   22960826.5954   22960818.279
        42.3004         39.9004
 16  2 13  2 38  0.0000000  0  8G21G27G24G18G13G20G15G10
 -16182788.08047 -12598842.00547  21290176.1804   21290181.4664   21290176.816
        46.0004         43.3004
   -454620.65646   -351553.95746  23758026.3174   23758034.7344   23758025.984
        39.2004         37.1004
  -5013333.07647  -3883611.90046  22329899.1074   22329907.7474   22329898.921
        42.3004         39.9004
 -14847861.72447 -11558998.08047  21004718.3494   21004723.5764   21004718.706
        47.0004         44.5004
  -3821367.73146  -2954197.81446  22647182.2064   22647189.6894   22647182.436
        40.9004         38.3004
 -10329681.67947  -8027104.72147  21412146.0564   21412152.0344   21412147.052
        44.9004         42.3004
 -18250158.72548 -14203775.39047  20498277.2294   20498281.9234   20498276.764
        48.8004         46.3004
  -5399144.52047  -4194850.19746  22943684.1814   22943692.2514   22943683.488
        42.5004         39.9004
 16  2 13  2 38 30.0000000  0  8G21G27G24G18G13G20G15G10
 -16166474.64947 -12586130.27647  21293280.6264   21293285.7324   21293281.014
        45.8004         43.2004
   -450950.36146   -348694.03446  23758723.9754   23758733.2234   23758724.149
        39.4004         37.1004
  -5101058.95247  -3951969.65146  22313204.8024   22313213.8924   22313204.671
        42.3004         39.9004
 -14891071.91147 -11592668.37247  20996496.1294   20996500.6644   20996496.593
        47.0004         44.4004
  -3729594.57446  -2882686.36346  22664646.3884   22664652.7024   22664646.904
        40.9004         38.3004
 -10256139.14747  -7969798.91747  21426141.4294   21426146.9554   21426141.927
        44.9004         42.1004
 -18214640.81548 -14176099.11847  20505035.7914   20505040.9034   20505035.662
        48.8004         46.1004
  -5489033.62247  -4264893.64046  22926579.3624   22926587.4694   22926578.637
        42.5004         39.9004
 16  2 13  2 39  0.0000000  0  8G21G27G24G18G13G20G15G10
 -16149647.55847 -12573018.29547  21296482.7164   21296487.8114   21296483.383
        45.8004         43.3004
   -446689.03046   -345373.55446  23759535.2314   23759543.8464   23759535.528
        39.2004         37.1004
  -5188401.89547  -4020029.00946  22296583.7724   22296593.0184   22296583.719
        42.3004         39.9004
 -14933995.80547 -11626115.55447  20988327.4944   20988332.5604   20988328.025
        47.0004         44.4004
  -3637566.12146  -2810975.96346  22682159.7504   22682165.5524   22682159.520
        40.8004         38.3004
 -10182287.04447  -7912251.89147  21440194.7694   21440200.7894   21440195.533
        44.9004         42.3004
 -18178654.69648 -14148058.01047  20511884.1874   20511888.4644   20511883.764
        48.8004         46.3004
  -5578769.55147  -4334817.72846  22909502.7044   22909510.7024   22909502.236
        42.5004         40.0004
 16  2 13  2 39 30.0000000  0  8G21G27G24G18G13G20G15G10
 -16132306.59947 -12559505.89547  21299782.5894   21299788.1664   21299782.978
        46.0004         43.3004
   -441837.00646   -341592.79746  23760458.6764   23760466.9614   23760458.749
        39.4004         37.1004
  -5275359.05247  -4087787.77346  22280036.6574   22280045.8274   22280036.005
        42.5004         40.2004
 -14976632.73847 -11659339.13447  20980213.5394   20980218.9554   20980214.241
        47.0004         44.5004
  -3545284.10446  -2739067.98546  22699720.3144   22699726.6844   22699719.842
        40.8004         38.3004
 -10108126.20347  -7854464.28847  21454306.7064   21454313.1184   21454307.742
        44.9004         42.3004
 -18142201.63248 -14119653.04547  20518820.6504   20518825.6074   20518820.372
        48.9004         46.3004
  -5668350.92647  -4404621.38446  22892456.2524   22892464.0424   22892455.534
        42.7004         40.0004
 16  2 13  2 40  0.0000000  0  8G21G27G24G18G13G20G15G10
 -16114451.82747 -12545593.12947  21303180.6494   21303185.7464   21303181.018
        46.0004         43.3004
   -436394.97046   -337352.30146  23761494.7224   23761503.1534   23761494.446
        39.4004         37.1004
  -5361927.86347  -4155243.94146  22263563.2834   22263572.0104   22263562.560
        42.7004         40.2004
 -15018981.76247 -11692338.37947  20972154.9044   20972159.9134   20972155.922
        47.2004         44.5004
  -3452751.29046  -2666964.57346  22717329.5924   22717334.8384   22717328.805
        40.8004         38.3004
 -10033657.93947  -7796437.13447  21468477.8184   21468483.8774   21468478.290
        44.9004         42.3004
 -18105283.24048 -14090885.49247  20525846.3064   20525850.7614   20525845.614
        48.9004         46.3004
  -5757776.59547  -4474303.70346  22875438.6604   22875446.4954   22875438.580
        42.7004         40.0004
