     2.11           OBSERVATION DATA    G                   RINEX VERSION / TYPE
teqc  2008Oct2                          20081215 23:59:51UTCPGM / RUN BY / DATE 
gfzrnx-1.16-8177    FILE PROCESSING     20220323 151242 UTC COMMENT             
upc3                                                        MARKER NAME         
HJS                 gAGE/UPC                                OBSERVER / AGENCY   
1                   ASHTECH UZ-12       -Unknown-           REC # / TYPE / VERS 
-Unknown-           AT2775-1        NONE                    ANT # / TYPE        
        0.0000        0.0000        0.0000                  ANTENNA: DELTA H/E/N
  4789032.0289   176609.7587  4195022.9248                  APPROX POSITION XYZ 
     5    C1    L1    L2    P1    P2                        # / TYPES OF OBSERV 
Linux 2.4.20-8|Pentium IV|gcc -static|Linux|486/DX+         COMMENT             
BIT 2 OF LLI FLAGS DATA COLLECTED UNDER A/S CONDITION       COMMENT             
     1     1                                                WAVELENGTH FACT L1/2
 SNR is mapped to RINEX snr flag value [0-9]                COMMENT             
  L1 & L2: min(max(int(snr_dBHz/6), 0), 9)                  COMMENT             
teqc windowed: start @ 2008 Dec 16 00:00:00.000             COMMENT             
teqc windowed: delta = 86400.000 sec                        COMMENT             
pseudorange smoothing corrections not applied               COMMENT             
GFZRNX.NUM_EPOCHS: 25025                                    COMMENT
     1                                                      # OF SATELLITES     
   G03 25014 24934 25025 24934 25025                        PRN / # OF OBS      
     1.000                                                  INTERVAL            
  2008    12    16     9    43    1.0000000     GPS         TIME OF FIRST OBS   
  2008    12    16    16    40   22.0000000     GPS         TIME OF LAST OBS    
                                                            END OF HEADER      
 08 12 16 09 43 01.0000000  0  1G03                                 
  24824133.4974    -547186.60258   -422587.18056  24824132.9234   24824139.1204 
 08 12 16 09 43 02.0000000  0  1G03                                 
  24823525.2924    -550384.26648   -425078.86346  24823524.8944   24823530.5474 
 08 12 16 09 43 03.0000000  0  1G03                                 
  24822916.9974    -553582.02948   -427570.62546  24822916.1624   24822922.4244 
 08 12 16 09 43 04.0000000  0  1G03                                 
  24822308.7194    -556780.07448   -430062.60846  24822307.3674   24822313.9334 
 08 12 16 09 43 05.0000000  0  1G03                                 
  24821700.4394    -559977.93948   -432554.45146  24821699.1734   24821705.5774 
 08 12 16 09 43 06.0000000  0  1G03                                 
  24821092.2014    -563175.86248   -435046.33946  24821091.0614   24821096.4934 
 08 12 16 09 43 07.0000000  0  1G03                                 
  24820484.0334    -566373.67448   -437538.14046  24820482.0864   24820488.0674 
 08 12 16 09 43 08.0000000  0  1G03                                 
  24819875.6674    -569571.30648   -440029.80146  24819873.2684   24819879.1944 
 08 12 16 09 43 09.0000000  0  1G03                                 
  24819267.3164    -572768.44648   -442521.07846  24819265.2454   24819270.6414 
 08 12 16 09 43 10.0000000  0  1G03                                 
  24818659.1784    -575965.76348   -445012.49446  24818657.1444   24818662.0774 
 08 12 16 09 43 11.0000000  0  1G03                                 
  24818050.6294    -579162.89048   -447503.76346  24818047.7974   24818052.9704 
 08 12 16 09 43 12.0000000  0  1G03                                 
  24817441.9904    -582359.86248   -449994.91246  24817439.2124   24817444.6644 
 08 12 16 09 43 13.0000000  0  1G03                                 
  24816833.2964    -585556.76848   -452486.00746  24816830.6054   24816835.8384 
 08 12 16 09 43 14.0000000  0  1G03                                 
  24816224.5634    -588753.50548   -454976.96846  24816222.4224   24816227.3384 
 08 12 16 09 43 15.0000000  0  1G03                                 
  24815615.9474    -591950.15448   -457467.86446  24815613.7864   24815618.7664 
 08 12 16 09 43 16.0000000  0  1G03                                 
  24815007.4214    -595147.14848   -459959.02946  24815005.5414   24815010.7514 
 08 12 16 09 43 17.0000000  0  1G03                                 
  24814398.5934    -598343.84548   -462449.96046  24814397.2574   24814402.4604 
 08 12 16 09 43 18.0000000  0  1G03                                 
  24813790.0224    -601540.30048   -464940.70246  24813788.9654   24813794.4744 
 08 12 16 09 43 19.0000000  0  1G03                                 
  24813181.7364    -604737.04648   -467431.67246  24813181.4564   24813185.6924 
 08 12 16 09 43 20.0000000  0  1G03                                 
  24812573.4824    -607933.92748   -469922.74746  24812573.1554   24812577.6054 
 08 12 16 09 43 21.0000000  0  1G03                                 
  24811965.4184    -611130.64148   -472413.69146  24811965.3464   24811969.1224 
 08 12 16 09 43 22.0000000  0  1G03                                 
  24811357.0654    -614327.24748   -474904.55146  24811355.7694   24811360.7804 
 08 12 16 09 43 23.0000000  0  1G03                                 
  24810749.1124    -617523.87548   -477395.42846  24810748.1264   24810752.7784 
 08 12 16 09 43 24.0000000  0  1G03                                 
  24810141.0154    -620720.42248   -479886.24246  24810139.8814   24810145.0354 
 08 12 16 09 43 25.0000000  0  1G03                                 
  24809532.8854    -623916.62948   -482376.79046  24809531.7764   24809536.9534 
 08 12 16 09 43 26.0000000  0  1G03                                 
  24808924.7844    -627112.57348   -484867.13346  24808923.9174   24808928.9704 
 08 12 16 09 43 27.0000000  0  1G03                                 
  24808316.8004    -630308.40448   -487357.39046  24808315.6434   24808320.6484 
 08 12 16 09 43 28.0000000  0  1G03                                 
  24807709.0994    -633504.21648   -489847.63146  24807707.9264   24807711.9894 
 08 12 16 09 43 29.0000000  0  1G03                                 
  24807101.3554    -636700.08648   -492337.91746  24807099.7984   24807103.4654 
 08 12 16 09 43 30.0000000  0  1G03                                 
  24806493.5064    -639895.70048   -494828.00346  24806491.4014   24806495.0524 
 08 12 16 09 43 31.0000000  0  1G03                                 
  24805885.4484    -643091.46548   -497318.20946  24805883.8204   24805886.9204 
 08 12 16 09 43 32.0000000  0  1G03                                 
  24805277.6354    -646287.38648   -499808.53646  24805276.1114   24805278.6414 
 08 12 16 09 43 33.0000000  0  1G03                                 
  24804669.7824    -649482.78047   -502298.45446  24804667.9364   24804671.4054 
 08 12 16 09 43 34.0000000  0  1G03                                 
  24804062.2554    -652678.34647   -504788.50446  24804059.5204   24804063.1704 
 08 12 16 09 43 35.0000000  0  1G03                                 
  24803454.3674    -655873.58647   -507278.30246  24803452.0504   24803454.9744 
 08 12 16 09 43 36.0000000  0  1G03                                 
  24802845.9764    -659069.07847   -509768.29846  24802843.2874   24802846.1354 
 08 12 16 09 43 37.0000000  0  1G03                                 
  24802237.5254    -662264.50747   -512258.24446  24802235.6564   24802238.0594 
 08 12 16 09 43 38.0000000  0  1G03                                 
  24801629.0884    -665459.79947   -514748.08246  24801627.1574   24801629.7734 
 08 12 16 09 43 39.0000000  0  1G03                                 
  24801020.8494    -668654.80147   -517237.69446  24801018.5074   24801021.4454 
 08 12 16 09 43 40.0000000  0  1G03                                 
  24800412.5374    -671849.29447   -519726.90946  24800410.7464   24800413.9114 
 08 12 16 09 43 41.0000000  0  1G03                                 
  24799804.4894    -675043.61547   -522215.99046  24799802.7904   24799806.6654 
 08 12 16 09 43 42.0000000  0  1G03                                 
  24799196.3424    -678238.11647   -524705.21246  24799195.3604   24799198.8684 
 08 12 16 09 43 43.0000000  0  1G03                                 
  24798588.5774    -681432.72647   -527194.51746  24798587.6374   24798591.1064 
 08 12 16 09 43 44.0000000  0  1G03                                 
  24797980.6564    -684627.38147   -529683.85646  24797979.7004   24797982.5954 
 08 12 16 09 43 45.0000000  0  1G03                                 
  24797372.6614    -687821.60447   -532172.85846  24797370.9794   24797374.6274 
 08 12 16 09 43 46.0000000  0  1G03                                 
  24796764.7554    -691015.80147   -534661.84146  24796763.1704   24796766.5664 
 08 12 16 09 43 47.0000000  0  1G03                                 
  24796157.0134    -694210.20547   -537150.98546  24796155.8094   24796158.8104 
 08 12 16 09 43 48.0000000  0  1G03                                 
  24795548.9294    -697404.39747   -539639.96346  24795547.7494   24795551.1534 
 08 12 16 09 43 49.0000000  0  1G03                                 
  24794941.5034    -700598.53147   -542128.89746  24794940.2914   24794943.8544 
 08 12 16 09 43 50.0000000  0  1G03                                 
  24794334.1664    -703792.38947   -544617.61546  24794333.0174   24794336.3104 
 08 12 16 09 43 51.0000000  0  1G03                                 
  24793726.7274    -706986.41147   -547106.46146  24793725.9964   24793729.0184 
 08 12 16 09 43 52.0000000  0  1G03                                 
  24793119.3744    -710180.11547   -549595.05946  24793118.5584   24793121.4784 
 08 12 16 09 43 53.0000000  0  1G03                                 
  24792511.6724    -713373.91047   -552083.73046  24792510.5354   24792513.7684 
 08 12 16 09 43 54.0000000  0  1G03                                 
  24791904.0734    -716567.60947   -554572.32546  24791903.0394   24791905.9924 
 08 12 16 09 43 55.0000000  0  1G03                                 
  24791296.5124    -719760.94847   -557060.64146  24791294.3584   24791297.7464 
 08 12 16 09 43 56.0000000  0  1G03                                 
  24790689.0044    -722954.39347   -559549.04046  24790687.0844   24790690.1944 
 08 12 16 09 43 57.0000000  0  1G03                                 
  24790081.2844    -726147.58547   -562037.23846  24790078.9454   24790082.2854 
 08 12 16 09 43 58.0000000  0  1G03                                 
  24789473.5164    -729341.06947   -564525.66546  24789471.0734   24789473.8414 
 08 12 16 09 43 59.0000000  0  1G03                                 
  24788865.7244    -732534.57147   -567014.10746  24788863.0874   24788866.5894 
 08 12 16 09 44 00.0000000  0  1G03                                 
  24788258.0334    -735728.19347   -569502.64246  24788256.5824   24788258.3204 
 08 12 16 09 44 01.0000000  0  1G03                                 
  24787650.2644    -738921.71847   -571991.10446  24787648.0594   24787650.9484 
 08 12 16 09 44 02.0000000  0  1G03                                 
  24787042.4964    -742114.79147   -574479.21046  24787040.3424   24787043.0814 
 08 12 16 09 44 03.0000000  0  1G03                                 
  24786434.6374    -745307.40847   -576966.96046  24786432.8404   24786435.1404 
 08 12 16 09 44 04.0000000  0  1G03                                 
  24785826.9414    -748500.04247   -579454.72646  24785825.2724   24785828.1024 
 08 12 16 09 44 05.0000000  0  1G03                                 
  24785219.1754    -751692.82647   -581942.60846  24785217.5984   24785220.6134 
 08 12 16 09 44 06.0000000  0  1G03                                 
  24784611.5614    -754885.30047   -584430.24946  24784609.6334   24784614.0034 
 08 12 16 09 44 07.0000000  0  1G03                                 
  24784003.9344    -758077.87647   -586917.96746  24784001.8144   24784006.6144 
 08 12 16 09 44 08.0000000  0  1G03                                 
  24783396.4074    -761270.25647   -589405.53446  24783394.6714   24783399.0974 
 08 12 16 09 44 09.0000000  0  1G03                                 
  24782788.9624    -764462.72847   -591893.17446  24782787.0564   24782791.2764 
 08 12 16 09 44 10.0000000  0  1G03                                 
  24782181.5644    -767655.32647   -594380.91146  24782180.0914   24782183.8434 
 08 12 16 09 44 11.0000000  0  1G03                                 
  24781574.1034    -770847.62647   -596868.41646  24781571.8204   24781576.2474 
 08 12 16 09 44 12.0000000  0  1G03                                 
  24780966.5944    -774039.76647   -599355.79546  24780964.2414   24780968.6344 
 08 12 16 09 44 13.0000000  0  1G03                                 
  24780359.1544    -777231.99047   -601843.23946  24780357.1004   24780361.4274 
 08 12 16 09 44 14.0000000  0  1G03                                 
  24779751.9064    -780423.78547   -604330.34946  24779749.7594   24779754.5104 
 08 12 16 09 44 15.0000000  0  1G03                                 
  24779144.6014    -783615.18147   -606817.14446  24779142.6654   24779147.0214 
 08 12 16 09 44 16.0000000  0  1G03                                 
  24778537.7544    -786806.79947   -609304.11846  24778535.6644   24778539.2514 
 08 12 16 09 44 17.0000000  0  1G03                                 
  24777930.3974    -789998.63047   -611791.25946  24777928.5684   24777931.9074 
 08 12 16 09 44 18.0000000  0  1G03                                 
  24777323.0394    -793190.56747   -614278.48246  24777321.1154   24777324.9834 
 08 12 16 09 44 19.0000000  0  1G03                                 
  24776715.6064    -796382.83447   -616765.96046  24776713.1074   24776716.9864 
 08 12 16 09 44 20.0000000  0  1G03                                 
  24776108.2294    -799574.85047   -619253.24446  24776105.2774   24776109.1974 
 08 12 16 09 44 21.0000000  0  1G03                                 
  24775500.6724    -802766.42247   -621740.18146  24775498.2844   24775501.6844 
 08 12 16 09 44 22.0000000  0  1G03                                 
  24774893.3474    -805957.70147   -624226.88946  24774890.3724   24774895.0114 
 08 12 16 09 44 23.0000000  0  1G03                                 
  24774285.9554    -809149.08847   -626713.68246  24774283.0864   24774287.7244 
 08 12 16 09 44 24.0000000  0  1G03                                 
  24773678.3044    -812340.35447   -629200.38146  24773676.0164   24773679.5624 
 08 12 16 09 44 25.0000000  0  1G03                                 
  24773070.9084    -815531.42447   -631686.92746  24773069.0594   24773072.1594 
 08 12 16 09 44 26.0000000  0  1G03                                 
  24772463.7054    -818722.52747   -634173.49846  24772462.4004   24772466.0454 
 08 12 16 09 44 27.0000000  0  1G03                                 
  24771856.0154    -821913.16347   -636659.70246  24771854.6934   24771857.9404 
 08 12 16 09 44 28.0000000  0  1G03                                 
  24771248.8684    -825103.64247   -639145.78846  24771247.5444   24771251.2954 
 08 12 16 09 44 29.0000000  0  1G03                                 
  24770641.5694    -828294.08647   -641631.84546  24770640.7394   24770644.2114 
 08 12 16 09 44 30.0000000  0  1G03                                 
  24770033.8234    -831484.70147   -644118.03546  24770033.7134   24770037.4234 
 08 12 16 09 44 31.0000000  0  1G03                                 
  24769426.4344    -834675.04647   -646604.01546  24769426.7804   24769430.1444 
 08 12 16 09 44 32.0000000  0  1G03                                 
  24768819.0984    -837865.75147   -649090.27446  24768819.9764   24768823.0224 
 08 12 16 09 44 33.0000000  0  1G03                                 
  24768211.9614    -841056.46447   -651576.54346  24768213.1464   24768216.2784 
 08 12 16 09 44 34.0000000  0  1G03                                 
  24767605.0884    -844247.17947   -654062.81346  24767606.3854   24767609.8264 
 08 12 16 09 44 35.0000000  0  1G03                                 
  24766998.3014    -847437.55347   -656548.81646  24766999.2814   24767002.7124 
 08 12 16 09 44 36.0000000  0  1G03                                 
  24766391.8504    -850627.42847   -659034.42946  24766392.7094   24766396.1824 
 08 12 16 09 44 37.0000000  0  1G03                                 
  24765785.1344    -853817.19047   -661519.95446  24765785.5714   24765789.1054 
 08 12 16 09 44 38.0000000  0  1G03                                 
  24765178.5114    -857006.67947   -664005.26846  24765178.0494   24765181.7364 
 08 12 16 09 44 39.0000000  0  1G03                                 
  24764571.7194    -860196.29247   -666490.67946  24764569.6774   24764575.1464 
 08 12 16 09 44 40.0000000  0  1G03                                 
  24763964.8234    -863385.71547   -668975.94146  24763962.7974   24763967.9174 
 08 12 16 09 44 41.0000000  0  1G03                                 
  24763357.9394    -866575.00247   -671461.09746  24763356.3504   24763360.7254 
 08 12 16 09 44 42.0000000  0  1G03                                 
  24762751.0324    -869764.16047   -673946.15346  24762749.0564   24762753.6494 
 08 12 16 09 44 43.0000000  0  1G03                                 
  24762143.8834    -872953.92447   -676431.68646  24762141.5914   24762146.5794 
 08 12 16 09 44 44.0000000  0  1G03                                 
  24761536.9084    -876143.19947   -678916.83346  24761534.8124   24761540.1104 
 08 12 16 09 44 45.0000000  0  1G03                                 
  24760930.0264    -879332.43847   -681401.95346  24760927.4184   24760932.9754 
 08 12 16 09 44 46.0000000  0  1G03                                 
  24760322.8564    -882521.59647   -683887.00946  24760321.1574   24760325.2874 
 08 12 16 09 44 47.0000000  0  1G03                                 
  24759715.7814    -885710.91647   -686372.19346  24759714.1084   24759718.3364 
 08 12 16 09 44 48.0000000  0  1G03                                 
  24759108.5924    -888900.14747   -688857.30746  24759107.5074   24759111.5174 
 08 12 16 09 44 49.0000000  0  1G03                                 
  24758501.6484    -892089.18747   -691342.27146  24758501.4704   24758504.9384 
 08 12 16 09 44 50.0000000  0  1G03                                 
  24757894.7744    -895278.08847   -693827.12646  24757894.7784   24757898.4164 
 08 12 16 09 44 51.0000000  0  1G03                                 
  24757288.1844    -898466.58147   -696311.66346  24757288.4464   24757291.8334 
 08 12 16 09 44 52.0000000  0  1G03                                 
  24756681.3894    -901654.83547   -698796.01746  24756681.0414   24756685.0984 
 08 12 16 09 44 53.0000000  0  1G03                                 
  24756074.5194    -904843.07847   -701280.36046  24756073.6644   24756078.6864 
 08 12 16 09 44 54.0000000  0  1G03                                 
  24755467.7444    -908031.27147   -703764.66546  24755467.6934   24755471.7534 
 08 12 16 09 44 55.0000000  0  1G03                                 
  24754860.9494    -911219.42847   -706248.93946  24754861.2384   24754864.4254 
 08 12 16 09 44 56.0000000  0  1G03                                 
  24754254.1584    -914407.53147   -708733.17346  24754254.7884   24754257.7114 
 08 12 16 09 44 57.0000000  0  1G03                                 
  24753647.8484    -917595.76647   -711217.51146  24753647.8244   24753651.2074 
 08 12 16 09 44 58.0000000  0  1G03                                 
  24753041.5224    -920783.76547   -713701.66146  24753040.9104   24753045.2214 
 08 12 16 09 44 59.0000000  0  1G03                                 
  24752434.9354    -923971.75947   -716185.81146  24752434.4024   24752438.3294 
 08 12 16 09 45 00.0000000  0  1G03                                 
  24751828.5754    -927159.76547   -718669.97346  24751827.1584   24751831.4074 
 08 12 16 09 45 01.0000000  0  1G03                                 
  24751222.2774    -930347.81347   -721154.16446  24751221.0584   24751224.4504 
 08 12 16 09 45 02.0000000  0  1G03                                 
  24750615.6444    -933535.66447   -723638.20346  24750614.1394   24750617.8714 
 08 12 16 09 45 03.0000000  0  1G03                                 
  24750009.2524    -936723.24247   -726122.02746  24750007.8664   24750011.4944 
 08 12 16 09 45 04.0000000  0  1G03                                 
  24749402.7114    -939910.64347   -728605.71546  24749401.0264   24749405.0504 
 08 12 16 09 45 05.0000000  0  1G03                                 
  24748796.3474    -943098.11747   -731089.46046  24748793.8004   24748798.3224 
 08 12 16 09 45 06.0000000  0  1G03                                 
  24748189.8094    -946285.33747   -733573.00746  24748187.8024   24748190.8274 
 08 12 16 09 45 07.0000000  0  1G03                                 
  24747582.9844    -949472.52047   -736056.52646  24747580.5594   24747583.9584 
 08 12 16 09 45 08.0000000  0  1G03                                 
  24746976.1864    -952659.86747   -738540.17446  24746974.8114   24746976.8494 
 08 12 16 09 45 09.0000000  0  1G03                                 
  24746369.6094    -955847.09247   -741023.72446  24746368.6884   24746370.5694 
 08 12 16 09 45 10.0000000  0  1G03                                 
  24745762.8704    -959034.05147   -743507.06846  24745761.6774   24745763.9454 
 08 12 16 09 45 11.0000000  0  1G03                                 
  24745156.3874    -962221.38147   -745990.70246  24745155.4854   24745157.2544 
 08 12 16 09 45 12.0000000  0  1G03                                 
  24744549.7294    -965408.58347   -748474.23546  24744548.7064   24744550.5504 
 08 12 16 09 45 13.0000000  0  1G03                                 
  24743943.1264    -968595.13647   -750957.26446  24743941.9564   24743943.8154 
 08 12 16 09 45 14.0000000  0  1G03                                 
  24743336.8114    -971781.69847   -753440.30446  24743336.5224   24743338.3104 
 08 12 16 09 45 15.0000000  0  1G03                                 
  24742730.6404    -974968.27447   -755923.34946  24742729.5944   24742732.2354 
 08 12 16 09 45 16.0000000  0  1G03                                 
  24742124.0594    -978155.01747   -758406.52746  24742123.0154   24742125.8604 
 08 12 16 09 45 17.0000000  0  1G03                                 
  24741517.3564    -981341.95947   -760889.85846  24741516.2764   24741519.0084 
 08 12 16 09 45 18.0000000  0  1G03                                 
  24740910.9594    -984528.49347   -763372.86946  24740909.9034   24740913.4154 
 08 12 16 09 45 19.0000000  0  1G03                                 
  24740304.5914    -987715.26347   -765856.06746  24740304.2814   24740307.5684 
 08 12 16 09 45 20.0000000  0  1G03                                 
  24739698.4234    -990901.85547   -768339.12446  24739697.9694   24739700.4684 
 08 12 16 09 45 21.0000000  0  1G03                                 
  24739092.0994    -994088.24447   -770822.02546  24739091.1754   24739093.5414 
 08 12 16 09 45 22.0000000  0  1G03                                 
  24738486.1644    -997274.39347   -773304.73746  24738484.9664   24738487.0514 
 08 12 16 09 45 23.0000000  0  1G03                                 
  24737880.1044   -1000460.48847   -775787.40846  24737878.8584   24737881.4074 
 08 12 16 09 45 24.0000000  0  1G03                                 
  24737273.8694   -1003646.35447   -778269.90246  24737272.4664   24737275.1374 
 08 12 16 09 45 25.0000000  0  1G03                                 
  24736667.6404   -1006832.49947   -780752.61246  24736666.9264   24736668.4474 
 08 12 16 09 45 26.0000000  0  1G03                                 
  24736061.4764   -1010018.63047   -783235.31246  24736061.2644   24736061.5264 
 08 12 16 09 45 27.0000000  0  1G03                                 
  24735455.2254   -1013204.24447   -785717.60746  24735455.2964   24735455.5294 
 08 12 16 09 45 28.0000000  0  1G03                                 
  24734849.0754   -1016389.99147   -788200.00846  24734848.7164   24734849.6984 
 08 12 16 09 45 29.0000000  0  1G03                                 
  24734242.7854   -1019575.94547   -790682.57346  24734241.5164   24734243.9624 
 08 12 16 09 45 30.0000000  0  1G03                                 
  24733636.8214   -1022761.00447   -793164.43646  24733634.5154   24733638.7204 
 08 12 16 09 45 31.0000000  0  1G03                                 
  24733030.7304   -1025945.81747   -795646.10746  24733028.1854   24733032.6884 
 08 12 16 09 45 32.0000000  0  1G03                                 
  24732424.7104   -1029130.33747   -798127.55146  24732421.7934   24732426.0384 
 08 12 16 09 45 33.0000000  0  1G03                                 
  24731818.6314   -1032315.27847   -800609.32546  24731815.3204   24731820.0154 
 08 12 16 09 45 34.0000000  0  1G03                                 
  24731212.4624   -1035500.06747   -803090.97946  24731209.7154   24731214.2264 
 08 12 16 09 45 35.0000000  0  1G03                                 
  24730606.3914   -1038684.84047   -805572.62146  24730603.7144   24730608.2414 
 08 12 16 09 45 36.0000000  0  1G03                                 
  24730000.3244   -1041869.76647   -808054.38146  24729998.3724   24730001.7604 
 08 12 16 09 45 37.0000000  0  1G03                                 
  24729394.3714   -1045054.64847   -810536.10546  24729393.0084   24729395.0614 
 08 12 16 09 45 38.0000000  0  1G03                                 
  24728788.1924   -1048239.42147   -813017.74746  24728787.5554   24728788.8214 
 08 12 16 09 45 39.0000000  0  1G03                                 
  24728181.6864   -1051424.06347   -815499.28646  24728180.7834   24728182.6334 
 08 12 16 09 45 40.0000000  0  1G03                                 
  24727575.3274   -1054608.58147   -817980.72746  24727575.5244   24727576.2024 
 08 12 16 09 45 41.0000000  0  1G03                                 
  24726969.0304   -1057793.14447   -820462.20446  24726969.1894   24726971.0094 
 08 12 16 09 45 42.0000000  0  1G03                                 
  24726362.8984   -1060977.54447   -822943.55346  24726362.5784   24726365.0324 
 08 12 16 09 45 43.0000000  0  1G03                                 
  24725756.8814   -1064161.72747   -825424.73146  24725756.2044   24725758.9994 
 08 12 16 09 45 44.0000000  0  1G03                                 
  24725150.9694   -1067346.19947   -827906.13746  24725150.3304   24725154.0104 
 08 12 16 09 45 45.0000000  0  1G03                                 
  24724545.0434   -1070530.04047   -830387.04846  24724544.2174   24724547.6614 
 08 12 16 09 45 46.0000000  0  1G03                                 
  24723939.2384   -1073713.71047   -832867.83246  24723939.8324   24723942.5024 
 08 12 16 09 45 47.0000000  0  1G03                                 
  24723333.4534   -1076897.27947   -835348.53346  24723333.9614   24723337.0064 
 08 12 16 09 45 48.0000000  0  1G03                                 
  24722727.8194   -1080080.88747   -837829.26946  24722727.7804   24722732.1854 
 08 12 16 09 45 49.0000000  0  1G03                                 
  24722122.4364   -1083264.08347   -840309.68246  24722122.0414   24722126.3094 
 08 12 16 09 45 50.0000000  0  1G03                                 
  24721517.0324   -1086447.69047   -842790.41446  24721516.9734   24721520.2344 
 08 12 16 09 45 51.0000000  0  1G03                                 
  24720911.2324   -1089631.10347   -845270.99646  24720910.9724   24720913.8244 
 08 12 16 09 45 52.0000000  0  1G03                                 
  24720305.5824   -1092814.37347   -847751.46546  24720305.7224   24720307.7024 
 08 12 16 09 45 53.0000000  0  1G03                                 
  24719699.6054   -1095997.65947   -850231.95046  24719698.9334   24719700.9974 
 08 12 16 09 45 54.0000000  0  1G03                                 
  24719093.4514   -1099180.89947   -852712.39846  24719093.2404   24719094.8104 
 08 12 16 09 45 55.0000000  0  1G03                                 
  24718487.2454   -1102364.20847   -855192.90146  24718487.1064   24718489.1294 
 08 12 16 09 45 56.0000000  0  1G03                                 
  24717881.4224   -1105547.57347   -857673.44846  24717881.5854   24717883.8974 
 08 12 16 09 45 57.0000000  0  1G03                                 
  24717275.7844   -1108730.59147   -860153.72046  24717276.4214   24717279.5274 
 08 12 16 09 45 58.0000000  0  1G03                                 
  24716670.1244   -1111913.54547   -862633.94546  24716669.8214   24716674.7084 
 08 12 16 09 45 59.0000000  0  1G03                                 
  24716064.3474   -1115096.10947   -865113.86446  24716064.2744   24716068.6184 
 08 12 16 09 46 00.0000000  0  1G03                                 
  24715458.7374   -1118278.49247   -867593.64446  24715458.4884   24715462.7154 
 08 12 16 09 46 01.0000000  0  1G03                                 
  24714853.1034   -1121461.03647   -870073.54746  24714852.4944   24714856.9794 
 08 12 16 09 46 02.0000000  0  1G03                                 
  24714247.5324   -1124643.51547   -872553.40346  24714246.7984   24714250.7704 
 08 12 16 09 46 03.0000000  0  1G03                                 
  24713642.0654   -1127826.06447   -875033.31546  24713641.1874   24713645.2454 
 08 12 16 09 46 04.0000000  0  1G03                                 
  24713036.5354   -1131008.71947   -877513.30846  24713036.2374   24713040.0814 
 08 12 16 09 46 05.0000000  0  1G03                                 
  24712431.0824   -1134191.43847   -879993.35046  24712431.2614   24712434.6614 
 08 12 16 09 46 06.0000000  0  1G03                                 
  24711825.5324   -1137373.74947   -882473.07146  24711824.8554   24711828.6414 
 08 12 16 09 46 07.0000000  0  1G03                                 
  24711219.9424   -1140556.13747   -884952.85446  24711219.5344   24711223.2844 
 08 12 16 09 46 08.0000000  0  1G03                                 
  24710614.2834   -1143738.33347   -887432.48746  24710613.7704   24710618.1494 
 08 12 16 09 46 09.0000000  0  1G03                                 
  24710008.6644   -1146920.23147   -889911.88846  24710007.4024   24710012.9004 
 08 12 16 09 46 10.0000000  0  1G03                                 
  24709403.1994   -1150102.19247   -892391.33846  24709401.8344   24709406.3494 
 08 12 16 09 46 11.0000000  0  1G03                                 
  24708797.6264   -1153284.02647   -894870.68746  24708796.4804   24708801.0674 
 08 12 16 09 46 12.0000000  0  1G03                                 
  24708192.0394   -1156465.73247   -897349.93846  24708190.1814   24708195.0414 
 08 12 16 09 46 13.0000000  0  1G03                                 
  24707586.5924   -1159647.43347   -899829.18446  24707585.5854   24707589.9634 
 08 12 16 09 46 14.0000000  0  1G03                                 
  24706981.0104   -1162829.08847   -902308.39646  24706979.5384   24706985.4134 
 08 12 16 09 46 15.0000000  0  1G03                                 
  24706375.3244   -1166010.57647   -904787.47746  24706373.5954   24706379.8904 
 08 12 16 09 46 16.0000000  0  1G03                                 
  24705769.6364   -1169191.59147   -907266.19146  24705768.5794   24705773.7104 
 08 12 16 09 46 17.0000000  0  1G03                                 
  24705164.1484   -1172372.81647   -909745.06746  24705162.8714   24705168.6444 
 08 12 16 09 46 18.0000000  0  1G03                                 
  24704558.5394   -1175554.33147   -912224.17246  24704557.5604   24704563.6614 
 08 12 16 09 46 19.0000000  0  1G03                                 
  24703953.2834   -1178735.77647   -914703.22146  24703952.2794   24703958.7844 
 08 12 16 09 46 20.0000000  0  1G03                                 
  24703348.2374   -1181916.56347   -917181.75546  24703347.6344   24703353.1834 
 08 12 16 09 46 21.0000000  0  1G03                                 
  24702742.9814   -1185097.12947   -919660.11946  24702742.6224   24702746.6814 
 08 12 16 09 46 22.0000000  0  1G03                                 
  24702137.5694   -1188278.01447   -922138.73446  24702137.0704   24702141.4514 
 08 12 16 09 46 23.0000000  0  1G03                                 
  24701532.0464   -1191458.82547   -924617.28946  24701531.9134   24701535.5384 
 08 12 16 09 46 24.0000000  0  1G03                                 
  24700926.6594   -1194639.34547   -927095.61846  24700927.1874   24700931.1064 
 08 12 16 09 46 25.0000000  0  1G03                                 
  24700321.4424   -1197819.83647   -929573.92646  24700321.5984   24700325.7084 
 08 12 16 09 46 26.0000000  0  1G03                                 
  24699716.1184   -1201000.01747   -932051.99046  24699715.8674   24699720.6494 
 08 12 16 09 46 27.0000000  0  1G03                                 
  24699110.7654   -1204179.92147   -934529.83846  24699110.7964   24699115.6254 
 08 12 16 09 46 28.0000000  0  1G03                                 
  24698505.6274   -1207360.25047   -937008.01946  24698505.8214   24698510.1944 
 08 12 16 09 46 29.0000000  0  1G03                                 
  24697900.3734   -1210540.76247   -939486.34346  24697900.6694   24697905.1574 
 08 12 16 09 46 30.0000000  0  1G03                                 
  24697295.1674   -1213721.15947   -941964.57646  24697295.1764   24697299.5224 
 08 12 16 09 46 31.0000000  0  1G03                                 
  24696689.8674   -1216901.31647   -944442.62146  24696689.6004   24696693.7494 
 08 12 16 09 46 32.0000000  0  1G03                                 
  24696085.0204   -1220081.28847   -946920.52346  24696084.9404   24696089.5794 
 08 12 16 09 46 33.0000000  0  1G03                                 
  24695480.1824   -1223261.15647   -949398.34246  24695479.8914   24695485.2194 
 08 12 16 09 46 34.0000000  0  1G03                                 
  24694875.2564   -1226441.18547   -951876.28946  24694874.6124   24694880.2294 
 08 12 16 09 46 35.0000000  0  1G03                                 
  24694270.2534   -1229620.78847   -954353.90246  24694269.3034   24694274.6644 
 08 12 16 09 46 36.0000000  0  1G03                                 
  24693665.0594   -1232800.44947   -956831.55846  24693663.4534   24693669.7654 
 08 12 16 09 46 37.0000000  0  1G03                                 
  24693059.8374   -1235979.87747   -959309.03446  24693058.0664   24693063.9344 
 08 12 16 09 46 38.0000000  0  1G03                                 
  24692454.5084   -1239159.22647   -961786.45146  24692452.2784   24692458.9304 
 08 12 16 09 46 39.0000000  0  1G03                                 
  24691849.3064   -1242338.44447   -964263.76246  24691847.4234   24691853.4434 
 08 12 16 09 46 40.0000000  0  1G03                                 
  24691244.3724   -1245517.49947   -966740.94746  24691242.5264   24691248.4714 
 08 12 16 09 46 41.0000000  0  1G03                                 
  24690639.4564   -1248696.50347   -969218.09246  24690636.9714   24690643.1384 
 08 12 16 09 46 42.0000000  0  1G03                                 
  24690035.0314   -1251875.20147   -971694.99646  24690033.4614   24690038.3814 
 08 12 16 09 46 43.0000000  0  1G03                                 
  24689430.1294   -1255054.16747   -974172.10946  24689428.3824   24689432.7774 
 08 12 16 09 46 44.0000000  0  1G03                                 
  24688825.1304   -1258233.12047   -976649.21146  24688822.8884   24688827.4694 
 08 12 16 09 46 45.0000000  0  1G03                                 
  24688220.2864   -1261411.92847   -979126.20346  24688217.7754   24688222.4524 
 08 12 16 09 46 46.0000000  0  1G03                                 
  24687615.4594   -1264590.84547   -981603.27946  24687613.6644   24687617.8564 
 08 12 16 09 46 47.0000000  0  1G03                                 
  24687010.7434   -1267770.00647   -984080.54446  24687009.5234   24687014.3994 
 08 12 16 09 46 48.0000000  0  1G03                                 
  24686405.8674   -1270948.70347   -986557.45046  24686404.8764   24686409.2674 
 08 12 16 09 46 49.0000000  0  1G03                                 
  24685800.9934   -1274127.39747   -989034.35446  24685800.1524   24685804.0854 
 08 12 16 09 46 50.0000000  0  1G03                                 
  24685195.7724   -1277306.08347   -991511.25046  24685194.4964   24685198.5124 
 08 12 16 09 46 51.0000000  0  1G03                                 
  24684590.6514   -1280484.56947   -993987.99146  24684589.5654   24684592.7354 
 08 12 16 09 46 52.0000000  0  1G03                                 
  24683985.7444   -1283662.62647   -996464.39646  24683984.2074   24683988.4044 
 08 12 16 09 46 53.0000000  0  1G03                                 
  24683380.8524   -1286840.56847   -998940.71446  24683379.4344   24683384.3654 
 08 12 16 09 46 54.0000000  0  1G03                                 
  24682776.0954   -1290018.60447  -1001417.10446  24682774.3464   24682780.1574 
 08 12 16 09 46 55.0000000  0  1G03                                 
  24682171.5694   -1293196.64247  -1003893.49546  24682170.1044   24682175.0894 
 08 12 16 09 46 56.0000000  0  1G03                                 
  24681567.2374   -1296374.30647  -1006369.59346  24681566.1434   24681570.8154 
 08 12 16 09 46 57.0000000  0  1G03                                 
  24680962.9894   -1299552.04047  -1008845.74746  24680960.8474   24680966.2314 
 08 12 16 09 46 58.0000000  0  1G03                                 
  24680358.8924   -1302729.66847  -1011321.82046  24680357.1714   24680362.4924 
 08 12 16 09 46 59.0000000  0  1G03                                 
  24679754.3524   -1305906.89947  -1013797.58346  24679751.7824   24679757.5294 
 08 12 16 09 47 00.0000000  0  1G03                                 
  24679150.0894   -1309084.10447  -1016273.32646  24679147.5514   24679153.2144 
 08 12 16 09 47 01.0000000  0  1G03                                 
  24678545.6064   -1312261.05347  -1018748.87046  24678542.9944   24678548.1674 
 08 12 16 09 47 02.0000000  0  1G03                                 
  24677941.5704   -1315437.81447  -1021224.26746  24677939.7824   24677943.8284 
 08 12 16 09 47 03.0000000  0  1G03                                 
  24677337.1504   -1318614.55747  -1023699.65146  24677334.5124   24677338.8694 
 08 12 16 09 47 04.0000000  0  1G03                                 
  24676732.5234   -1321791.21147  -1026174.96646  24676730.2204   24676733.9584 
 08 12 16 09 47 05.0000000  0  1G03                                 
  24676127.8774   -1324967.98647  -1028650.37546  24676125.7604   24676129.8474 
 08 12 16 09 47 06.0000000  0  1G03                                 
  24675523.1204   -1328144.70247  -1031125.73846  24675521.1954   24675525.4604 
 08 12 16 09 47 07.0000000  0  1G03                                 
  24674918.6374   -1331321.51347  -1033601.17646  24674916.2624   24674921.8464 
 08 12 16 09 47 08.0000000  0  1G03                                 
  24674313.9794   -1334498.18547  -1036076.50646  24674311.8844   24674317.3124 
 08 12 16 09 47 09.0000000  0  1G03                                 
  24673709.4274   -1337675.16747  -1038552.07646  24673707.4614   24673712.4584 
 08 12 16 09 47 10.0000000  0  1G03                                 
  24673104.7634   -1340852.18947  -1041027.67746  24673103.6474   24673107.3184 
 08 12 16 09 47 11.0000000  0  1G03                                 
  24672500.3704   -1344028.84347  -1043502.99146  24672499.2444   24672503.3024 
 08 12 16 09 47 12.0000000  0  1G03                                 
  24671895.6614   -1347205.20747  -1045978.07846  24671894.1524   24671898.8284 
 08 12 16 09 47 13.0000000  0  1G03                                 
  24671290.9194   -1350381.34547  -1048452.99046  24671288.6494   24671294.2714 
 08 12 16 09 47 14.0000000  0  1G03                                 
  24670686.3304   -1353557.32647  -1050927.77846  24670684.3574   24670690.2214 
 08 12 16 09 47 15.0000000  0  1G03                                 
  24670081.8124   -1356732.89247  -1053402.24546  24670080.2284   24670085.7244 
 08 12 16 09 47 16.0000000  0  1G03                                 
  24669477.7864   -1359908.64547  -1055876.85846  24669477.0654   24669481.7904 
 08 12 16 09 47 17.0000000  0  1G03                                 
  24668873.7034   -1363084.30947  -1058351.40146  24668872.2554   24668877.5434 
 08 12 16 09 47 18.0000000  0  1G03                                 
  24668269.6594   -1366259.82347  -1060825.82646  24668268.1464   24668273.3724 
 08 12 16 09 47 19.0000000  0  1G03                                 
  24667665.7224   -1369435.22747  -1063300.16646  24667664.1944   24667669.2804 
 08 12 16 09 47 20.0000000  0  1G03                                 
  24667061.7384   -1372610.54347  -1065774.44046  24667060.3214   24667065.1974 
 08 12 16 09 47 21.0000000  0  1G03                                 
  24666457.8804   -1375785.77147  -1068248.64446  24666456.5754   24666461.4654 
 08 12 16 09 47 22.0000000  0  1G03                                 
  24665853.9134   -1378960.87847  -1070722.75246  24665851.9534   24665856.7794 
 08 12 16 09 47 23.0000000  0  1G03                                 
  24665250.0194   -1382135.68147  -1073196.62446  24665247.7294   24665252.7984 
 08 12 16 09 47 24.0000000  0  1G03                                 
  24664646.1424   -1385310.82247  -1075670.75846  24664643.8934   24664648.2344 
 08 12 16 09 47 25.0000000  0  1G03                                 
  24664042.2674   -1388485.84147  -1078144.79846  24664039.4204   24664044.3784 
 08 12 16 09 47 26.0000000  0  1G03                                 
  24663438.0034   -1391660.92147  -1080618.88746  24663435.6834   24663439.4504 
 08 12 16 09 47 27.0000000  0  1G03                                 
  24662833.2484   -1394836.05847  -1083093.02046  24662830.9514   24662834.8344 
 08 12 16 09 47 28.0000000  0  1G03                                 
  24662228.7734   -1398011.04147  -1085567.03246  24662226.7944   24662229.6584 
 08 12 16 09 47 29.0000000  0  1G03                                 
  24661624.3034   -1401185.78447  -1088040.85746  24661622.0414   24661625.1134 
 08 12 16 09 47 30.0000000  0  1G03                                 
  24661019.6794   -1404360.48947  -1090514.65346  24661017.9744   24661021.1484 
 08 12 16 09 47 31.0000000  0  1G03                                 
  24660415.5454   -1407535.18847  -1092988.44646  24660413.9844   24660417.9974 
 08 12 16 09 47 32.0000000  0  1G03                                 
  24659811.3404   -1410709.84247  -1095462.20146  24659809.4734   24659814.0904 
 08 12 16 09 47 33.0000000  0  1G03                                 
  24659207.4264   -1413884.48947  -1097935.95146  24659205.8504   24659210.6074 
 08 12 16 09 47 34.0000000  0  1G03                                 
  24658603.5614   -1417058.72047  -1100409.37646  24658601.9544   24658606.3024 
 08 12 16 09 47 35.0000000  0  1G03                                 
  24657999.5594   -1420232.83547  -1102882.71146  24657998.8944   24658002.4194 
 08 12 16 09 47 36.0000000  0  1G03                                 
  24657395.2774   -1423406.71047  -1105355.85846  24657394.1084   24657397.5274 
 08 12 16 09 47 37.0000000  0  1G03                                 
  24656791.4464   -1426580.42147  -1107828.87946  24656790.2604   24656793.7224 
 08 12 16 09 47 38.0000000  0  1G03                                 
  24656187.4544   -1429753.71947  -1110301.57646  24656186.0004   24656190.0914 
 08 12 16 09 47 39.0000000  0  1G03                                 
  24655583.3534   -1432927.14947  -1112774.37646  24655582.0344   24655585.6564 
 08 12 16 09 47 40.0000000  0  1G03                                 
  24654979.1614   -1436100.69547  -1115247.26946  24654978.2484   24654982.2844 
 08 12 16 09 47 41.0000000  0  1G03                                 
  24654375.3794   -1439274.47047  -1117720.33646  24654374.5524   24654378.8464 
 08 12 16 09 47 42.0000000  0  1G03                                 
  24653771.5814   -1442448.27447  -1120193.43146  24653770.6454   24653775.4204 
 08 12 16 09 47 43.0000000  0  1G03                                 
  24653168.0124   -1445622.06147  -1122666.51146  24653167.0574   24653171.9514 
 08 12 16 09 47 44.0000000  0  1G03                                 
  24652564.7744   -1448795.56147  -1125139.36646  24652562.5254   24652568.8604 
 08 12 16 09 47 45.0000000  0  1G03                                 
  24651961.4354   -1451968.90047  -1127612.09546  24651958.9964   24651965.3684 
 08 12 16 09 47 46.0000000  0  1G03                                 
  24651357.7074   -1455142.26247  -1130084.84446  24651354.5034   24651360.8954 
 08 12 16 09 47 47.0000000  0  1G03                                 
  24650753.9114   -1458315.47047  -1132557.47346  24650750.7784   24650756.1004 
 08 12 16 09 47 48.0000000  0  1G03                                 
  24650150.2094   -1461488.38247  -1135029.86746  24650146.4224   24650152.0574 
 08 12 16 09 47 49.0000000  0  1G03                                 
  24649546.3904   -1464661.26547  -1137502.23946  24649543.3734   24649547.7204 
 08 12 16 09 47 50.0000000  0  1G03                                 
  24648942.5454   -1467834.22047  -1139974.67146  24648939.1544   24648944.0134 
 08 12 16 09 47 51.0000000  0  1G03                                 
  24648338.5914   -1471007.24747  -1142447.15746  24648335.4424   24648340.0634 
 08 12 16 09 47 52.0000000  0  1G03                                 
  24647734.5174   -1474180.39247  -1144919.73446  24647731.6204   24647735.4774 
 08 12 16 09 47 53.0000000  0  1G03                                 
  24647130.7254   -1477353.34347  -1147392.16246  24647127.8904   24647132.6554 
 08 12 16 09 47 54.0000000  0  1G03                                 
  24646526.8684   -1480525.83947  -1149864.23246  24646524.7734   24646528.7304 
 08 12 16 09 47 55.0000000  0  1G03                                 
  24645923.0834   -1483698.18847  -1152336.19046  24645920.9684   24645925.2954 
 08 12 16 09 47 56.0000000  0  1G03                                 
  24645319.1414   -1486870.50147  -1154808.12046  24645317.4934   24645322.4094 
 08 12 16 09 47 57.0000000  0  1G03                                 
  24644715.2654   -1490042.81947  -1157280.05346  24644713.9484   24644718.4034 
 08 12 16 09 47 58.0000000  0  1G03                                 
  24644111.3944   -1493215.10047  -1159751.95846  24644110.3714   24644114.3784 
 08 12 16 09 47 59.0000000  0  1G03                                 
  24643507.6714   -1496387.29347  -1162223.79446  24643506.5124   24643510.2044 
 08 12 16 09 48 00.0000000  0  1G03                                 
  24642904.1704   -1499559.35347  -1164695.52546  24642903.3254   24642907.4504 
 08 12 16 09 48 01.0000000  0  1G03                                 
  24642300.6424   -1502731.24047  -1167167.12146  24642300.0034   24642303.7014 
 08 12 16 09 48 02.0000000  0  1G03                                 
  24641697.0374   -1505903.08647  -1169638.68946  24641695.9354   24641699.5614 
 08 12 16 09 48 03.0000000  0  1G03                                 
  24641093.2604   -1509075.00747  -1172110.31446  24641092.4494   24641095.9684 
 08 12 16 09 48 04.0000000  0  1G03                                 
  24640489.9254   -1512247.11447  -1174582.08346  24640488.9854   24640492.2034 
 08 12 16 09 48 05.0000000  0  1G03                                 
  24639886.5574   -1515418.97647  -1177053.66346  24639885.0104   24639889.2694 
 08 12 16 09 48 06.0000000  0  1G03                                 
  24639283.4644   -1518590.49347  -1179524.97346  24639281.4724   24639286.4494 
 08 12 16 09 48 07.0000000  0  1G03                                 
  24638680.1184   -1521762.05747  -1181996.32246  24638677.6404   24638683.4314 
 08 12 16 09 48 08.0000000  0  1G03                                 
  24638076.6694   -1524933.38447  -1184467.48146  24638073.8234   24638079.3974 
 08 12 16 09 48 09.0000000  0  1G03                                 
  24637473.2614   -1528104.94247  -1186938.82346  24637470.1714   24637475.3984 
 08 12 16 09 48 10.0000000  0  1G03                                 
  24636870.0574   -1531276.29647  -1189410.00846  24636866.7754   24636871.1434 
 08 12 16 09 48 11.0000000  0  1G03                                 
  24636267.0184   -1534447.16747  -1191880.81346  24636263.5984   24636267.6554 
 08 12 16 09 48 12.0000000  0  1G03                                 
  24635663.5884   -1537618.00047  -1194351.59146  24635660.1464   24635663.9484 
 08 12 16 09 48 13.0000000  0  1G03                                 
  24635059.8734   -1540788.62947  -1196822.20946  24635056.2844   24635060.5314 
 08 12 16 09 48 14.0000000  0  1G03                                 
  24634456.2404   -1543959.20347  -1199292.78446  24634453.0934   24634457.1714 
 08 12 16 09 48 15.0000000  0  1G03                                 
  24633852.6044   -1547129.70747  -1201763.30846  24633849.6404   24633853.9674 
 08 12 16 09 48 16.0000000  0  1G03                                 
  24633248.8744   -1550300.57347  -1204234.11246  24633246.1504   24633250.4724 
 08 12 16 09 48 17.0000000  0  1G03                                 
  24632645.0314   -1553471.22547  -1206704.75046  24632642.6674   24632646.4304 
 08 12 16 09 48 18.0000000  0  1G03                                 
  24632041.2334   -1556641.84947  -1209175.36546  24632039.4664   24632043.9014 
 08 12 16 09 48 19.0000000  0  1G03                                 
  24631437.7014   -1559812.24447  -1211645.80246  24631436.9464   24631440.9544 
 08 12 16 09 48 20.0000000  0  1G03                                 
  24630834.4044   -1562982.71147  -1214116.29746  24630834.5554   24630838.6104 
 08 12 16 09 48 21.0000000  0  1G03                                 
  24630231.0454   -1566153.00347  -1216586.65546  24630231.1654   24630235.3684 
 08 12 16 09 48 22.0000000  0  1G03                                 
  24629627.7644   -1569323.26647  -1219056.99046  24629627.3974   24629631.8604 
 08 12 16 09 48 23.0000000  0  1G03                                 
  24629024.6374   -1572493.15747  -1221527.03346  24629024.3274   24629028.6874 
 08 12 16 09 48 24.0000000  0  1G03                                 
  24628421.3024   -1575663.07347  -1223997.09546  24628420.7664   24628425.0824 
 08 12 16 09 48 25.0000000  0  1G03                                 
  24627818.1634   -1578832.79547  -1226467.00646  24627817.1944   24627821.7604 
 08 12 16 09 48 26.0000000  0  1G03                                 
  24627215.2344   -1582002.70347  -1228937.06446  24627214.3564   24627218.7274 
 08 12 16 09 48 27.0000000  0  1G03                                 
  24626612.0034   -1585172.37547  -1231406.93546  24626611.2484   24626615.1484 
 08 12 16 09 48 28.0000000  0  1G03                                 
  24626009.0894   -1588341.89147  -1233876.68746  24626008.1844   24626011.9494 
 08 12 16 09 48 29.0000000  0  1G03                                 
  24625406.2494   -1591511.07647  -1236346.17946  24625405.1854   24625408.6564 
 08 12 16 09 48 30.0000000  0  1G03                                 
  24624803.2204   -1594680.13947  -1238815.57546  24624801.6754   24624805.5194 
 08 12 16 09 48 31.0000000  0  1G03                                 
  24624200.3994   -1597849.03247  -1241284.83946  24624198.7234   24624202.8284 
 08 12 16 09 48 32.0000000  0  1G03                                 
  24623597.3314   -1601018.00147  -1243754.16246  24623595.4044   24623599.5044 
 08 12 16 09 48 33.0000000  0  1G03                                 
  24622994.4234   -1604186.87047  -1246223.40946  24622992.5984   24622996.2584 
 08 12 16 09 48 34.0000000  0  1G03                                 
  24622391.3934   -1607355.91947  -1248692.79646  24622389.3494   24622392.7584 
 08 12 16 09 48 35.0000000  0  1G03                                 
  24621788.5034   -1610524.70747  -1251161.97946  24621787.0734   24621789.8804 
 08 12 16 09 48 36.0000000  0  1G03                                 
  24621185.5714   -1613693.42947  -1253631.11146  24621184.6294   24621186.9824 
 08 12 16 09 48 37.0000000  0  1G03                                 
  24620582.5054   -1616861.84047  -1256100.00346  24620581.3094   24620584.4364 
 08 12 16 09 48 38.0000000  0  1G03                                 
  24619979.4094   -1620029.88847  -1258568.60846  24619978.4344   24619981.2354 
 08 12 16 09 48 39.0000000  0  1G03                                 
  24619376.4614   -1623197.86547  -1261037.16146  24619375.4094   24619378.4094 
 08 12 16 09 48 40.0000000  0  1G03                                 
  24618773.4904   -1626365.59047  -1263505.51746  24618772.2404   24618776.1764 
 08 12 16 09 48 41.0000000  0  1G03                                 
  24618170.6294   -1629533.31147  -1265973.87046  24618169.6464   24618173.3544 
 08 12 16 09 48 42.0000000  0  1G03                                 
  24617567.8434   -1632701.31447  -1268442.44446  24617566.9944   24617570.6594 
 08 12 16 09 48 43.0000000  0  1G03                                 
  24616964.8774   -1635869.45347  -1270911.12446  24616963.8334   24616967.5504 
 08 12 16 09 48 44.0000000  0  1G03                                 
  24616362.0384   -1639037.54547  -1273379.76646  24616360.8014   24616364.3884 
 08 12 16 09 48 45.0000000  0  1G03                                 
  24615759.1504   -1642205.21647  -1275848.08046  24615757.6924   24615761.0434 
 08 12 16 09 48 46.0000000  0  1G03                                 
  24615156.3424   -1645373.19547  -1278316.63446  24615155.0664   24615158.4904 
 08 12 16 09 48 47.0000000  0  1G03                                 
  24614553.4684   -1648540.98347  -1280785.04046  24614552.3164   24614556.4414 
 08 12 16 09 48 48.0000000  0  1G03                                 
  24613950.6674   -1651708.50047  -1283253.23346  24613950.0074   24613952.9284 
 08 12 16 09 48 49.0000000  0  1G03                                 
  24613347.8334   -1654875.80647  -1285721.26646  24613347.3524   24613350.9914 
 08 12 16 09 48 50.0000000  0  1G03                                 
  24612744.9884   -1658043.06047  -1288189.25546  24612744.9684   24612747.4964 
 08 12 16 09 48 51.0000000  0  1G03                                 
  24612142.0244   -1661210.25647  -1290657.20246  24612141.5854   24612144.9884 
 08 12 16 09 48 52.0000000  0  1G03                                 
  24611539.1284   -1664377.39847  -1293125.10546  24611538.6524   24611542.2604 
 08 12 16 09 48 53.0000000  0  1G03                                 
  24610936.3894   -1667544.58347  -1295593.04246  24610936.3014   24610939.3254 
 08 12 16 09 48 54.0000000  0  1G03                                 
  24610333.7874   -1670711.41247  -1298060.70046  24610333.9814   24610336.1274 
 08 12 16 09 48 55.0000000  0  1G03                                 
  24609731.4744   -1673878.20147  -1300528.32846  24609731.8464   24609733.6684 
 08 12 16 09 48 56.0000000  0  1G03                                 
  24609129.0014   -1677045.10047  -1302996.04246  24609128.8704   24609131.0244 
 08 12 16 09 48 57.0000000  0  1G03                                 
  24608526.3404   -1680211.84447  -1305463.63346  24608525.7134   24608528.0564 
 08 12 16 09 48 58.0000000  0  1G03                                 
  24607923.9394   -1683378.60247  -1307931.23846  24607923.4904   24607925.2164 
 08 12 16 09 48 59.0000000  0  1G03                                 
  24607321.3994   -1686545.38747  -1310398.86446  24607321.0144   24607323.0044 
 08 12 16 09 49 00.0000000  0  1G03                                 
  24606718.9484   -1689711.78947  -1312866.19146  24606718.3644   24606721.0474 
 08 12 16 09 49 01.0000000  0  1G03                                 
  24606116.4454   -1692877.87647  -1315333.27246  24606116.1444   24606118.6964 
 08 12 16 09 49 02.0000000  0  1G03                                 
  24605513.9354   -1696043.92947  -1317800.32646  24605513.4834   24605516.8724 
 08 12 16 09 49 03.0000000  0  1G03                                 
  24604911.3914   -1699209.98247  -1320267.38046  24604910.6604   24604913.7094 
 08 12 16 09 49 04.0000000  0  1G03                                 
  24604308.6534   -1702376.17147  -1322734.54046  24604308.1204   24604310.9904 
 08 12 16 09 49 05.0000000  0  1G03                                 
  24603706.0544   -1705542.46147  -1325201.77946  24603705.7844   24603708.3794 
 08 12 16 09 49 06.0000000  0  1G03                                 
  24603103.4064   -1708708.68447  -1327668.96446  24603102.5704   24603105.4054 
 08 12 16 09 49 07.0000000  0  1G03                                 
  24602501.0264   -1711874.70447  -1330135.99346  24602499.6894   24602503.3444 
 08 12 16 09 49 08.0000000  0  1G03                                 
  24601898.7594   -1715040.82747  -1332603.10046  24601897.7314   24601900.9934 
 08 12 16 09 49 09.0000000  0  1G03                                 
  24601296.3204   -1718206.41047  -1335069.78746  24601295.7374   24601298.6004 
 08 12 16 09 49 10.0000000  0  1G03                                 
  24600694.2194   -1721371.92547  -1337536.42046  24600693.4444   24600696.5474 
 08 12 16 09 49 11.0000000  0  1G03                                 
  24600092.0454   -1724537.38447  -1340003.01146  24600091.3644   24600094.2664 
 08 12 16 09 49 12.0000000  0  1G03                                 
  24599489.7384   -1727702.88447  -1342469.63346  24599488.6484   24599491.7344 
 08 12 16 09 49 13.0000000  0  1G03                                 
  24598887.2914   -1730868.47847  -1344936.33046  24598886.0244   24598889.2814 
 08 12 16 09 49 14.0000000  0  1G03                                 
  24598285.1754   -1734033.91047  -1347402.90046  24598284.4404   24598287.1264 
 08 12 16 09 49 15.0000000  0  1G03                                 
  24597682.9114   -1737199.09147  -1349869.27446  24597681.2504   24597684.7464 
 08 12 16 09 49 16.0000000  0  1G03                                 
  24597080.6694   -1740364.44747  -1352335.78546  24597078.4954   24597082.4364 
 08 12 16 09 49 17.0000000  0  1G03                                 
  24596478.5604   -1743529.56547  -1354802.11146  24596476.0994   24596479.8634 
 08 12 16 09 49 18.0000000  0  1G03                                 
  24595876.2254   -1746694.82747  -1357268.54946  24595874.2654   24595877.2354 
 08 12 16 09 49 19.0000000  0  1G03                                 
  24595273.9264   -1749859.83747  -1359734.78946  24595272.1304   24595274.3714 
 08 12 16 09 49 20.0000000  0  1G03                                 
  24594671.8434   -1753024.42247  -1362200.70046  24594669.4654   24594672.1534 
 08 12 16 09 49 21.0000000  0  1G03                                 
  24594069.5794   -1756188.90747  -1364666.53046  24594066.6034   24594069.9494 
 08 12 16 09 49 22.0000000  0  1G03                                 
  24593467.4834   -1759353.28947  -1367132.28146  24593464.5154   24593468.3154 
 08 12 16 09 49 23.0000000  0  1G03                                 
  24592865.3454   -1762517.95647  -1369598.25446  24592862.5414   24592866.0754 
 08 12 16 09 49 24.0000000  0  1G03                                 
  24592262.6234   -1765682.36447  -1372064.02446  24592260.3414   24592263.1124 
 08 12 16 09 49 25.0000000  0  1G03                                 
  24591660.4594   -1768846.28047  -1374529.41146  24591657.8814   24591661.6184 
 08 12 16 09 49 26.0000000  0  1G03                                 
  24591058.1954   -1772010.03147  -1376994.66946  24591056.0224   24591060.0984 
 08 12 16 09 49 27.0000000  0  1G03                                 
  24590456.0444   -1775173.89347  -1379460.01446  24590454.8094   24590458.1374 
 08 12 16 09 49 28.0000000  0  1G03                                 
  24589853.9444   -1778337.85147  -1381925.43446  24589852.5104   24589856.0734 
 08 12 16 09 49 29.0000000  0  1G03                                 
  24589251.6644   -1781501.70247  -1384390.76946  24589250.0314   24589254.5104 
 08 12 16 09 49 30.0000000  0  1G03                                 
  24588649.4774   -1784665.52447  -1386856.08346  24588648.3904   24588652.5474 
 08 12 16 09 49 31.0000000  0  1G03                                 
  24588047.2884   -1787829.45947  -1389321.48546  24588046.8074   24588050.4664 
 08 12 16 09 49 32.0000000  0  1G03                                 
  24587445.0504   -1790993.43147  -1391786.91546  24587444.5584   24587448.0554 
 08 12 16 09 49 33.0000000  0  1G03                                 
  24586843.1514   -1794157.09847  -1394252.10746  24586842.9314   24586846.4634 
 08 12 16 09 49 34.0000000  0  1G03                                 
  24586241.3524   -1797320.37047  -1396716.99146  24586240.9174   24586244.9524 
 08 12 16 09 49 35.0000000  0  1G03                                 
  24585639.7904   -1800483.49547  -1399181.76046  24585639.2264   24585643.1974 
 08 12 16 09 49 36.0000000  0  1G03                                 
  24585038.0074   -1803646.47547  -1401646.41746  24585037.1964   24585041.0834 
 08 12 16 09 49 37.0000000  0  1G03                                 
  24584436.2024   -1806809.15847  -1404110.84346  24584434.8404   24584439.0704 
 08 12 16 09 49 38.0000000  0  1G03                                 
  24583834.0914   -1809971.82147  -1406575.25346  24583832.4554   24583837.0324 
 08 12 16 09 49 39.0000000  0  1G03                                 
  24583232.0984   -1813134.36147  -1409039.56846  24583230.4124   24583234.9904 
 08 12 16 09 49 40.0000000  0  1G03                                 
  24582630.0574   -1816296.84347  -1411503.83746  24582628.3784   24582633.1164 
 08 12 16 09 49 41.0000000  0  1G03                                 
  24582027.9974   -1819459.04947  -1413967.89446  24582026.7504   24582031.6444 
 08 12 16 09 49 42.0000000  0  1G03                                 
  24581426.1154   -1822621.35347  -1416432.02446  24581424.7414   24581429.8384 
 08 12 16 09 49 43.0000000  0  1G03                                 
  24580824.0754   -1825784.06047  -1418896.47046  24580822.9424   24580827.4534 
 08 12 16 09 49 44.0000000  0  1G03                                 
  24580222.5174   -1828946.61447  -1421360.79746  24580221.4284   24580226.1894 
 08 12 16 09 49 45.0000000  0  1G03                                 
  24579620.9314   -1832108.90247  -1423824.91346  24579619.8104   24579624.8184 
 08 12 16 09 49 46.0000000  0  1G03                                 
  24579019.5564   -1835271.38247  -1426289.18246  24579018.1714   24579024.0204 
 08 12 16 09 49 47.0000000  0  1G03                                 
  24578418.2004   -1838433.69247  -1428753.31746  24578416.5874   24578422.5854 
 08 12 16 09 49 48.0000000  0  1G03                                 
  24577816.7334   -1841596.25747  -1431217.65546  24577814.8834   24577820.5184 
 08 12 16 09 49 49.0000000  0  1G03                                 
  24577214.9874   -1844758.99547  -1433682.12746  24577212.6384   24577217.9784 
 08 12 16 09 49 50.0000000  0  1G03                                 
  24576613.2004   -1847921.21747  -1436146.19346  24576610.3284   24576615.1034 
 08 12 16 09 49 51.0000000  0  1G03                                 
  24576011.7364   -1851082.73847  -1438609.71246  24576008.9574   24576013.8464 
 08 12 16 09 49 52.0000000  0  1G03                                 
  24575410.0504   -1854244.42247  -1441073.36046  24575407.8734   24575411.9814 
 08 12 16 09 49 53.0000000  0  1G03                                 
  24574808.5514   -1857405.91247  -1443536.85846  24574806.5704   24574810.3234 
 08 12 16 09 49 54.0000000  0  1G03                                 
  24574206.8554   -1860567.22147  -1446000.21646  24574204.4584   24574208.7214 
 08 12 16 09 49 55.0000000  0  1G03                                 
  24573605.0804   -1863728.37847  -1448463.45646  24573602.4514   24573607.4024 
 08 12 16 09 49 56.0000000  0  1G03                                 
  24573003.4584   -1866889.40247  -1450926.59146  24573001.1144   24573005.6754 
 08 12 16 09 49 57.0000000  0  1G03                                 
  24572401.8784   -1870050.18147  -1453389.53246  24572399.9274   24572404.2134 
 08 12 16 09 49 58.0000000  0  1G03                                 
  24571800.4704   -1873211.04847  -1455852.54646  24571798.6764   24571802.9924 
 08 12 16 09 49 59.0000000  0  1G03                                 
  24571199.0664   -1876371.07247  -1458314.90046  24571196.7694   24571201.7004 
 08 12 16 09 50 00.0000000  0  1G03                                 
  24570597.5694   -1879530.92847  -1460777.12446  24570595.5344   24570600.5624 
 08 12 16 09 50 01.0000000  0  1G03                                 
  24569996.2014   -1882691.05847  -1463239.56146  24569994.7044   24569999.3594 
 08 12 16 09 50 02.0000000  0  1G03                                 
  24569394.7354   -1885851.74147  -1465702.43046  24569393.4494   24569397.9404 
 08 12 16 09 50 03.0000000  0  1G03                                 
  24568793.0614   -1889012.21747  -1468165.13646  24568791.8574   24568796.1854 
 08 12 16 09 50 04.0000000  0  1G03                                 
  24568191.4634   -1892172.28047  -1470627.51946  24568189.9444   24568195.0364 
 08 12 16 09 50 05.0000000  0  1G03                                 
  24567589.8284   -1895332.34147  -1473089.90546  24567588.3394   24567593.8144 
 08 12 16 09 50 06.0000000  0  1G03                                 
  24566988.4344   -1898492.33847  -1475552.24046  24566987.8404   24566992.8794 
 08 12 16 09 50 07.0000000  0  1G03                                 
  24566386.9264   -1901652.66047  -1478014.82746  24566386.3684   24566391.4244 
 08 12 16 09 50 08.0000000  0  1G03                                 
  24565786.0034   -1904812.56147  -1480477.08746  24565785.4724   24565790.5284 
 08 12 16 09 50 09.0000000  0  1G03                                 
  24565185.1314   -1907972.44847  -1482939.33646  24565184.6504   24565189.5564 
 08 12 16 09 50 10.0000000  0  1G03                                 
  24564583.9394   -1911132.20847  -1485401.48746  24564583.4274   24564588.2124 
 08 12 16 09 50 11.0000000  0  1G03                                 
  24563982.8234   -1914291.98947  -1487863.65246  24563981.7414   24563986.7984 
 08 12 16 09 50 12.0000000  0  1G03                                 
  24563381.6474   -1917451.85947  -1490325.88946  24563380.6704   24563385.5534 
 08 12 16 09 50 13.0000000  0  1G03                                 
  24562780.3954   -1920611.83647  -1492788.21046  24562779.0154   24562783.8484 
 08 12 16 09 50 14.0000000  0  1G03                                 
  24562178.6874   -1923771.85047  -1495250.55746  24562177.3114   24562181.8134 
 08 12 16 09 50 15.0000000  0  1G03                                 
  24561577.0834   -1926931.79147  -1497712.84946  24561575.6394   24561580.6224 
 08 12 16 09 50 16.0000000  0  1G03                                 
  24560975.6714   -1930091.46147  -1500174.93046  24560974.3794   24560978.8914 
 08 12 16 09 50 17.0000000  0  1G03                                 
  24560374.1214   -1933250.25947  -1502636.33046  24560372.9234   24560377.4924 
 08 12 16 09 50 18.0000000  0  1G03                                 
  24559772.7744   -1936408.76447  -1505097.50146  24559772.0074   24559776.7824 
 08 12 16 09 50 19.0000000  0  1G03                                 
  24559171.5764   -1939567.56547  -1507558.90346  24559171.5174   24559175.8144 
 08 12 16 09 50 20.0000000  0  1G03                                 
  24558570.5074   -1942726.66347  -1510020.53646  24558570.2004   24558574.8614 
 08 12 16 09 50 21.0000000  0  1G03                                 
  24557969.7494   -1945885.80747  -1512482.20446  24557969.5094   24557973.7684 
 08 12 16 09 50 22.0000000  0  1G03                                 
  24557368.6314   -1949044.86747  -1514943.80546  24557368.5494   24557372.3174 
 08 12 16 09 50 23.0000000  0  1G03                                 
  24556767.7864   -1952203.83547  -1517405.33646  24556767.3774   24556770.9694 
 08 12 16 09 50 24.0000000  0  1G03                                 
  24556166.9464   -1955362.70647  -1519866.79146  24556165.4644   24556169.9794 
 08 12 16 09 50 25.0000000  0  1G03                                 
  24555565.9024   -1958521.63147  -1522328.28746  24555564.3024   24555568.8414 
 08 12 16 09 50 26.0000000  0  1G03                                 
  24554964.9184   -1961680.15147  -1524789.46846  24554963.2754   24554968.0474 
 08 12 16 09 50 27.0000000  0  1G03                                 
  24554364.1594   -1964838.65947  -1527250.64046  24554362.9114   24554366.6754 
 08 12 16 09 50 28.0000000  0  1G03                                 
  24553763.1324   -1967997.04847  -1529711.71846  24553761.7694   24553765.2804 
 08 12 16 09 50 29.0000000  0  1G03                                 
  24553162.4724   -1971155.36447  -1532172.74046  24553160.9704   24553164.6924 
 08 12 16 09 50 30.0000000  0  1G03                                 
  24552561.4474   -1974313.64947  -1534633.73946  24552560.3044   24552563.3634 
 08 12 16 09 50 31.0000000  0  1G03                                 
  24551960.6874   -1977471.97747  -1537094.77246  24551959.2724   24551962.2434 
 08 12 16 09 50 32.0000000  0  1G03                                 
  24551359.9664   -1980630.16847  -1539555.69946  24551358.5314   24551361.2924 
 08 12 16 09 50 33.0000000  0  1G03                                 
  24550759.1094   -1983788.25647  -1542016.54446  24550757.3224   24550760.1564 
 08 12 16 09 50 34.0000000  0  1G03                                 
  24550158.4564   -1986946.13747  -1544477.22846  24550156.4974   24550159.4054 
 08 12 16 09 50 35.0000000  0  1G03                                 
  24549557.5394   -1990103.66447  -1546937.63646  24549555.7334   24549558.4114 
 08 12 16 09 50 36.0000000  0  1G03                                 
  24548956.7374   -1993261.14347  -1549398.00846  24548954.3954   24548957.6664 
 08 12 16 09 50 37.0000000  0  1G03                                 
  24548355.9394   -1996418.68047  -1551858.42546  24548353.2054   24548356.7644 
 08 12 16 09 50 38.0000000  0  1G03                                 
  24547754.8564   -1999576.13847  -1554318.78046  24547752.2924   24547755.3894 
 08 12 16 09 50 39.0000000  0  1G03                                 
  24547153.9124   -2002733.36347  -1556778.95446  24547151.5854   24547154.8784 
 08 12 16 09 50 40.0000000  0  1G03                                 
  24546552.5974   -2005890.47547  -1559239.03946  24546550.3504   24546554.2864 
 08 12 16 09 50 41.0000000  0  1G03                                 
  24545951.4794   -2009047.29247  -1561698.89346  24545949.5564   24545953.5864 
 08 12 16 09 50 42.0000000  0  1G03                                 
  24545350.5554   -2012203.89447  -1564158.58046  24545349.0104   24545352.8084 
 08 12 16 09 50 43.0000000  0  1G03                                 
  24544749.6814   -2015360.75147  -1566618.46946  24544748.6694   24544752.2144 
 08 12 16 09 50 44.0000000  0  1G03                                 
  24544148.9094   -2018517.26747  -1569078.08946  24544148.1294   24544151.7704 
 08 12 16 09 50 45.0000000  0  1G03                                 
  24543548.1384   -2021674.27647  -1571538.09746  24543547.4264   24543551.3594 
 08 12 16 09 50 46.0000000  0  1G03                                 
  24542947.6004   -2024830.99147  -1573997.87346  24542947.1974   24542950.9324 
 08 12 16 09 50 47.0000000  0  1G03                                 
  24542347.2204   -2027987.31147  -1576457.34246  24542346.4684   24542350.4694 
 08 12 16 09 50 48.0000000  0  1G03                                 
  24541746.5014   -2031143.74047  -1578916.89546  24541745.4144   24541749.6564 
 08 12 16 09 50 49.0000000  0  1G03                                 
  24541145.8924   -2034300.37547  -1581376.61146  24541144.5274   24541149.1234 
 08 12 16 09 50 50.0000000  0  1G03                                 
  24540545.3544   -2037456.60947  -1583836.01446  24540544.1554   24540548.5544 
 08 12 16 09 50 51.0000000  0  1G03                                 
  24539944.8884   -2040612.40347  -1586295.07346  24539943.7774   24539948.0304 
 08 12 16 09 50 52.0000000  0  1G03                                 
  24539344.0584   -2043768.34547  -1588754.24846  24539342.6894   24539346.9114 
 08 12 16 09 50 53.0000000  0  1G03                                 
  24538743.2944   -2046924.01147  -1591213.20746  24538741.5684   24538746.1114 
 08 12 16 09 50 54.0000000  0  1G03                                 
  24538142.2604   -2050080.00647  -1593672.42346  24538140.8254   24538145.1974 
 08 12 16 09 50 55.0000000  0  1G03                                 
  24537541.3894   -2053236.07647  -1596131.69846  24537540.2654   24537544.8554 
 08 12 16 09 50 56.0000000  0  1G03                                 
  24536940.8104   -2056392.07947  -1598590.92046  24536939.6444   24536944.1174 
 08 12 16 09 50 57.0000000  0  1G03                                 
  24536340.0974   -2059547.86747  -1601049.97146  24536338.7114   24536343.9034 
 08 12 16 09 50 58.0000000  0  1G03                                 
  24535739.6794   -2062703.39647  -1603508.82346  24535738.6384   24535743.1694 
 08 12 16 09 50 59.0000000  0  1G03                                 
  24535139.5434   -2065858.70147  -1605967.50046  24535138.4804   24535142.9854 
 08 12 16 09 51 00.0000000  0  1G03                                 
  24534539.4084   -2069013.32647  -1608425.64646  24534538.6624   24534542.6264 
 08 12 16 09 51 01.0000000  0  1G03                                 
  24533939.3714   -2072168.45547  -1610884.18846  24533939.1654   24533942.1594 
 08 12 16 09 51 02.0000000  0  1G03                                 
  24533338.8854   -2075323.43947  -1613342.61646  24533338.1974   24533341.3904 
 08 12 16 09 51 03.0000000  0  1G03                                 
  24532738.5864   -2078477.92847  -1615800.65746  24532737.5224   24532740.9154 
 08 12 16 09 51 04.0000000  0  1G03                                 
  24532137.9524   -2081632.75947  -1618258.96846  24532137.0324   24532140.5124 
 08 12 16 09 51 05.0000000  0  1G03                                 
  24531537.3444   -2084787.42747  -1620717.14946  24531536.0294   24531540.3264 
 08 12 16 09 51 06.0000000  0  1G03                                 
  24530936.8174   -2087942.08047  -1623175.32046  24530935.6664   24530940.0174 
 08 12 16 09 51 07.0000000  0  1G03                                 
  24530336.6324   -2091096.90347  -1625633.62546  24530335.9334   24530340.4334 
 08 12 16 09 51 08.0000000  0  1G03                                 
  24529736.1594   -2094251.45747  -1628091.71946  24529735.8974   24529740.3084 
 08 12 16 09 51 09.0000000  0  1G03                                 
  24529135.7044   -2097406.48847  -1630550.18446  24529135.2284   24529139.6334 
 08 12 16 09 51 10.0000000  0  1G03                                 
  24528535.2424   -2100561.18247  -1633008.38546  24528534.8764   24528539.1994 
 08 12 16 09 51 11.0000000  0  1G03                                 
  24527935.1124   -2103715.59647  -1635466.36846  24527935.3594   24527938.9064 
 08 12 16 09 51 12.0000000  0  1G03                                 
  24527334.7334   -2106869.94347  -1637924.30046  24527335.0694   24527338.3184 
 08 12 16 09 51 13.0000000  0  1G03                                 
  24526734.5044   -2110023.90647  -1640381.93346  24526735.2084   24526738.0294 
 08 12 16 09 51 14.0000000  0  1G03                                 
  24526134.2894   -2113177.65947  -1642839.39946  24526134.4884   24526137.9414 
 08 12 16 09 51 15.0000000  0  1G03                                 
  24525534.2784   -2116331.21447  -1645296.71346  24525534.1704   24525538.0974 
 08 12 16 09 51 16.0000000  0  1G03                                 
  24524934.1654   -2119484.98247  -1647754.19246  24524933.8134   24524937.8054 
 08 12 16 09 51 17.0000000  0  1G03                                 
  24524334.1664   -2122638.82847  -1650211.73346  24524334.0184   24524337.5474 
 08 12 16 09 51 18.0000000  0  1G03                                 
  24523734.4734   -2125792.57047  -1652669.19346  24523734.3494   24523738.0064 
 08 12 16 09 51 19.0000000  0  1G03                                 
  24523134.5284   -2128946.04047  -1655126.44346  24523134.4974   24523138.2904 
 08 12 16 09 51 20.0000000  0  1G03                                 
  24522534.6604   -2132099.46547  -1657583.65646  24522533.9574   24522538.6004 
 08 12 16 09 51 21.0000000  0  1G03                                 
  24521935.2874   -2135252.67847  -1660040.70346  24521934.2214   24521938.8544 
 08 12 16 09 51 22.0000000  0  1G03                                 
  24521335.6554   -2138405.92747  -1662497.78046  24521333.7924   24521338.5194 
 08 12 16 09 51 23.0000000  0  1G03                                 
  24520736.1354   -2141558.64547  -1664954.44246  24520734.0914   24520738.7824 
 08 12 16 09 51 24.0000000  0  1G03                                 
  24520136.4344   -2144711.06547  -1667410.87346  24520134.2764   24520139.0134 
 08 12 16 09 51 25.0000000  0  1G03                                 
  24519536.4864   -2147864.06347  -1669867.75746  24519534.3824   24519538.4254 
 08 12 16 09 51 26.0000000  0  1G03                                 
  24518936.6344   -2151016.76847  -1672324.40946  24518933.8574   24518938.1584 
 08 12 16 09 51 27.0000000  0  1G03                                 
  24518336.9744   -2154169.06047  -1674780.74046  24518334.2254   24518338.6184 
 08 12 16 09 51 28.0000000  0  1G03                                 
  24517736.9004   -2157321.38947  -1677237.10346  24517734.0804   24517738.2094 
 08 12 16 09 51 29.0000000  0  1G03                                 
  24517136.9624   -2160473.87447  -1679693.58546  24517133.9964   24517138.3684 
 08 12 16 09 51 30.0000000  0  1G03                                 
  24516537.0414   -2163626.20947  -1682149.95146  24516534.3004   24516538.7814 
 08 12 16 09 51 31.0000000  0  1G03                                 
  24515936.9414   -2166778.24047  -1684606.07946  24515934.9874   24515938.7674 
 08 12 16 09 51 32.0000000  0  1G03                                 
  24515336.9704   -2169930.11947  -1687062.08946  24515334.8574   24515338.7474 
 08 12 16 09 51 33.0000000  0  1G03                                 
  24514737.2504   -2173082.22347  -1689518.27646  24514734.6764   24514740.1934 
 08 12 16 09 51 34.0000000  0  1G03                                 
  24514137.2494   -2176234.55747  -1691974.64146  24514134.8424   24514140.0424 
 08 12 16 09 51 35.0000000  0  1G03                                 
  24513537.3314   -2179386.45247  -1694430.66346  24513535.1514   24513539.8714 
 08 12 16 09 51 36.0000000  0  1G03                                 
  24512937.4524   -2182537.92647  -1696886.35546  24512936.0724   24512940.2194 
 08 12 16 09 51 37.0000000  0  1G03                                 
  24512337.4724   -2185689.12547  -1699341.83646  24512336.0724   24512340.4654 
 08 12 16 09 51 38.0000000  0  1G03                                 
  24511737.5224   -2188840.77847  -1701797.67146  24511736.0404   24511740.6934 
 08 12 16 09 51 39.0000000  0  1G03                                 
  24511137.6394   -2191992.54147  -1704253.59146  24511136.3794   24511141.2454 
 08 12 16 09 51 40.0000000  0  1G03                                 
  24510538.1044   -2195143.73547  -1706709.06546  24510536.8924   24510541.5924 
 08 12 16 09 51 41.0000000  0  1G03                                 
  24509938.4454   -2198294.88247  -1709164.50346  24509937.7294   24509941.9644 
 08 12 16 09 51 42.0000000  0  1G03                                 
  24509338.9204   -2201445.75447  -1711619.72746  24509338.3854   24509342.2554 
 08 12 16 09 51 43.0000000  0  1G03                                 
  24508739.3604   -2204596.53047  -1714074.87546  24508738.7164   24508742.8034 
 08 12 16 09 51 44.0000000  0  1G03                                 
  24508139.5344   -2207747.54447  -1716530.21346  24508138.8724   24508142.8414 
 08 12 16 09 51 45.0000000  0  1G03                                 
  24507540.0284   -2210898.36747  -1718985.39746  24507539.4284   24507543.7814 
 08 12 16 09 51 46.0000000  0  1G03                                 
  24506940.4724   -2214049.22447  -1721440.60946  24506939.4094   24506944.3464 
 08 12 16 09 51 47.0000000  0  1G03                                 
  24506340.8604   -2217199.99247  -1723895.75146  24506339.4744   24506344.6554 
 08 12 16 09 51 48.0000000  0  1G03                                 
  24505741.3764   -2220350.67347  -1726350.82646  24505739.9634   24505745.2234 
 08 12 16 09 51 49.0000000  0  1G03                                 
  24505141.3764   -2223501.55747  -1728806.05846  24505140.2374   24505145.6734 
 08 12 16 09 51 50.0000000  0  1G03                                 
  24504541.7054   -2226652.06047  -1731260.99346  24504541.0644   24504546.0024 
 08 12 16 09 51 51.0000000  0  1G03                                 
  24503942.4204   -2229802.42747  -1733715.82246  24503941.8164   24503946.9364 
 08 12 16 09 51 52.0000000  0  1G03                                 
  24503343.1764   -2232952.76847  -1736170.63146  24503342.3114   24503348.0194 
 08 12 16 09 51 53.0000000  0  1G03                                 
  24502743.9404   -2236102.99747  -1738625.35246  24502742.5114   24502748.4274 
 08 12 16 09 51 54.0000000  0  1G03                                 
  24502144.7184   -2239252.74147  -1741079.69446  24502143.2804   24502148.7954 
 08 12 16 09 51 55.0000000  0  1G03                                 
  24501545.4654   -2242402.65347  -1743534.17046  24501543.7554   24501548.9664 
 08 12 16 09 51 56.0000000  0  1G03                                 
  24500946.1214   -2245552.48047  -1745988.57946  24500944.4604   24500949.3144 
 08 12 16 09 51 57.0000000  0  1G03                                 
  24500346.8724   -2248702.07047  -1748442.80246  24500344.9324   24500349.8754 
 08 12 16 09 51 58.0000000  0  1G03                                 
  24499747.8134   -2251851.70347  -1750897.06046  24499745.8774   24499749.9854 
 08 12 16 09 51 59.0000000  0  1G03                                 
  24499148.7664   -2255001.26847  -1753351.26546  24499146.7024   24499150.7304 
 08 12 16 09 52 00.0000000  0  1G03                                 
  24498549.5734   -2258150.46647  -1755805.18446  24498547.4284   24498551.4054 
 08 12 16 09 52 01.0000000  0  1G03                                 
  24497950.2974   -2261299.81447  -1758259.22046  24497948.1304   24497952.0774 
 08 12 16 09 52 02.0000000  0  1G03                                 
  24497350.7884   -2264449.30547  -1760713.36946  24497348.7714   24497352.9244 
 08 12 16 09 52 03.0000000  0  1G03                                 
  24496751.2844   -2267598.63547  -1763167.39146  24496749.0774   24496753.3074 
 08 12 16 09 52 04.0000000  0  1G03                                 
  24496151.7974   -2270748.00147  -1765621.44246  24496149.3244   24496153.7304 
 08 12 16 09 52 05.0000000  0  1G03                                 
  24495552.3634   -2273897.16547  -1768075.33746  24495550.0014   24495554.9964 
 08 12 16 09 52 06.0000000  0  1G03                                 
  24494952.9104   -2277046.17247  -1770529.10746  24494950.7824   24494956.1064 
 08 12 16 09 52 07.0000000  0  1G03                                 
  24494353.3574   -2280194.88347  -1772982.64746  24494351.4204   24494356.8094 
 08 12 16 09 52 08.0000000  0  1G03                                 
  24493753.8904   -2283343.56047  -1775436.16146  24493751.8474   24493756.7174 
 08 12 16 09 52 09.0000000  0  1G03                                 
  24493154.6154   -2286491.68147  -1777889.24046  24493153.1224   24493157.6064 
 08 12 16 09 52 10.0000000  0  1G03                                 
  24492555.5384   -2289639.70347  -1780342.24446  24492553.9634   24492558.9694 
 08 12 16 09 52 11.0000000  0  1G03                                 
  24491956.3504   -2292787.83247  -1782795.33046  24491954.9194   24491960.1374 
 08 12 16 09 52 12.0000000  0  1G03                                 
  24491357.3624   -2295936.07447  -1785248.50546  24491356.3864   24491361.2894 
 08 12 16 09 52 13.0000000  0  1G03                                 
  24490758.3004   -2299084.29147  -1787701.66246  24490757.1314   24490761.7474 
 08 12 16 09 52 14.0000000  0  1G03                                 
  24490159.6134   -2302232.38247  -1790154.71946  24490158.5724   24490163.0154 
 08 12 16 09 52 15.0000000  0  1G03                                 
  24489560.6124   -2305380.69347  -1792607.94846  24489559.6694   24489563.9094 
 08 12 16 09 52 16.0000000  0  1G03                                 
  24488961.5524   -2308528.75947  -1795060.98546  24488960.3884   24488964.9144 
 08 12 16 09 52 17.0000000  0  1G03                                 
  24488362.4164   -2311676.51647  -1797513.78146  24488360.7514   24488365.4574 
 08 12 16 09 52 18.0000000  0  1G03                                 
  24487763.2394   -2314824.14347  -1799966.47546  24487761.4724   24487766.8704 
 08 12 16 09 52 19.0000000  0  1G03                                 
  24487164.1044   -2317972.17347  -1802419.48646  24487163.2604   24487167.8694 
 08 12 16 09 52 20.0000000  0  1G03                                 
  24486565.0044   -2321120.40547  -1804872.65446  24486564.1924   24486568.5214 
 08 12 16 09 52 21.0000000  0  1G03                                 
  24485966.0354   -2324268.05347  -1807325.36546  24485964.8974   24485969.2454 
 08 12 16 09 52 22.0000000  0  1G03                                 
  24485367.1884   -2327415.46647  -1809777.89346  24485366.2604   24485370.5124 
 08 12 16 09 52 23.0000000  0  1G03                                 
  24484768.2394   -2330562.72247  -1812230.29946  24484767.1824   24484771.2014 
 08 12 16 09 52 24.0000000  0  1G03                                 
  24484169.2304   -2333709.79247  -1814682.56046  24484167.7184   24484172.2514 
 08 12 16 09 52 25.0000000  0  1G03                                 
  24483570.4694   -2336856.75147  -1817134.73446  24483569.0224   24483573.4034 
 08 12 16 09 52 26.0000000  0  1G03                                 
  24482971.7804   -2340003.78647  -1819586.96746  24482970.8154   24482974.8024 
 08 12 16 09 52 27.0000000  0  1G03                                 
  24482373.2204   -2343150.68147  -1822039.09246  24482372.1554   24482376.0554 
 08 12 16 09 52 28.0000000  0  1G03                                 
  24481774.7394   -2346297.39447  -1824491.07446  24481773.5474   24481777.9964 
 08 12 16 09 52 29.0000000  0  1G03                                 
  24481176.4154   -2349443.90147  -1826942.89746  24481174.6064   24481179.5834 
 08 12 16 09 52 30.0000000  0  1G03                                 
  24480577.9754   -2352590.25647  -1829394.60146  24480576.2284   24480580.9004 
 08 12 16 09 52 31.0000000  0  1G03                                 
  24479979.3984   -2355736.61947  -1831846.31146  24479976.9604   24479981.9804 
 08 12 16 09 52 32.0000000  0  1G03                                 
  24479380.7334   -2358882.68547  -1834297.79046  24479378.0904   24479383.3434 
 08 12 16 09 52 33.0000000  0  1G03                                 
  24478781.9794   -2362028.68947  -1836749.22146  24478779.3494   24478783.8314 
 08 12 16 09 52 34.0000000  0  1G03                                 
  24478183.2364   -2365174.86947  -1839200.79146  24478180.5804   24478185.4884 
 08 12 16 09 52 35.0000000  0  1G03                                 
  24477584.2034   -2368321.28547  -1841652.54546  24477581.5204   24477585.8494 
 08 12 16 09 52 36.0000000  0  1G03                                 
  24476985.1014   -2371467.66947  -1844104.27246  24476983.2234   24476986.8354 
 08 12 16 09 52 37.0000000  0  1G03                                 
  24476386.1424   -2374613.86147  -1846555.85046  24476384.3874   24476388.2504 
 08 12 16 09 52 38.0000000  0  1G03                                 
  24475787.1684   -2377760.05647  -1849007.43046  24475786.4604   24475790.2614 
 08 12 16 09 52 39.0000000  0  1G03                                 
  24475188.2064   -2380905.95747  -1851458.78146  24475187.4264   24475191.7584 
 08 12 16 09 52 40.0000000  0  1G03                                 
  24474589.2874   -2384051.78047  -1853910.07146  24474588.6144   24474592.4734 
 08 12 16 09 52 41.0000000  0  1G03                                 
  24473990.3654   -2387197.24447  -1856361.08146  24473989.7404   24473993.8234 
 08 12 16 09 52 42.0000000  0  1G03                                 
  24473391.7874   -2390342.47147  -1858811.90646  24473391.0914   24473395.7424 
 08 12 16 09 52 43.0000000  0  1G03                                 
  24472793.1994   -2393487.67447  -1861262.71346  24472792.4194   24472797.0364 
 08 12 16 09 52 44.0000000  0  1G03                                 
  24472194.4594   -2396632.65447  -1863713.34646  24472193.4194   24472198.5004 
 08 12 16 09 52 45.0000000  0  1G03                                 
  24471596.0814   -2399777.64247  -1866163.98546  24471594.9534   24471600.0394 
 08 12 16 09 52 46.0000000  0  1G03                                 
  24470997.6814   -2402922.54547  -1868614.55846  24470996.6304   24471001.7384 
 08 12 16 09 52 47.0000000  0  1G03                                 
  24470399.3974   -2406067.72847  -1871065.34946  24470398.2504   24470403.4574 
 08 12 16 09 52 48.0000000  0  1G03                                 
  24469801.2464   -2409212.82647  -1873516.07346  24469799.9584   24469805.1444 
 08 12 16 09 52 49.0000000  0  1G03                                 
  24469203.0144   -2412357.82947  -1875966.72246  24469201.5354   24469206.6534 
 08 12 16 09 52 50.0000000  0  1G03                                 
  24468604.8184   -2415502.79047  -1878417.34146  24468603.2764   24468608.4844 
 08 12 16 09 52 51.0000000  0  1G03                                 
  24468006.6854   -2418647.47147  -1880867.74146  24468004.6814   24468010.2074 
 08 12 16 09 52 52.0000000  0  1G03                                 
  24467408.6924   -2421791.73347  -1883317.81246  24467406.7674   24467411.8474 
 08 12 16 09 52 53.0000000  0  1G03                                 
  24466810.5324   -2424936.01647  -1885767.90246  24466808.3514   24466813.4554 
 08 12 16 09 52 54.0000000  0  1G03                                 
  24466212.3384   -2428080.05947  -1888217.80346  24466210.3144   24466215.1284 
 08 12 16 09 52 55.0000000  0  1G03                                 
  24465613.8744   -2431224.05447  -1890667.67146  24465611.8514   24465616.5304 
 08 12 16 09 52 56.0000000  0  1G03                                 
  24465015.3774   -2434367.99347  -1893117.49546  24465013.3094   24465017.9114 
 08 12 16 09 52 57.0000000  0  1G03                                 
  24464416.8684   -2437511.87047  -1895567.26746  24464414.9264   24464419.3624 
 08 12 16 09 52 58.0000000  0  1G03                                 
  24463818.4684   -2440655.65547  -1898016.96946  24463816.9844   24463820.9304 
 08 12 16 09 52 59.0000000  0  1G03                                 
  24463220.0464   -2443799.28247  -1900466.54846  24463218.0204   24463222.5684 
 08 12 16 09 53 00.0000000  0  1G03                                 
  24462621.4774   -2446943.04547  -1902916.23446  24462619.6214   24462624.4094 
 08 12 16 09 53 01.0000000  0  1G03                                 
  24462023.0644   -2450086.95147  -1905366.02846  24462021.9244   24462026.5864 
 08 12 16 09 53 02.0000000  0  1G03                                 
  24461424.5734   -2453230.96547  -1907815.90846  24461423.9674   24461428.0534 
 08 12 16 09 53 03.0000000  0  1G03                                 
  24460826.0834   -2456374.49747  -1910265.41246  24460825.2914   24460829.7454 
 08 12 16 09 53 04.0000000  0  1G03                                 
  24460228.2924   -2459517.43447  -1912714.45046  24460228.6114   24460232.6834 
 08 12 16 09 53 05.0000000  0  1G03                                 
  24459630.5884   -2462660.24547  -1915163.39246  24459630.4894   24459634.9884 
 08 12 16 09 53 06.0000000  0  1G03                                 
  24459033.0634   -2465802.91047  -1917612.21846  24459032.9074   24459037.4534 
 08 12 16 09 53 07.0000000  0  1G03                                 
  24458435.3854   -2468945.51147  -1920060.99746  24458434.6164   24458439.2414 
 08 12 16 09 53 08.0000000  0  1G03                                 
  24457837.5494   -2472088.45747  -1922510.04646  24457836.1234   24457840.4524 
 08 12 16 09 53 09.0000000  0  1G03                                 
  24457239.4924   -2475231.52947  -1924959.19146  24457237.4834   24457242.2744 
 08 12 16 09 53 10.0000000  0  1G03                                 
  24456641.3134   -2478374.36747  -1927408.15646  24456639.1324   24456643.7784 
 08 12 16 09 53 11.0000000  0  1G03                                 
  24456043.2154   -2481516.96947  -1929856.93846  24456041.1384   24456045.7924 
 08 12 16 09 53 12.0000000  0  1G03                                 
  24455445.0974   -2484659.38347  -1932305.57046  24455443.2404   24455447.5264 
 08 12 16 09 53 13.0000000  0  1G03                                 
  24454847.3164   -2487801.41747  -1934753.90846  24454846.0784   24454850.1054 
 08 12 16 09 53 14.0000000  0  1G03                                 
  24454249.3284   -2490943.51147  -1937202.29346  24454247.9354   24454251.8924 
 08 12 16 09 53 15.0000000  0  1G03                                 
  24453651.6984   -2494086.02147  -1939651.00446  24453650.1974   24453654.5024 
 08 12 16 09 53 16.0000000  0  1G03                                 
  24453054.0264   -2497228.27047  -1942099.51246  24453053.0864   24453057.5494 
 08 12 16 09 53 17.0000000  0  1G03                                 
  24452456.1074   -2500370.34947  -1944547.88746  24452454.6304   24452459.2344 
 08 12 16 09 53 18.0000000  0  1G03                                 
  24451857.8754   -2503512.36847  -1946996.21246  24451855.9304   24451860.6544 
 08 12 16 09 53 19.0000000  0  1G03                                 
  24451259.8284   -2506653.90247  -1949444.15846  24451257.5214   24451262.2814 
 08 12 16 09 53 20.0000000  0  1G03                                 
  24450661.8644   -2509795.35947  -1951892.04946  24450660.2674   24450664.8784 
 08 12 16 09 53 21.0000000  0  1G03                                 
  24450064.0344   -2512936.74147  -1954339.87846  24450062.0814   24450067.0174 
 08 12 16 09 53 22.0000000  0  1G03                                 
  24449466.2624   -2516078.05947  -1956787.65746  24449465.1164   24449469.4104 
 08 12 16 09 53 23.0000000  0  1G03                                 
  24448868.4254   -2519219.18647  -1959235.28646  24448867.3714   24448871.3074 
 08 12 16 09 53 24.0000000  0  1G03                                 
  24448270.8204   -2522360.40847  -1961682.99246  24448269.6524   24448273.8724 
 08 12 16 09 53 25.0000000  0  1G03                                 
  24447673.2064   -2525501.45447  -1964130.55846  24447672.2254   24447676.2314 
 08 12 16 09 53 26.0000000  0  1G03                                 
  24447075.3894   -2528642.90247  -1966578.43746  24447073.8804   24447078.6244 
 08 12 16 09 53 27.0000000  0  1G03                                 
  24446477.9514   -2531783.94247  -1969025.99746  24446476.7204   24446481.3334 
 08 12 16 09 53 28.0000000  0  1G03                                 
  24445880.2414   -2534924.94547  -1971473.53246  24445879.4444   24445883.5624 
 08 12 16 09 53 29.0000000  0  1G03                                 
  24445282.5964   -2538066.29747  -1973921.33546  24445280.5004   24445286.0514 
 08 12 16 09 53 30.0000000  0  1G03                                 
  24444684.6964   -2541207.42847  -1976368.96746  24444682.7494   24444688.2364 
 08 12 16 09 53 31.0000000  0  1G03                                 
  24444086.9774   -2544348.22347  -1978816.33846  24444085.0234   24444089.8204 
 08 12 16 09 53 32.0000000  0  1G03                                 
  24443489.0464   -2547489.15747  -1981263.81846  24443487.2584   24443492.3844 
 08 12 16 09 53 33.0000000  0  1G03                                 
  24442891.3504   -2550629.62547  -1983710.93246  24442890.0774   24442894.9784 
 08 12 16 09 53 34.0000000  0  1G03                                 
  24442293.6994   -2553770.36347  -1986158.26046  24442292.7684   24442296.9014 
 08 12 16 09 53 35.0000000  0  1G03                                 
  24441696.2014   -2556910.62447  -1988605.21646  24441694.6814   24441699.1634 
 08 12 16 09 53 36.0000000  0  1G03                                 
  24441098.5534   -2560050.89847  -1991052.18346  24441096.8424   24441101.2004 
 08 12 16 09 53 37.0000000  0  1G03                                 
  24440500.7264   -2563191.10247  -1993499.09546  24440499.4904   24440503.4524 
 08 12 16 09 53 38.0000000  0  1G03                                 
  24439903.2034   -2566331.34147  -1995946.03446  24439902.2884   24439906.3524 
 08 12 16 09 53 39.0000000  0  1G03                                 
  24439306.1054   -2569471.04447  -1998392.55546  24439305.3034   24439309.4364 
 08 12 16 09 53 40.0000000  0  1G03                                 
  24438708.9884   -2572610.92047  -2000839.21046  24438707.8744   24438711.9474 
 08 12 16 09 53 41.0000000  0  1G03                                 
  24438111.9414   -2575750.32647  -2003285.49946  24438110.2224   24438114.7194 
 08 12 16 09 53 42.0000000  0  1G03                                 
  24437514.6014   -2578889.70147  -2005731.76546  24437512.4614   24437517.4234 
 08 12 16 09 53 43.0000000  0  1G03                                 
  24436917.2094   -2582029.28547  -2008178.19446  24436914.7624   24436919.5534 
 08 12 16 09 53 44.0000000  0  1G03                                 
  24436319.8774   -2585168.84647  -2010624.60446  24436317.2044   24436322.1064 
 08 12 16 09 53 45.0000000  0  1G03                                 
  24435722.4094   -2588308.35347  -2013070.97246  24435719.3604   24435723.5654 
 08 12 16 09 53 46.0000000  0  1G03                                 
  24435125.0214   -2591447.83647  -2015517.31846  24435122.6984   24435125.8514 
 08 12 16 09 53 47.0000000  0  1G03                                 
  24434527.8174   -2594586.94147  -2017963.37246  24434524.9634   24434528.5264 
 08 12 16 09 53 48.0000000  0  1G03                                 
  24433930.3784   -2597726.08947  -2020409.46046  24433927.6644   24433931.1204 
 08 12 16 09 53 49.0000000  0  1G03                                 
  24433332.8684   -2600864.92547  -2022855.30546  24433330.1644   24433333.2314 
 08 12 16 09 53 50.0000000  0  1G03                                 
  24432735.4184   -2604003.68247  -2025301.09046  24432732.7914   24432736.6484 
 08 12 16 09 53 51.0000000  0  1G03                                 
  24432138.1324   -2607142.46347  -2027746.89146  24432135.4394   24432139.4994 
 08 12 16 09 53 52.0000000  0  1G03                                 
  24431540.8654   -2610280.79247  -2030192.34046  24431538.5034   24431542.0004 
 08 12 16 09 53 53.0000000  0  1G03                                 
  24430943.7904   -2613419.28047  -2032637.91446  24430942.1884   24430945.4774 
 08 12 16 09 53 54.0000000  0  1G03                                 
  24430346.7494   -2616557.57447  -2035083.33546  24430344.6294   24430348.5634 
 08 12 16 09 53 55.0000000  0  1G03                                 
  24429749.4684   -2619695.29947  -2037528.31446  24429747.6774   24429751.3264 
 08 12 16 09 53 56.0000000  0  1G03                                 
  24429152.0634   -2622832.94547  -2039973.23146  24429149.8534   24429154.4984 
 08 12 16 09 53 57.0000000  0  1G03                                 
  24428554.7804   -2625970.85447  -2042418.35246  24428552.7184   24428557.2784 
 08 12 16 09 53 58.0000000  0  1G03                                 
  24427958.0144   -2629108.52747  -2044863.29046  24427956.3284   24427960.4434 
 08 12 16 09 53 59.0000000  0  1G03                                 
  24427361.0824   -2632246.60347  -2047308.54346  24427359.2524   24427363.3724 
 08 12 16 09 54 00.0000000  0  1G03                                 
  24426764.2154   -2635384.64047  -2049753.76446  24426762.3424   24426765.3644 
 08 12 16 09 54 01.0000000  0  1G03                                 
  24426167.3704   -2638522.34947  -2052198.73146  24426164.7694   24426168.5194 
 08 12 16 09 54 02.0000000  0  1G03                                 
  24425570.3144   -2641660.23747  -2054643.83846  24425567.5464   24425571.2124 
 08 12 16 09 54 03.0000000  0  1G03                                 
  24424973.0544   -2644797.96847  -2057088.82146  24424970.3194   24424973.7254 
 08 12 16 09 54 04.0000000  0  1G03                                 
  24424376.2424   -2647935.34647  -2059533.53046  24424373.7284   24424376.9464 
 08 12 16 09 54 05.0000000  0  1G03                                 
  24423779.4434   -2651072.76247  -2061978.26846  24423776.8234   24423779.6084 
 08 12 16 09 54 06.0000000  0  1G03                                 
  24423182.5004   -2654210.34447  -2064423.13646  24423179.6384   24423182.1234 
 08 12 16 09 54 07.0000000  0  1G03                                 
  24422585.2344   -2657347.75447  -2066867.87246  24422581.9974   24422584.7164 
 08 12 16 09 54 08.0000000  0  1G03                                 
  24421987.9554   -2660484.75847  -2069312.28846  24421984.2424   24421988.2304 
 08 12 16 09 54 09.0000000  0  1G03                                 
  24421390.6994   -2663621.67947  -2071756.64246  24421387.5234   24421391.6924 
 08 12 16 09 54 10.0000000  0  1G03                                 
  24420793.4284   -2666758.46847  -2074200.89346  24420790.7624   24420794.9984 
 08 12 16 09 54 11.0000000  0  1G03                                 
  24420196.0434   -2669895.28047  -2076645.16246  24420193.6834   24420198.4494 
 08 12 16 09 54 12.0000000  0  1G03                                 
  24419599.0874   -2673032.09047  -2079089.42746  24419597.1274   24419601.1484 
 08 12 16 09 54 13.0000000  0  1G03                                 
  24419002.1984   -2676168.46747  -2081533.35546  24419001.3314   24419004.8264 
 08 12 16 09 54 14.0000000  0  1G03                                 
  24418405.3024   -2679304.96447  -2083977.37646  24418403.8274   24418407.6944 
 08 12 16 09 54 15.0000000  0  1G03                                 
  24417808.7914   -2682440.92947  -2086420.98146  24417806.9704   24417811.2654 
 08 12 16 09 54 16.0000000  0  1G03                                 
  24417211.9844   -2685576.93947  -2088864.62246  24417209.8434   24417214.5494 
 08 12 16 09 54 17.0000000  0  1G03                                 
  24416615.3164   -2688713.14347  -2091308.41546  24416613.6744   24416617.8734 
 08 12 16 09 54 18.0000000  0  1G03                                 
  24416018.7874   -2691849.16947  -2093752.06846  24416017.2564   24416020.7424 
 08 12 16 09 54 19.0000000  0  1G03                                 
  24415421.9394   -2694984.96747  -2096195.54646  24415419.8384   24415423.4324 
 08 12 16 09 54 20.0000000  0  1G03                                 
  24414825.3024   -2698120.56747  -2098638.86846  24414823.0504   24414827.1144 
 08 12 16 09 54 21.0000000  0  1G03                                 
  24414228.6594   -2701256.06847  -2101082.11646  24414226.7184   24414230.3594 
 08 12 16 09 54 22.0000000  0  1G03                                 
  24413632.2314   -2704391.80847  -2103525.55046  24413630.6854   24413633.6454 
 08 12 16 09 54 23.0000000  0  1G03                                 
  24413035.8604   -2707527.33747  -2105968.81946  24413034.1184   24413037.3144 
 08 12 16 09 54 24.0000000  0  1G03                                 
  24412439.4284   -2710662.29547  -2108411.64146  24412437.7244   24412440.7674 
 08 12 16 09 54 25.0000000  0  1G03                                 
  24411842.7594   -2713797.47447  -2110854.64046  24411841.3604   24411844.5034 
 08 12 16 09 54 26.0000000  0  1G03                                 
  24411245.9224   -2716932.58147  -2113297.57946  24411244.4174   24411247.5924 
 08 12 16 09 54 27.0000000  0  1G03                                 
  24410649.0204   -2720067.71947  -2115740.54546  24410646.9034   24410650.2294 
 08 12 16 09 54 28.0000000  0  1G03                                 
  24410052.0254   -2723203.02047  -2118183.63346  24410050.4524   24410053.1574 
 08 12 16 09 54 29.0000000  0  1G03                                 
  24409455.0604   -2726338.23747  -2120626.65846  24409454.0394   24409456.3234 
 08 12 16 09 54 30.0000000  0  1G03                                 
  24408858.2514   -2729473.39347  -2123069.63546  24408857.5974   24408860.4034 
 08 12 16 09 54 31.0000000  0  1G03                                 
  24408261.4514   -2732608.44847  -2125512.53546  24408260.8614   24408264.0884 
 08 12 16 09 54 32.0000000  0  1G03                                 
  24407664.4434   -2735743.39847  -2127955.35346  24407663.3364   24407667.8014 
 08 12 16 09 54 33.0000000  0  1G03                                 
  24407067.8924   -2738877.88847  -2130397.80946  24407067.0044   24407071.0234 
 08 12 16 09 54 34.0000000  0  1G03                                 
  24406471.4574   -2742012.24547  -2132840.16346  24406470.8404   24406475.0114 
 08 12 16 09 54 35.0000000  0  1G03                                 
  24405874.7524   -2745146.47947  -2135282.42046  24405874.5274   24405877.7294 
 08 12 16 09 54 36.0000000  0  1G03                                 
  24405278.1144   -2748281.00047  -2137724.90246  24405277.4194   24405281.1954 
 08 12 16 09 54 37.0000000  0  1G03                                 
  24404681.9254   -2751415.14647  -2140167.09146  24404681.7434   24404684.9214 
 08 12 16 09 54 38.0000000  0  1G03                                 
  24404085.7514   -2754549.31347  -2142609.29846  24404085.3804   24404088.1764 
 08 12 16 09 54 39.0000000  0  1G03                                 
  24403489.4634   -2757683.10647  -2145051.21446  24403488.6714   24403491.1914 
 08 12 16 09 54 40.0000000  0  1G03                                 
  24402893.1374   -2760817.10847  -2147493.29246  24402892.4904   24402895.7114 
 08 12 16 09 54 41.0000000  0  1G03                                 
  24402296.6564   -2763951.25747  -2149935.48546  24402296.2754   24402299.2544 
 08 12 16 09 54 42.0000000  0  1G03                                 
  24401699.8794   -2767085.29047  -2152377.58646  24401699.3974   24401702.5654 
 08 12 16 09 54 43.0000000  0  1G03                                 
  24401103.1734   -2770219.04047  -2154819.47146  24401102.7234   24401106.5934 
 08 12 16 09 54 44.0000000  0  1G03                                 
  24400506.9554   -2773352.77547  -2157261.34246  24400506.7844   24400510.8114 
 08 12 16 09 54 45.0000000  0  1G03                                 
  24399910.7334   -2776486.63547  -2159703.31146  24399910.5844   24399915.1724 
 08 12 16 09 54 46.0000000  0  1G03                                 
  24399314.4844   -2779620.23347  -2162145.07646  24399314.9304   24399318.4954 
 08 12 16 09 54 47.0000000  0  1G03                                 
  24398718.2334   -2782753.79247  -2164586.80946  24398718.2664   24398721.9444 
 08 12 16 09 54 48.0000000  0  1G03                                 
  24398122.0054   -2785886.91047  -2167028.19846  24398122.6014   24398125.3424 
 08 12 16 09 54 49.0000000  0  1G03                                 
  24397525.8874   -2789019.84947  -2169469.44946  24397525.4914   24397529.4484 
 08 12 16 09 54 50.0000000  0  1G03                                 
  24396929.7474   -2792152.74947  -2171910.66946  24396929.4564   24396933.6294 
 08 12 16 09 54 51.0000000  0  1G03                                 
  24396333.9024   -2795285.47947  -2174351.75446  24396333.6524   24396337.2724 
 08 12 16 09 54 52.0000000  0  1G03                                 
  24395738.2314   -2798418.10047  -2176792.75446  24395737.6234   24395740.6664 
 08 12 16 09 54 53.0000000  0  1G03                                 
  24395142.6394   -2801550.56147  -2179233.63246  24395141.0914   24395144.5024 
 08 12 16 09 54 54.0000000  0  1G03                                 
  24394546.8984   -2804683.02247  -2181674.50846  24394544.9104   24394548.4144 
 08 12 16 09 54 55.0000000  0  1G03                                 
  24393951.0064   -2807815.32847  -2184115.26246  24393948.7804   24393952.0984 
 08 12 16 09 54 56.0000000  0  1G03                                 
  24393355.2254   -2810947.45847  -2186555.88246  24393353.5104   24393355.4994 
 08 12 16 09 54 57.0000000  0  1G03                                 
  24392759.6084   -2814079.54447  -2188996.46846  24392756.8174   24392759.7434 
 08 12 16 09 54 58.0000000  0  1G03                                 
  24392163.7534   -2817211.65447  -2191437.07146  24392161.1134   24392163.2194 
 08 12 16 09 54 59.0000000  0  1G03                                 
  24391567.9224   -2820343.48747  -2193877.46046  24391565.4594   24391567.4874 
 08 12 16 09 55 00.0000000  0  1G03                                 
  24390971.6674   -2823475.45147  -2196317.95246  24390968.2844   24390971.4594 
 08 12 16 09 55 01.0000000  0  1G03                                 
  24390375.3934   -2826607.23047  -2198758.29946  24390372.0154   24390375.5134 
 08 12 16 09 55 02.0000000  0  1G03                                 
  24389779.1634   -2829738.77347  -2201198.45946  24389775.5554   24389779.6484 
 08 12 16 09 55 03.0000000  0  1G03                                 
  24389183.2204   -2832870.24447  -2203638.56646  24389180.4334   24389183.7654 
 08 12 16 09 55 04.0000000  0  1G03                                 
  24388587.0934   -2836001.66447  -2206078.63346  24388585.0934   24388587.9194 
 08 12 16 09 55 05.0000000  0  1G03                                 
  24387991.2854   -2839133.08347  -2208518.70146  24387989.8894   24387992.4514 
 08 12 16 09 55 06.0000000  0  1G03                                 
  24387395.2364   -2842264.49747  -2210958.76246  24387393.5734   24387397.0224 
 08 12 16 09 55 07.0000000  0  1G03                                 
  24386799.4044   -2845395.71847  -2213398.67646  24386797.5634   24386800.9854 
 08 12 16 09 55 08.0000000  0  1G03                                 
  24386203.8764   -2848526.63547  -2215838.35146  24386202.3954   24386205.2814 
 08 12 16 09 55 09.0000000  0  1G03                                 
  24385608.5314   -2851656.95647  -2218277.56146  24385607.0214   24385609.3404 
 08 12 16 09 55 10.0000000  0  1G03                                 
  24385013.0344   -2854787.71247  -2220717.11046  24385011.4274   24385013.6594 
 08 12 16 09 55 11.0000000  0  1G03                                 
  24384417.5584   -2857918.32747  -2223156.54946  24384415.8244   24384418.0574 
 08 12 16 09 55 12.0000000  0  1G03                                 
  24383822.1964   -2861049.11747  -2225596.12646  24383820.5414   24383822.4394 
 08 12 16 09 55 13.0000000  0  1G03                                 
  24383226.7674   -2864179.54647  -2228035.42146  24383224.9834   24383226.5094 
 08 12 16 09 55 14.0000000  0  1G03                                 
  24382631.1424   -2867310.05347  -2230474.77746  24382628.9764   24382630.9934 
 08 12 16 09 55 15.0000000  0  1G03                                 
  24382035.6664   -2870440.04047  -2232913.72646  24382033.4574   24382034.9784 
 08 12 16 09 55 16.0000000  0  1G03                                 
  24381439.9614   -2873570.23647  -2235352.83946  24381436.8574   24381438.8074 
 08 12 16 09 55 17.0000000  0  1G03                                 
  24380844.3224   -2876700.48647  -2237791.99346  24380841.1074   24380843.2444 
 08 12 16 09 55 18.0000000  0  1G03                                 
  24380248.5124   -2879830.54047  -2240230.99646  24380245.9624   24380248.4594 
 08 12 16 09 55 19.0000000  0  1G03                                 
  24379652.5774   -2882960.74847  -2242670.11846  24379650.4434   24379652.3684 
 08 12 16 09 55 20.0000000  0  1G03                                 
  24379056.2764   -2886090.68847  -2245109.03046  24379054.5014   24379055.8844 
 08 12 16 09 55 21.0000000  0  1G03                                 
  24378460.5024   -2889220.58547  -2247547.91046  24378459.0744   24378460.3824 
 08 12 16 09 55 22.0000000  0  1G03                                 
  24377864.6494   -2892350.45647  -2249986.76846  24377863.5854   24377865.1804 
 08 12 16 09 55 23.0000000  0  1G03                                 
  24377269.2114   -2895480.19947  -2252425.52646  24377269.2944   24377269.6314 
 08 12 16 09 55 24.0000000  0  1G03                                 
  24376673.7784   -2898609.66647  -2254864.06846  24376672.7774   24376675.1454 
 08 12 16 09 55 25.0000000  0  1G03                                 
  24376078.0544   -2901738.78647  -2257302.34146  24376077.5294   24376079.9394 
 08 12 16 09 55 26.0000000  0  1G03                                 
  24375482.3984   -2904867.74047  -2259740.48446  24375481.6714   24375484.5014 
 08 12 16 09 55 27.0000000  0  1G03                                 
  24374886.9204   -2907996.59547  -2262178.55046  24374885.9144   24374889.1244 
 08 12 16 09 55 28.0000000  0  1G03                                 
  24374291.5004   -2911125.11447  -2264616.35546  24374290.2744   24374293.7994 
 08 12 16 09 55 29.0000000  0  1G03                                 
  24373696.0664   -2914253.72647  -2267054.23546  24373695.0414   24373698.4214 
 08 12 16 09 55 30.0000000  0  1G03                                 
  24373100.8744   -2917382.61547  -2269492.33046  24373100.1044   24373103.8064 
 08 12 16 09 55 31.0000000  0  1G03                                 
  24372505.5864   -2920511.52647  -2271930.44146  24372505.1894   24372508.4204 
 08 12 16 09 55 32.0000000  0  1G03                                 
  24371910.3734   -2923640.37347  -2274368.50446  24371909.1374   24371912.7574 
 08 12 16 09 55 33.0000000  0  1G03                                 
  24371315.0384   -2926768.88047  -2276806.30246  24371313.6174   24371317.1554 
 08 12 16 09 55 34.0000000  0  1G03                                 
  24370719.8674   -2929897.23047  -2279243.97946  24370718.7404   24370721.4984 
 08 12 16 09 55 35.0000000  0  1G03                                 
  24370124.4864   -2933025.60747  -2281681.67646  24370123.2394   24370125.7804 
 08 12 16 09 55 36.0000000  0  1G03                                 
  24369529.0534   -2936154.10647  -2284119.46646  24369527.4904   24369531.0504 
 08 12 16 09 55 37.0000000  0  1G03                                 
  24368933.3714   -2939282.57747  -2286557.23446  24368931.3424   24368935.3584 
 08 12 16 09 55 38.0000000  0  1G03                                 
  24368337.7304   -2942410.63247  -2288994.68046  24368336.2834   24368340.1984 
 08 12 16 09 55 39.0000000  0  1G03                                 
  24367742.2674   -2945538.67147  -2291432.11346  24367740.7204   24367745.1334 
 08 12 16 09 55 40.0000000  0  1G03                                 
  24367146.7474   -2948666.88347  -2293869.67846  24367145.6194   24367149.7654 
 08 12 16 09 55 41.0000000  0  1G03                                 
  24366551.3094   -2951794.63847  -2296306.88746  24366550.1974   24366554.9684 
 08 12 16 09 55 42.0000000  0  1G03                                 
  24365956.3694   -2954921.87547  -2298743.69246  24365955.1424   24365960.7134 
 08 12 16 09 55 43.0000000  0  1G03                                 
  24365361.0784   -2958049.43547  -2301180.75046  24365359.5194   24365365.3454 
 08 12 16 09 55 44.0000000  0  1G03                                 
  24364766.0974   -2961176.83047  -2303617.67846  24364763.8614   24364770.5074 
 08 12 16 09 55 45.0000000  0  1G03                                 
  24364170.9624   -2964304.20747  -2306054.59246  24364169.1314   24364174.7754 
 08 12 16 09 55 46.0000000  0  1G03                                 
  24363575.9824   -2967431.40947  -2308491.36946  24363575.0014   24363579.2954 
 08 12 16 09 55 47.0000000  0  1G03                                 
  24362981.1204   -2970558.37747  -2310927.96446  24362980.2834   24362984.4994 
 08 12 16 09 55 48.0000000  0  1G03                                 
  24362386.2534   -2973685.48447  -2313364.66846  24362385.5444   24362390.0654 
 08 12 16 09 55 49.0000000  0  1G03                                 
  24361791.3624   -2976812.82047  -2315801.55046  24361789.8614   24361794.5034 
 08 12 16 09 55 50.0000000  0  1G03                                 
  24361196.4224   -2979939.84747  -2318238.19246  24361194.4454   24361199.6474 
 08 12 16 09 55 51.0000000  0  1G03                                 
  24360601.3834   -2983066.59347  -2320674.61446  24360598.5014   24360604.4624 
 08 12 16 09 55 52.0000000  0  1G03                                 
  24360006.3294   -2986193.32647  -2323111.02746  24360004.4284   24360009.6624 
 08 12 16 09 55 53.0000000  0  1G03                                 
  24359411.4164   -2989319.97547  -2325547.37446  24359409.7114   24359414.4274 
 08 12 16 09 55 54.0000000  0  1G03                                 
  24358816.3304   -2992446.67347  -2327983.76046  24358814.7004   24358819.3184 
 08 12 16 09 55 55.0000000  0  1G03                                 
  24358220.9124   -2995573.16747  -2330419.98846  24358219.3914   24358223.8194 
 08 12 16 09 55 56.0000000  0  1G03                                 
  24357625.5054   -2998699.48447  -2332856.07646  24357624.3694   24357629.0144 
 08 12 16 09 55 57.0000000  0  1G03                                 
  24357030.4544   -3001825.74947  -2335292.12446  24357029.6904   24357034.2164 
 08 12 16 09 55 58.0000000  0  1G03                                 
  24356435.3064   -3004952.04547  -2337728.19846  24356435.1954   24356439.2234 
 08 12 16 09 55 59.0000000  0  1G03                                 
  24355840.2354   -3008078.10147  -2340164.08446  24355840.1914   24355844.9934 
 08 12 16 09 56 00.0000000  0  1G03                                 
  24355244.9694   -3011204.11047  -2342599.93446  24355244.6904   24355250.4854 
 08 12 16 09 56 01.0000000  0  1G03                                 
  24354650.2274   -3014328.63947  -2345034.63346  24354649.1314   24354655.4954 
 08 12 16 09 56 02.0000000  0  1G03                                 
  24354055.0224   -3017454.76147  -2347470.57146  24354054.7444   24354060.2704 
 08 12 16 09 56 03.0000000  0  1G03                                 
  24353460.1284   -3020580.74247  -2349906.40146  24353460.2514   24353465.5704 
 08 12 16 09 56 04.0000000  0  1G03                                 
  24352865.3094   -3023706.17447  -2352341.80246  24352865.8554   24352871.0594 
 08 12 16 09 56 05.0000000  0  1G03                                 
  24352270.5774   -3026831.83447  -2354777.38246  24352271.5434   24352276.5884 
 08 12 16 09 56 06.0000000  0  1G03                                 
  24351676.0694   -3029957.37747  -2357212.87146  24351676.8184   24351681.6274 
 08 12 16 09 56 07.0000000  0  1G03                                 
  24351081.6344   -3033082.77147  -2359648.24146  24351082.3834   24351087.4154 
 08 12 16 09 56 08.0000000  0  1G03                                 
  24350487.0504   -3036208.21747  -2362083.65446  24350487.7294   24350492.9394 
 08 12 16 09 56 09.0000000  0  1G03                                 
  24349893.0044   -3039333.37647  -2364518.84046  24349893.8154   24349898.5604 
 08 12 16 09 56 10.0000000  0  1G03                                 
  24349298.5794   -3042460.58047  -2366955.62246  24349298.4964   24349303.5924 
 08 12 16 09 56 11.0000000  0  1G03                                 
  24348703.6004   -3045588.82447  -2369393.21346  24348702.9324   24348707.6894 
 08 12 16 09 56 12.0000000  0  1G03                                 
  24348109.0014   -3048716.11647  -2371830.06346  24348107.7894   24348112.2884 
 08 12 16 09 56 13.0000000  0  1G03                                 
  24347514.1544   -3051842.95847  -2374266.56446  24347511.4974   24347516.6134 
 08 12 16 09 56 14.0000000  0  1G03                                 
  24346919.2084   -3054969.03647  -2376702.46946  24346916.5234   24346920.9724 
 08 12 16 09 56 15.0000000  0  1G03                                 
  24346324.2314   -3058094.42447  -2379137.83646  24346321.5194   24346325.6084 
 08 12 16 09 56 16.0000000  0  1G03                                 
  24345729.3914   -3061219.55847  -2381573.00546  24345726.4394   24345730.8134 
 08 12 16 09 56 17.0000000  0  1G03                                 
  24345134.7214   -3064343.85947  -2384007.52346  24345131.3274   24345136.5044 
 08 12 16 09 56 18.0000000  0  1G03                                 
  24344540.2384   -3067468.19847  -2386442.07646  24344536.7344   24344542.6284 
 08 12 16 09 56 19.0000000  0  1G03                                 
  24343945.6694   -3070592.16347  -2388876.33546  24343942.7554   24343948.1234 
 08 12 16 09 56 20.0000000  0  1G03                                 
  24343350.9814   -3073715.96047  -2391310.46246  24343348.6624   24343353.2114 
 08 12 16 09 56 21.0000000  0  1G03                                 
  24342756.4374   -3076839.32447  -2393744.25246  24342754.9014   24342759.0264 
 08 12 16 09 56 22.0000000  0  1G03                                 
  24342161.9884   -3079962.44647  -2396177.85346  24342160.5274   24342165.1594 
 08 12 16 09 56 23.0000000  0  1G03                                 
  24341567.5904   -3083085.58947  -2398611.47146  24341566.6194   24341570.2804 
 08 12 16 09 56 24.0000000  0  1G03                                 
  24340973.3744   -3086208.63747  -2401045.01346  24340972.0134   24340976.5084 
 08 12 16 09 56 25.0000000  0  1G03                                 
  24340379.0164   -3089331.75147  -2403478.60846  24340378.1344   24340381.6164 
 08 12 16 09 56 26.0000000  0  1G03                                 
  24339784.5704   -3092454.77747  -2405912.13446  24339784.2764   24339787.9244 
 08 12 16 09 56 27.0000000  0  1G03                                 
  24339190.4734   -3095577.88347  -2408345.72246  24339189.9324   24339194.0864 
 08 12 16 09 56 28.0000000  0  1G03                                 
  24338596.2614   -3098700.63747  -2410779.03546  24338595.8454   24338600.2774 
 08 12 16 09 56 29.0000000  0  1G03                                 
  24338002.2154   -3101823.13247  -2413212.14646  24338001.2294   24338005.5244 
 08 12 16 09 56 30.0000000  0  1G03                                 
  24337408.3454   -3104945.75447  -2415645.35846  24337407.1304   24337411.4074 
 08 12 16 09 56 31.0000000  0  1G03                                 
  24336814.3564   -3108068.37547  -2418078.57046  24336813.0364   24336816.2824 
 08 12 16 09 56 32.0000000  0  1G03                                 
  24336220.2304   -3111191.10847  -2420511.86846  24336219.1684   24336222.1524 
 08 12 16 09 56 33.0000000  0  1G03                                 
  24335626.3654   -3114313.55947  -2422944.94546  24335625.0164   24335628.0444 
 08 12 16 09 56 34.0000000  0  1G03                                 
  24335032.1994   -3117436.03647  -2425378.04446  24335029.9014   24335033.7334 
 08 12 16 09 56 35.0000000  0  1G03                                 
  24334437.9664   -3120558.32347  -2427810.99346  24334435.8104   24334438.7494 
 08 12 16 09 56 36.0000000  0  1G03                                 
  24333843.9024   -3123680.82447  -2430244.11346  24333841.7834   24333844.3064 
 08 12 16 09 56 37.0000000  0  1G03                                 
  24333249.6424   -3126803.29547  -2432677.20646  24333247.3774   24333250.0514 
 08 12 16 09 56 38.0000000  0  1G03                                 
  24332655.6184   -3129925.60747  -2435110.17546  24332653.1164   24332656.0304 
 08 12 16 09 56 39.0000000  0  1G03                                 
  24332061.8044   -3133047.62247  -2437542.91546  24332059.6064   24332063.3344 
 08 12 16 09 56 40.0000000  0  1G03                                 
  24331468.0074   -3136169.25247  -2439975.35346  24331465.9524   24331469.5224 
 08 12 16 09 56 41.0000000  0  1G03                                 
  24330874.0294   -3139291.04747  -2442407.92146  24330871.5684   24330875.0604 
 08 12 16 09 56 42.0000000  0  1G03                                 
  24330280.0064   -3142412.74047  -2444840.41346  24330277.3324   24330281.3964 
 08 12 16 09 56 43.0000000  0  1G03                                 
  24329685.8284   -3145534.07747  -2447272.62246  24329683.1774   24329687.5904 
 08 12 16 09 56 44.0000000  0  1G03                                 
  24329091.6554   -3148655.16747  -2449704.63846  24329089.5984   24329093.2504 
 08 12 16 09 56 45.0000000  0  1G03                                 
  24328497.2454   -3151776.58447  -2452136.91246  24328494.7254   24328498.9264 
 08 12 16 09 56 46.0000000  0  1G03                                 
  24327903.0634   -3154897.81147  -2454569.03446  24327900.8934   24327905.1814 
 08 12 16 09 56 47.0000000  0  1G03                                 
  24327308.9914   -3158019.09647  -2457001.20546  24327307.3104   24327310.7644 
 08 12 16 09 56 48.0000000  0  1G03                                 
  24326715.1044   -3161140.09347  -2459433.14846  24326713.7814   24326717.3014 
 08 12 16 09 56 49.0000000  0  1G03                                 
  24326121.4954   -3164261.06347  -2461865.07446  24326120.4484   24326124.1054 
 08 12 16 09 56 50.0000000  0  1G03                                 
  24325527.6994   -3167382.07947  -2464297.03446  24325526.6574   24325529.5184 
 08 12 16 09 56 51.0000000  0  1G03                                 
  24324933.9084   -3170502.94747  -2466728.88046  24324932.8894   24324935.2604 
 08 12 16 09 56 52.0000000  0  1G03                                 
  24324340.2824   -3173623.58847  -2469160.54746  24324338.9964   24324341.5134 
 08 12 16 09 56 53.0000000  0  1G03                                 
  24323746.6124   -3176743.87747  -2471591.94046  24323745.1224   24323747.3294 
 08 12 16 09 56 54.0000000  0  1G03                                 
  24323152.8144   -3179864.30947  -2474023.44546  24323150.9314   24323153.5914 
 08 12 16 09 56 55.0000000  0  1G03                                 
  24322558.7924   -3182984.70047  -2476454.91946  24322557.4424   24322559.9854 
 08 12 16 09 56 56.0000000  0  1G03                                 
  24321965.0324   -3186104.84847  -2478886.20446  24321964.0254   24321966.6124 
 08 12 16 09 56 57.0000000  0  1G03                                 
  24321371.4174   -3189224.75847  -2481317.30346  24321369.4894   24321373.2894 
 08 12 16 09 56 58.0000000  0  1G03                                 
  24320777.7374   -3192344.63947  -2483748.37946  24320776.4124   24320779.0444 
 08 12 16 09 56 59.0000000  0  1G03                                 
  24320183.8784   -3195464.71347  -2486179.60746  24320182.4384   24320185.1504 
 08 12 16 09 57 00.0000000  0  1G03                                 
  24319590.4154   -3198584.25247  -2488610.41746  24319588.0614   24319591.0854 
 08 12 16 09 57 01.0000000  0  1G03                                 
  24318996.8414   -3201703.97547  -2491041.37046  24318994.2254   24318997.8304 
 08 12 16 09 57 02.0000000  0  1G03                                 
  24318403.5704   -3204823.57547  -2493472.22846  24318400.7564   24318404.9094 
 08 12 16 09 57 03.0000000  0  1G03                                 
  24317809.9744   -3207943.10747  -2495903.03246  24317806.7674   24317810.9114 
 08 12 16 09 57 04.0000000  0  1G03                                 
  24317215.9284   -3211062.29047  -2498333.56346  24317213.3814   24317217.0714 
 08 12 16 09 57 05.0000000  0  1G03                                 
  24316621.9374   -3214181.56047  -2500764.16246  24316619.2464   24316623.1804 
 08 12 16 09 57 06.0000000  0  1G03                                 
  24316028.0144   -3217300.77847  -2503194.72146  24316024.6564   24316030.0544 
 08 12 16 09 57 07.0000000  0  1G03                                 
  24315434.2764   -3220419.68347  -2505625.03546  24315430.6694   24315436.5124 
 08 12 16 09 57 08.0000000  0  1G03                                 
  24314840.7914   -3223538.63147  -2508055.38346  24314838.1504   24314843.3034 
 08 12 16 09 57 09.0000000  0  1G03                                 
  24314247.6044   -3226657.47947  -2510485.65246  24314245.5974   24314250.0084 
 08 12 16 09 57 10.0000000  0  1G03                                 
  24313654.4154   -3229776.09847  -2512915.74246  24313653.0724   24313656.7294 
 08 12 16 09 57 11.0000000  0  1G03                                 
  24313061.1674   -3232894.32147  -2515345.52446  24313059.9914   24313063.2974 
 08 12 16 09 57 12.0000000  0  1G03                                 
  24312467.4194   -3236012.73647  -2517775.45646  24312466.5344   24312469.8764 
 08 12 16 09 57 13.0000000  0  1G03                                 
  24311874.0184   -3239131.16747  -2520205.40146  24311873.2624   24311876.1354 
 08 12 16 09 57 14.0000000  0  1G03                                 
  24311281.0474   -3242249.50247  -2522635.27046  24311280.2214   24311283.3474 
 08 12 16 09 57 15.0000000  0  1G03                                 
  24310687.7964   -3245367.48947  -2525064.86846  24310686.5174   24310690.3404 
 08 12 16 09 57 16.0000000  0  1G03                                 
  24310094.4474   -3248485.59347  -2527494.55846  24310092.8164   24310095.9614 
 08 12 16 09 57 17.0000000  0  1G03                                 
  24309501.3444   -3251603.47247  -2529924.07346  24309499.1574   24309502.6414 
 08 12 16 09 57 18.0000000  0  1G03                                 
  24308908.0974   -3254720.95647  -2532353.28046  24308905.2774   24308909.4564 
 08 12 16 09 57 19.0000000  0  1G03                                 
  24308314.4444   -3257838.39147  -2534782.45046  24308311.8174   24308316.0254 
 08 12 16 09 57 20.0000000  0  1G03                                 
  24307721.2714   -3260956.15047  -2537211.87046  24307718.6704   24307722.1174 
 08 12 16 09 57 21.0000000  0  1G03                                 
  24307127.9904   -3264073.93547  -2539641.31046  24307126.1064   24307129.5714 
 08 12 16 09 57 22.0000000  0  1G03                                 
  24306534.6064   -3267191.41047  -2542070.50946  24306532.5544   24306536.2454 
 08 12 16 09 57 23.0000000  0  1G03                                 
  24305941.6214   -3270308.61147  -2544499.49346  24305939.4084   24305943.0894 
 08 12 16 09 57 24.0000000  0  1G03                                 
  24305348.4224   -3273425.86047  -2546928.51746  24305346.2404   24305350.3404 
 08 12 16 09 57 25.0000000  0  1G03                                 
  24304755.1524   -3276543.00847  -2549357.46146  24304752.5114   24304757.2764 
 08 12 16 09 57 26.0000000  0  1G03                                 
  24304161.9324   -3279659.99447  -2551786.27946  24304160.1094   24304164.6044 
 08 12 16 09 57 27.0000000  0  1G03                                 
  24303568.5604   -3282777.00047  -2554215.11246  24303566.8644   24303570.2994 
 08 12 16 09 57 28.0000000  0  1G03                                 
  24302975.2864   -3285894.20247  -2556644.09846  24302974.3354   24302977.3504 
 08 12 16 09 57 29.0000000  0  1G03                                 
  24302381.7914   -3289011.22647  -2559072.94746  24302380.9434   24302384.0834 
 08 12 16 09 57 30.0000000  0  1G03                                 
  24301788.8304   -3292128.21547  -2561501.76646  24301787.9464   24301791.3634 
 08 12 16 09 57 31.0000000  0  1G03                                 
  24301195.5524   -3295245.00247  -2563930.42846  24301193.5044   24301198.1634 
 08 12 16 09 57 32.0000000  0  1G03                                 
  24300602.2754   -3298361.76947  -2566359.07446  24300600.1284   24300605.3164 
 08 12 16 09 57 33.0000000  0  1G03                                 
  24300008.9994   -3301478.81447  -2568787.93946  24300006.9674   24300012.5204 
 08 12 16 09 57 34.0000000  0  1G03                                 
  24299415.9364   -3304595.26847  -2571216.34046  24299413.8924   24299418.7434 
 08 12 16 09 57 35.0000000  0  1G03                                 
  24298823.0064   -3307711.46247  -2573644.54246  24298821.2494   24298826.0314 
 08 12 16 09 57 36.0000000  0  1G03                                 
  24298230.0874   -3310827.76847  -2576072.83146  24298228.0364   24298233.2384 
 08 12 16 09 57 37.0000000  0  1G03                                 
  24297637.4704   -3313943.96347  -2578501.03546  24297636.0264   24297641.2914 
 08 12 16 09 57 38.0000000  0  1G03                                 
  24297045.2334   -3317059.69347  -2580928.87346  24297043.2844   24297049.3314 
 08 12 16 09 57 39.0000000  0  1G03                                 
  24296452.5244   -3320175.69647  -2583356.92846  24296450.7904   24296455.5174 
 08 12 16 09 57 40.0000000  0  1G03                                 
  24295859.9254   -3323291.19447  -2585784.58546  24295858.3444   24295862.3564 
 08 12 16 09 57 41.0000000  0  1G03                                 
  24295266.9364   -3326406.16047  -2588211.82846  24295264.8044   24295269.3494 
 08 12 16 09 57 42.0000000  0  1G03                                 
  24294673.9474   -3329520.78147  -2590638.80346  24294670.8774   24294676.7454 
 08 12 16 09 57 43.0000000  0  1G03                                 
  24294080.5544   -3332635.74447  -2593066.04446  24294077.6844   24294083.4534 
 08 12 16 09 57 44.0000000  0  1G03                                 
  24293487.0994   -3335750.66047  -2595493.24946  24293484.6954   24293490.5154 
 08 12 16 09 57 45.0000000  0  1G03                                 
  24292893.6884   -3338864.99747  -2597920.00346  24292891.3744   24292896.7794 
 08 12 16 09 57 46.0000000  0  1G03                                 
  24292300.1064   -3341979.47947  -2600346.86946  24292298.8154   24292304.1134 
 08 12 16 09 57 47.0000000  0  1G03                                 
  24291706.8624   -3345094.22347  -2602773.94146  24291706.3334   24291711.9404 
 08 12 16 09 57 48.0000000  0  1G03                                 
  24291113.9374   -3348209.16847  -2605201.16946  24291114.5064   24291119.6174 
 08 12 16 09 57 49.0000000  0  1G03                                 
  24290521.4714   -3351324.37447  -2607628.60046  24290522.1494   24290527.5834 
 08 12 16 09 57 50.0000000  0  1G03                                 
  24289928.7954   -3354439.50447  -2610055.97246  24289929.4874   24289934.6454 
 08 12 16 09 57 51.0000000  0  1G03                                 
  24289336.5504   -3357554.13347  -2612482.95246  24289337.6364   24289342.8864 
 08 12 16 09 57 52.0000000  0  1G03                                 
  24288744.4224   -3360668.46547  -2614909.70146  24288745.5134   24288749.8874 
 08 12 16 09 57 53.0000000  0  1G03                                 
  24288152.2334   -3363782.94547  -2617336.56546  24288153.4884   24288156.9964 
 08 12 16 09 57 54.0000000  0  1G03                                 
  24287559.8934   -3366897.37747  -2619763.39546  24287559.7054   24287564.1864 
 08 12 16 09 57 55.0000000  0  1G03                                 
  24286967.5504   -3370011.55047  -2622190.02146  24286967.1124   24286971.1094 
 08 12 16 09 57 56.0000000  0  1G03                                 
  24286375.1254   -3373125.77447  -2624616.68946  24286374.4704   24286378.9224 
 08 12 16 09 57 57.0000000  0  1G03                                 
  24285783.0624   -3376239.66847  -2627043.10046  24285781.7014   24285785.7804 
 08 12 16 09 57 58.0000000  0  1G03                                 
  24285190.9094   -3379353.44447  -2629469.42046  24285189.1034   24285193.5814 
 08 12 16 09 57 59.0000000  0  1G03                                 
  24284598.5694   -3382467.07547  -2631895.62546  24284596.7294   24284600.5774 
 08 12 16 09 58 00.0000000  0  1G03                                 
  24284006.1744   -3385580.71547  -2634321.83946  24284003.6664   24284007.1744 
 08 12 16 09 58 01.0000000  0  1G03                                 
  24283413.7594   -3388694.00247  -2636747.77746  24283411.1754   24283414.5654 
 08 12 16 09 58 02.0000000  0  1G03                                 
  24282821.3874   -3391807.00047  -2639173.48946  24282818.8054   24282822.2894 
 08 12 16 09 58 03.0000000  0  1G03                                 
  24282229.0524   -3394920.16847  -2641599.33646  24282225.5224   24282230.0434 
 08 12 16 09 58 04.0000000  0  1G03                                 
  24281637.0074   -3398033.12347  -2644025.01546  24281633.3034   24281638.4904 
 08 12 16 09 58 05.0000000  0  1G03                                 
  24281044.7824   -3401146.12047  -2646450.72846  24281041.7504   24281045.5354 
 08 12 16 09 58 06.0000000  0  1G03                                 
  24280452.5814   -3404259.23347  -2648876.53346  24280449.9074   24280453.5754 
 08 12 16 09 58 07.0000000  0  1G03                                 
  24279859.8104   -3407372.21247  -2651302.23446  24279856.3824   24279860.6624 
 08 12 16 09 58 08.0000000  0  1G03                                 
  24279266.9034   -3410485.34647  -2653728.05346  24279263.3114   24279268.3574 
 08 12 16 09 58 09.0000000  0  1G03                                 
  24278673.9814   -3413597.63347  -2656153.21146  24278670.4464   24278675.5744 
 08 12 16 09 58 10.0000000  0  1G03                                 
  24278081.4904   -3416709.82947  -2658578.29946  24278078.1174   24278083.5384 
 08 12 16 09 58 11.0000000  0  1G03                                 
  24277489.0214   -3419822.24247  -2661003.55746  24277486.1214   24277491.0914 
 08 12 16 09 58 12.0000000  0  1G03                                 
  24276896.2334   -3422934.36647  -2663428.58946  24276894.5444   24276899.3284 
 08 12 16 09 58 13.0000000  0  1G03                                 
  24276303.8844   -3426046.41147  -2665853.55746  24276302.1114   24276307.2324 
 08 12 16 09 58 14.0000000  0  1G03                                 
  24275711.7554   -3429158.21347  -2668278.33746  24275710.8984   24275715.4614 
 08 12 16 09 58 15.0000000  0  1G03                                 
  24275119.5664   -3432269.89547  -2670703.02046  24275119.9564   24275123.4184 
 08 12 16 09 58 16.0000000  0  1G03                                 
  24274527.5464   -3435381.87547  -2673127.94046  24274527.8884   24274531.4814 
 08 12 16 09 58 17.0000000  0  1G03                                 
  24273935.9164   -3438493.34947  -2675552.46146  24273936.5064   24273939.7074 
 08 12 16 09 58 18.0000000  0  1G03                                 
  24273344.2814   -3441604.42547  -2677976.67346  24273344.0664   24273348.0334 
 08 12 16 09 58 19.0000000  0  1G03                                 
  24272752.3574   -3444715.87947  -2680401.18446  24272751.1524   24272756.0234 
 08 12 16 09 58 20.0000000  0  1G03                                 
  24272160.6334   -3447827.16247  -2682825.55646  24272159.3094   24272163.0084 
 08 12 16 09 58 21.0000000  0  1G03                                 
  24271568.7974   -3450938.54947  -2685250.01346  24271567.1754   24271571.2434 
 08 12 16 09 58 22.0000000  0  1G03                                 
  24270976.8724   -3454049.88547  -2687674.43046  24270974.5194   24270978.7584 
 08 12 16 09 58 23.0000000  0  1G03                                 
  24270384.6564   -3457161.02247  -2690098.69346  24270382.8164   24270386.3474 
 08 12 16 09 58 24.0000000  0  1G03                                 
  24269792.2364   -3460271.91747  -2692522.76446  24269790.2284   24269794.3604 
 08 12 16 09 58 25.0000000  0  1G03                                 
  24269200.2484   -3463382.72847  -2694946.76946  24269198.8644   24269202.4744 
 08 12 16 09 58 26.0000000  0  1G03                                 
  24268608.5334   -3466493.42847  -2697370.69146  24268607.2094   24268611.1124 
 08 12 16 09 58 27.0000000  0  1G03                                 
  24268016.8684   -3469603.85347  -2699794.39646  24268015.1124   24268019.3714 
 08 12 16 09 58 28.0000000  0  1G03                                 
  24267425.0924   -3472714.39847  -2702218.19646  24267423.4584   24267427.9484 
 08 12 16 09 58 29.0000000  0  1G03                                 
  24266832.9954   -3475825.03947  -2704642.07246  24266831.1734   24266835.1444 
 08 12 16 09 58 30.0000000  0  1G03                                 
  24266241.3544   -3478935.84347  -2707066.07346  24266239.1414   24266243.1784 
 08 12 16 09 58 31.0000000  0  1G03                                 
  24265649.7624   -3482046.38547  -2709489.87046  24265646.8184   24265651.2474 
 08 12 16 09 58 32.0000000  0  1G03                                 
  24265057.9544   -3485156.75747  -2711913.53746  24265055.0824   24265059.1524 
 08 12 16 09 58 33.0000000  0  1G03                                 
  24264465.7914   -3488266.99147  -2714337.09746  24264462.4334   24264467.0434 
 08 12 16 09 58 34.0000000  0  1G03                                 
  24263873.6674   -3491377.13347  -2716760.58346  24263870.0234   24263874.3994 
 08 12 16 09 58 35.0000000  0  1G03                                 
  24263281.5834   -3494487.21247  -2719184.02146  24263278.8794   24263282.5184 
 08 12 16 09 58 36.0000000  0  1G03                                 
  24262689.3994   -3497597.39447  -2721607.53946  24262686.7374   24262690.7514 
 08 12 16 09 58 37.0000000  0  1G03                                 
  24262097.3344   -3500707.35147  -2724030.88146  24262095.1134   24262099.6164 
 08 12 16 09 58 38.0000000  0  1G03                                 
  24261505.2794   -3503817.10047  -2726454.06046  24261504.0354   24261507.8554 
 08 12 16 09 58 39.0000000  0  1G03                                 
  24260913.3574   -3506926.68647  -2728877.11446  24260912.0424   24260916.8964 
 08 12 16 09 58 40.0000000  0  1G03                                 
  24260321.5824   -3510036.39047  -2731300.25946  24260320.4434   24260324.9704 
 08 12 16 09 58 41.0000000  0  1G03                                 
  24259729.8324   -3513145.78447  -2733723.16346  24259728.4624   24259734.0304 
 08 12 16 09 58 42.0000000  0  1G03                                 
  24259138.3574   -3516254.83447  -2736145.79946  24259137.5434   24259142.6494 
 08 12 16 09 58 43.0000000  0  1G03                                 
  24258546.8854   -3519363.70047  -2738568.29246  24258545.7094   24258550.7344 
 08 12 16 09 58 44.0000000  0  1G03                                 
  24257955.4434   -3522472.50247  -2740990.73346  24257955.1274   24257958.9204 
 08 12 16 09 58 45.0000000  0  1G03                                 
  24257363.9224   -3525581.28647  -2743413.15946  24257363.4874   24257366.1284 
 08 12 16 09 58 46.0000000  0  1G03                                 
  24256772.1994   -3528689.70647  -2745835.30446  24256771.6074   24256773.9704 
 08 12 16 09 58 47.0000000  0  1G03                                 
  24256180.6724   -3531797.96947  -2748257.32446  24256179.8494   24256182.4204 
 08 12 16 09 58 48.0000000  0  1G03                                 
  24255589.1184   -3534906.23447  -2750679.35046  24255587.9214   24255591.5884 
 08 12 16 09 58 49.0000000  0  1G03                                 
  24254997.9474   -3538014.72447  -2753101.55046  24254997.1014   24255000.4874 
 08 12 16 09 58 50.0000000  0  1G03                                 
  24254406.9354   -3541122.83947  -2755523.45446  24254405.5204   24254408.5334 
 08 12 16 09 58 51.0000000  0  1G03                                 
  24253815.9544   -3544230.93847  -2757945.35246  24253815.0034   24253817.7174 
 08 12 16 09 58 52.0000000  0  1G03                                 
  24253224.6954   -3547339.21947  -2760367.38646  24253223.1384   24253225.5714 
 08 12 16 09 58 53.0000000  0  1G03                                 
  24252633.3254   -3550447.20947  -2762789.19746  24252631.3674   24252634.2784 
 08 12 16 09 58 54.0000000  0  1G03                                 
  24252041.8324   -3553555.13247  -2765210.95446  24252040.3344   24252042.4354 
 08 12 16 09 58 55.0000000  0  1G03                                 
  24251450.5384   -3556662.65947  -2767632.40146  24251449.1944   24251451.0714 
 08 12 16 09 58 56.0000000  0  1G03                                 
  24250859.1714   -3559770.10547  -2770053.78746  24250857.5114   24250859.7884 
 08 12 16 09 58 57.0000000  0  1G03                                 
  24250267.8354   -3562877.31747  -2772474.98946  24250265.2024   24250268.4364 
 08 12 16 09 58 58.0000000  0  1G03                                 
  24249676.2084   -3565984.50347  -2774896.17246  24249673.8184   24249676.8394 
 08 12 16 09 58 59.0000000  0  1G03                                 
  24249084.6664   -3569091.68947  -2777317.35446  24249082.1644   24249085.3114 
 08 12 16 09 59 00.0000000  0  1G03                                 
  24248493.1924   -3572199.55247  -2779739.06746  24248490.4894   24248493.9714 
 08 12 16 09 59 01.0000000  0  1G03                                 
  24247901.4704   -3575307.12747  -2782160.55446  24247899.1604   24247902.5634 
 08 12 16 09 59 02.0000000  0  1G03                                 
  24247310.2294   -3578414.53847  -2784581.91346  24247308.4584   24247311.4134 
 08 12 16 09 59 03.0000000  0  1G03                                 
  24246718.8484   -3581521.82347  -2787003.17346  24246717.4344   24246720.9884 
 08 12 16 09 59 04.0000000  0  1G03                                 
  24246127.8294   -3584628.85347  -2789424.23346  24246126.8934   24246129.9484 
 08 12 16 09 59 05.0000000  0  1G03                                 
  24245536.9664   -3587735.72947  -2791845.17346  24245536.7164   24245538.7884 
 08 12 16 09 59 06.0000000  0  1G03                                 
  24244945.7094   -3590842.27047  -2794265.85146  24244945.1674   24244947.0244 
 08 12 16 09 59 07.0000000  0  1G03                                 
  24244354.5874   -3593948.64447  -2796686.40346  24244353.8744   24244356.1964 
 08 12 16 09 59 08.0000000  0  1G03                                 
  24243763.7054   -3597054.87147  -2799106.83746  24243762.8854   24243765.6674 
 08 12 16 09 59 09.0000000  0  1G03                                 
  24243172.6274   -3600161.39047  -2801527.50046  24243171.8454   24243174.9734 
 08 12 16 09 59 10.0000000  0  1G03                                 
  24242581.5524   -3603268.08547  -2803948.30046  24242580.7114   24242583.2684 
 08 12 16 09 59 11.0000000  0  1G03                                 
  24241990.8034   -3606374.41347  -2806368.81246  24241989.0624   24241991.9554 
 08 12 16 09 59 12.0000000  0  1G03                                 
  24241399.7934   -3609480.34347  -2808789.01846  24241397.8764   24241400.4724 
 08 12 16 09 59 13.0000000  0  1G03                                 
  24240808.8784   -3612586.04747  -2811209.04646  24240806.9024   24240809.7974 
 08 12 16 09 59 14.0000000  0  1G03                                 
  24240217.8694   -3615691.48047  -2813628.86446  24240215.3654   24240219.0724 
 08 12 16 09 59 15.0000000  0  1G03                                 
  24239626.9464   -3618796.81447  -2816048.60346  24239625.1854   24239628.3364 
 08 12 16 09 59 16.0000000  0  1G03                                 
  24239035.8934   -3621902.44547  -2818468.57746  24239034.1724   24239037.6264 
 08 12 16 09 59 17.0000000  0  1G03                                 
  24238444.7364   -3625008.07847  -2820888.54946  24238442.4084   24238446.3684 
 08 12 16 09 59 18.0000000  0  1G03                                 
  24237853.3034   -3628113.41047  -2823308.28946  24237851.2094   24237855.2104 
 08 12 16 09 59 19.0000000  0  1G03                                 
  24237262.0144   -3631218.63947  -2825727.94846  24237260.3904   24237264.3484 
 08 12 16 09 59 20.0000000  0  1G03                                 
  24236670.5924   -3634323.81047  -2828147.56246  24236669.3164   24236672.6744 
 08 12 16 09 59 21.0000000  0  1G03                                 
  24236079.3964   -3637428.50947  -2830566.80746  24236078.1664   24236082.1814 
 08 12 16 09 59 22.0000000  0  1G03                                 
  24235488.3664   -3640533.01847  -2832985.90246  24235487.6534   24235491.5094 
 08 12 16 09 59 23.0000000  0  1G03                                 
  24234897.2284   -3643637.51547  -2835404.99146  24234896.7284   24234900.9024 
 08 12 16 09 59 24.0000000  0  1G03                                 
  24234306.2934   -3646742.26247  -2837824.27346  24234306.1594   24234310.3864 
 08 12 16 09 59 25.0000000  0  1G03                                 
  24233715.4554   -3649846.82447  -2840243.40846  24233714.7834   24233719.0444 
 08 12 16 09 59 26.0000000  0  1G03                                 
  24233124.9174   -3652951.45347  -2842662.59746  24233124.9324   24233129.3784 
 08 12 16 09 59 27.0000000  0  1G03                                 
  24232534.6064   -3656055.76447  -2845081.53746  24232534.4014   24232539.1954 
 08 12 16 09 59 28.0000000  0  1G03                                 
  24231943.8734   -3659160.01547  -2847500.43246  24231943.6904   24231947.9444 
 08 12 16 09 59 29.0000000  0  1G03                                 
  24231353.3414   -3662263.77547  -2849918.94246  24231351.5734   24231356.9264 
 08 12 16 09 59 30.0000000  0  1G03                                 
  24230762.7584   -3665367.65347  -2852337.54746  24230760.7994   24230766.7964 
 08 12 16 09 59 31.0000000  0  1G03                                 
  24230172.8014   -3668471.60647  -2854756.21146  24230170.9834   24230176.9574 
 08 12 16 09 59 32.0000000  0  1G03                                 
  24229582.3774   -3671575.58747  -2857174.89746  24229580.3224   24229586.2334 
 08 12 16 09 59 33.0000000  0  1G03                                 
  24228991.8304   -3674679.68847  -2859593.67446  24228988.8134   24228994.9274 
 08 12 16 09 59 34.0000000  0  1G03                                 
  24228401.3934   -3677783.60947  -2862012.31346  24228398.7384   24228403.4494 
 08 12 16 09 59 35.0000000  0  1G03                                 
  24227811.2204   -3680887.31147  -2864430.77946  24227809.0344   24227812.0974 
 08 12 16 09 59 36.0000000  0  1G03                                 
  24227220.8044   -3683991.25147  -2866849.43146  24227218.7224   24227221.3624 
 08 12 16 09 59 37.0000000  0  1G03                                 
  24226630.5284   -3687094.40647  -2869267.47246  24226627.9344   24226631.5254 
 08 12 16 09 59 38.0000000  0  1G03                                 
  24226039.9494   -3690197.48747  -2871685.45446  24226037.0164   24226040.9404 
 08 12 16 09 59 39.0000000  0  1G03                                 
  24225449.1404   -3693300.63747  -2874103.49246  24225445.5764   24225450.3024 
 08 12 16 09 59 40.0000000  0  1G03                                 
  24224858.2124   -3696403.82147  -2876521.55546  24224854.8614   24224860.5104 
 08 12 16 09 59 41.0000000  0  1G03                                 
  24224267.2984   -3699506.63547  -2878939.32946  24224264.4954   24224269.7234 
 08 12 16 09 59 42.0000000  0  1G03                                 
  24223676.5794   -3702609.55547  -2881357.18846  24223674.1174   24223679.8814 
 08 12 16 09 59 43.0000000  0  1G03                                 
  24223086.3454   -3705712.32347  -2883774.92846  24223083.8804   24223089.2414 
 08 12 16 09 59 44.0000000  0  1G03                                 
  24222496.1564   -3708815.03147  -2886192.62246  24222494.0264   24222498.8174 
 08 12 16 09 59 45.0000000  0  1G03                                 
  24221905.7054   -3711917.42547  -2888610.06846  24221903.9994   24221908.2784 
 08 12 16 09 59 46.0000000  0  1G03                                 
  24221315.4234   -3715019.70347  -2891027.42446  24221314.2994   24221318.1154 
 08 12 16 09 59 47.0000000  0  1G03                                 
  24220725.0804   -3718122.50647  -2893445.19546  24220724.1154   24220727.0814 
 08 12 16 09 59 48.0000000  0  1G03                                 
  24220134.6364   -3721225.22647  -2895862.89746  24220134.6194   24220136.4774 
 08 12 16 09 59 49.0000000  0  1G03                                 
  24219544.0944   -3724327.74947  -2898280.44546  24219544.1584   24219546.2434 
 08 12 16 09 59 50.0000000  0  1G03                                 
  24218953.6184   -3727430.21247  -2900697.94446  24218953.3124   24218955.8404 
 08 12 16 09 59 51.0000000  0  1G03                                 
  24218363.4254   -3730532.07347  -2903114.97646  24218362.8454   24218365.5084 
 08 12 16 09 59 52.0000000  0  1G03                                 
  24217772.9914   -3733633.99647  -2905532.05546  24217772.2484   24217775.0914 
 08 12 16 09 59 53.0000000  0  1G03                                 
  24217182.5494   -3736735.53747  -2907948.83946  24217182.0314   24217185.0114 
 08 12 16 09 59 54.0000000  0  1G03                                 
  24216592.2814   -3739836.95047  -2910365.52346  24216591.4714   24216594.1834 
 08 12 16 09 59 55.0000000  0  1G03                                 
  24216002.2474   -3742938.04447  -2912781.95546  24216001.8374   24216004.7994 
 08 12 16 09 59 56.0000000  0  1G03                                 
  24215411.9914   -3746039.36447  -2915198.56746  24215412.1414   24215414.7224 
 08 12 16 09 59 57.0000000  0  1G03                                 
  24214821.9284   -3749140.70947  -2917615.19746  24214821.7714   24214825.1074 
 08 12 16 09 59 58.0000000  0  1G03                                 
  24214231.8574   -3752242.21547  -2920031.95446  24214231.3004   24214234.7814 
 08 12 16 09 59 59.0000000  0  1G03                                 
  24213641.6694   -3755343.42647  -2922448.47746  24213641.2464   24213644.4354 
 08 12 16 10 00 00.0000000  0  1G03                                 
  24213051.6084   -3758444.33647  -2924864.76646  24213051.1464   24213054.1604 
 08 12 16 10 00 01.0000000  0  1G03                                 
  24212461.6694   -3761545.03647  -2927280.89346  24212461.5684   24212464.2044 
 08 12 16 10 00 02.0000000  0  1G03                                 
  24211871.9904   -3764645.45947  -2929696.80446  24211872.1724   24211874.0224 
 08 12 16 10 00 03.0000000  0  1G03                                 
  24211282.4174   -3767745.58147  -2932112.48446  24211283.0804   24211283.3604 
 08 12 16 10 00 04.0000000  0  1G03                                 
  24210692.4354   -3770846.04147  -2934528.42646  24210691.5824   24210693.5064 
 08 12 16 10 00 05.0000000  0  1G03                                 
  24210102.0874   -3773946.55947  -2936944.40946  24210101.8944   24210103.2604 
 08 12 16 10 00 06.0000000  0  1G03                                 
  24209511.7974   -3777046.97147  -2939360.31146  24209511.2224   24209512.9084 
 08 12 16 10 00 07.0000000  0  1G03                                 
  24208921.3894   -3780147.37247  -2941776.20746  24208921.3694   24208922.6314 
 08 12 16 10 00 08.0000000  0  1G03                                 
  24208331.4734   -3783247.55947  -2944191.93446  24208331.4504   24208333.0034 
 08 12 16 10 00 09.0000000  0  1G03                                 
  24207741.8364   -3786347.54147  -2946607.50346  24207741.6824   24207743.7764 
 08 12 16 10 00 10.0000000  0  1G03                                 
  24207151.9854   -3789447.13047  -2949022.76546  24207151.6494   24207153.6874 
 08 12 16 10 00 11.0000000  0  1G03                                 
  24206562.2144   -3792546.98647  -2951438.23446  24206560.8074   24206564.3464 
 08 12 16 10 00 12.0000000  0  1G03                                 
  24205972.6414   -3795646.44047  -2953853.39246  24205971.4044   24205974.4244 
 08 12 16 10 00 13.0000000  0  1G03                                 
  24205382.6824   -3798745.95847  -2956268.60146  24205382.1034   24205384.1924 
 08 12 16 10 00 14.0000000  0  1G03                                 
  24204792.6144   -3801845.51747  -2958683.84046  24204791.5924   24204793.4944 
 08 12 16 10 00 15.0000000  0  1G03                                 
  24204202.3374   -3804945.11947  -2961099.11946  24204201.3004   24204203.4044 
 08 12 16 10 00 16.0000000  0  1G03                                 
  24203612.2244   -3808044.66347  -2963514.34746  24203611.5504   24203613.5354 
 08 12 16 10 00 17.0000000  0  1G03                                 
  24203022.2754   -3811143.72147  -2965929.19446  24203022.4214   24203023.8694 
 08 12 16 10 00 18.0000000  0  1G03                                 
  24202432.5104   -3814242.95847  -2968344.18246  24202433.0374   24202434.5824 
 08 12 16 10 00 19.0000000  0  1G03                                 
  24201842.3884   -3817342.23947  -2970759.20446  24201843.5904   24201845.1164 
 08 12 16 10 00 20.0000000  0  1G03                                 
  24201252.8314   -3820441.12647  -2973173.91846  24201254.0094   24201256.1584 
 08 12 16 10 00 21.0000000  0  1G03                                 
  24200663.2224   -3823539.99747  -2975588.62546  24200664.2324   24200665.9284 
 08 12 16 10 00 22.0000000  0  1G03                                 
  24200074.0574   -3826638.71947  -2978003.21346  24200075.3354   24200076.8714 
 08 12 16 10 00 23.0000000  0  1G03                                 
  24199484.9284   -3829737.25947  -2980417.65846  24199485.2294   24199486.6494 
 08 12 16 10 00 24.0000000  0  1G03                                 
  24198895.8724   -3832835.38547  -2982831.78046  24198896.0374   24198897.5134 
 08 12 16 10 00 25.0000000  0  1G03                                 
  24198306.6244   -3835933.28847  -2985245.73446  24198305.9104   24198308.1514 
 08 12 16 10 00 26.0000000  0  1G03                                 
  24197717.1004   -3839031.36847  -2987659.82546  24197716.3544   24197717.7314 
 08 12 16 10 00 27.0000000  0  1G03                                 
  24197127.6834   -3842129.16047  -2990073.68946  24197126.3314   24197128.4154 
 08 12 16 10 00 28.0000000  0  1G03                                 
  24196538.1224   -3845226.78147  -2992487.42146  24196536.8374   24196538.7914 
 08 12 16 10 00 29.0000000  0  1G03                                 
  24195948.6344   -3848324.58147  -2994901.29446  24195946.6294   24195949.7764 
 08 12 16 10 00 30.0000000  0  1G03                                 
  24195359.2114   -3851422.40747  -2997315.18546  24195356.4084   24195360.4034 
 08 12 16 10 00 31.0000000  0  1G03                                 
  24194769.6054   -3854520.31447  -2999729.13646  24194767.5654   24194770.7094 
 08 12 16 10 00 32.0000000  0  1G03                                 
  24194179.9824   -3857618.17547  -3002143.05446  24194177.7234   24194181.0164 
 08 12 16 10 00 33.0000000  0  1G03                                 
  24193590.5354   -3860715.79747  -3004556.78346  24193588.5034   24193592.5824 
 08 12 16 10 00 34.0000000  0  1G03                                 
  24193000.7794   -3863813.35547  -3006970.46546  24192998.5654   24193003.3364 
 08 12 16 10 00 35.0000000  0  1G03                                 
  24192411.3474   -3866910.60847  -3009383.90846  24192409.0904   24192413.5274 
 08 12 16 10 00 36.0000000  0  1G03                                 
  24191821.8884   -3870007.80547  -3011797.30946  24191819.1234   24191824.5064 
 08 12 16 10 00 37.0000000  0  1G03                                 
  24191232.2594   -3873104.76947  -3014210.52346  24191229.7894   24191234.6594 
 08 12 16 10 00 38.0000000  0  1G03                                 
  24190642.6654   -3876201.50947  -3016623.56846  24190640.3504   24190645.2214 
 08 12 16 10 00 39.0000000  0  1G03                                 
  24190053.1384   -3879298.37947  -3019036.71246  24190052.0904   24190055.4794 
 08 12 16 10 00 40.0000000  0  1G03                                 
  24189463.5644   -3882394.75647  -3021449.47146  24189462.5424   24189466.1434 
 08 12 16 10 00 41.0000000  0  1G03                                 
  24188874.2574   -3885491.14147  -3023862.23946  24188873.6234   24188876.3244 
 08 12 16 10 00 42.0000000  0  1G03                                 
  24188284.8734   -3888587.49547  -3026274.98446  24188284.0764   24188287.5974 
 08 12 16 10 00 43.0000000  0  1G03                                 
  24187695.4664   -3891683.64147  -3028687.56346  24187694.6244   24187698.7494 
 08 12 16 10 00 44.0000000  0  1G03                                 
  24187106.0744   -3894779.66347  -3031100.04746  24187105.7484   24187109.5204 
 08 12 16 10 00 45.0000000  0  1G03                                 
  24186517.1854   -3897875.66247  -3033512.51346  24186516.6264   24186520.8914 
 08 12 16 10 00 46.0000000  0  1G03                                 
  24185928.1444   -3900971.64747  -3035924.96946  24185927.7734   24185932.3794 
 08 12 16 10 00 47.0000000  0  1G03                                 
  24185339.4194   -3904067.52347  -3038337.34246  24185338.7274   24185344.0164 
 08 12 16 10 00 48.0000000  0  1G03                                 
  24184750.3884   -3907163.45747  -3040749.75746  24184749.4224   24184755.1864 
 08 12 16 10 00 49.0000000  0  1G03                                 
  24184161.2804   -3910259.32947  -3043162.12446  24184160.4604   24184165.8694 
 08 12 16 10 00 50.0000000  0  1G03                                 
  24183572.1144   -3913354.88647  -3045574.24746  24183570.4034   24183576.4554 
 08 12 16 10 00 51.0000000  0  1G03                                 
  24182983.0364   -3916450.64947  -3047986.52746  24182981.5594   24182986.9764 
 08 12 16 10 00 52.0000000  0  1G03                                 
  24182393.5954   -3919546.35847  -3050398.76846  24182391.7574   24182396.8814 
 08 12 16 10 00 53.0000000  0  1G03                                 
  24181804.1994   -3922641.76547  -3052810.77346  24181802.8404   24181808.1964 
 08 12 16 10 00 54.0000000  0  1G03                                 
  24181215.1824   -3925736.89047  -3055222.55646  24181214.2394   24181219.4994 
 08 12 16 10 00 55.0000000  0  1G03                                 
  24180626.3414   -3928832.10247  -3057634.41046  24180624.8274   24180630.9564 
 08 12 16 10 00 56.0000000  0  1G03                                 
  24180037.3454   -3931927.24247  -3060046.20646  24180036.0124   24180041.7774 
 08 12 16 10 00 57.0000000  0  1G03                                 
  24179448.9014   -3935022.43647  -3062458.04446  24179447.1874   24179453.2394 
 08 12 16 10 00 58.0000000  0  1G03                                 
  24178860.6644   -3938117.18447  -3064869.53446  24178859.6864   24178864.2994 
 08 12 16 10 00 59.0000000  0  1G03                                 
  24178272.3154   -3941211.61247  -3067280.77446  24178271.0574   24178275.6454 
 08 12 16 10 01 00.0000000  0  1G03                                 
  24177683.8424   -3944305.79947  -3069691.82746  24177682.2524   24177686.1414 
 08 12 16 10 01 01.0000000  0  1G03                                 
  24177095.3974   -3947399.77347  -3072102.71146  24177093.3424   24177097.3354 
 08 12 16 10 01 02.0000000  0  1G03                                 
  24176506.6674   -3950493.94047  -3074513.74846  24176504.0754   24176508.1144 
 08 12 16 10 01 03.0000000  0  1G03                                 
  24175917.8644   -3953587.89847  -3076924.62246  24175914.8244   24175918.6134 
 08 12 16 10 01 04.0000000  0  1G03                                 
  24175329.2394   -3956681.89247  -3079335.52646  24175326.5424   24175330.6324 
 08 12 16 10 01 05.0000000  0  1G03                                 
  24174740.6434   -3959775.81747  -3081746.37646  24174738.0064   24174741.7304 
 08 12 16 10 01 06.0000000  0  1G03                                 
  24174151.9594   -3962869.45447  -3084157.00046  24174148.8064   24174153.4534 
 08 12 16 10 01 07.0000000  0  1G03                                 
  24173562.7714   -3965963.08747  -3086567.62346  24173559.4784   24173565.2024 
 08 12 16 10 01 08.0000000  0  1G03                                 
  24172974.0454   -3969056.74847  -3088978.26846  24172970.6614   24172976.6724 
 08 12 16 10 01 09.0000000  0  1G03                                 
  24172385.0294   -3972150.47347  -3091388.96346  24172381.9634   24172387.6014 
 08 12 16 10 01 10.0000000  0  1G03                                 
  24171796.5054   -3975244.00747  -3093799.50746  24171793.7344   24171798.8064 
 08 12 16 10 01 11.0000000  0  1G03                                 
  24171208.1854   -3978337.09247  -3096209.70546  24171205.6114   24171210.1944 
 08 12 16 10 01 12.0000000  0  1G03                                 
  24170619.5724   -3981430.35847  -3098620.04546  24170616.8694   24170621.2474 
 08 12 16 10 01 13.0000000  0  1G03                                 
  24170031.0144   -3984523.80147  -3101030.52346  24170028.9754   24170032.9444 
 08 12 16 10 01 14.0000000  0  1G03                                 
  24169442.4804   -3987617.09747  -3103440.88646  24169440.1874   24169444.4944 
 08 12 16 10 01 15.0000000  0  1G03                                 
  24168854.0004   -3990710.19247  -3105851.09246  24168852.0304   24168856.0594 
 08 12 16 10 01 16.0000000  0  1G03                                 
  24168265.4164   -3993803.05047  -3108261.11546  24168263.3324   24168267.2914 
 08 12 16 10 01 17.0000000  0  1G03                                 
  24167676.8894   -3996895.64647  -3110670.93346  24167674.5704   24167678.9904 
 08 12 16 10 01 18.0000000  0  1G03                                 
  24167088.4754   -3999987.81947  -3113080.41846  24167086.5884   24167090.9904 
 08 12 16 10 01 19.0000000  0  1G03                                 
  24166499.9624   -4003079.87947  -3115489.81746  24166498.7574   24166502.4974 
 08 12 16 10 01 20.0000000  0  1G03                                 
  24165911.6634   -4006171.78647  -3117899.09746  24165911.3424   24165914.8484 
 08 12 16 10 01 21.0000000  0  1G03                                 
  24165323.2134   -4009263.78547  -3120308.44946  24165322.3294   24165325.9534 
 08 12 16 10 01 22.0000000  0  1G03                                 
  24164734.6974   -4012356.02647  -3122717.99046  24164733.4404   24164737.4284 
 08 12 16 10 01 23.0000000  0  1G03                                 
  24164145.9554   -4015448.39947  -3125127.63446  24164144.8384   24164148.1594 
 08 12 16 10 01 24.0000000  0  1G03                                 
  24163557.5154   -4018540.80647  -3127537.30146  24163556.4494   24163560.1404 
 08 12 16 10 01 25.0000000  0  1G03                                 
  24162968.8834   -4021632.99947  -3129946.80546  24162968.2654   24162971.6274 
 08 12 16 10 01 26.0000000  0  1G03                                 
  24162380.6444   -4024724.69447  -3132355.91746  24162380.2314   24162383.7544 
 08 12 16 10 01 27.0000000  0  1G03                                 
  24161792.2364   -4027816.28547  -3134764.95246  24161791.5934   24161795.3754 
 08 12 16 10 01 28.0000000  0  1G03                                 
  24161203.8354   -4030907.94047  -3137174.03446  24161203.5734   24161206.8224 
 08 12 16 10 01 29.0000000  0  1G03                                 
  24160615.1644   -4033999.42547  -3139582.98246  24160614.6854   24160618.2744 
 08 12 16 10 01 30.0000000  0  1G03                                 
  24160026.7664   -4037090.96447  -3141991.97346  24160026.2744   24160029.9664 
 08 12 16 10 01 31.0000000  0  1G03                                 
  24159438.4214   -4040182.19747  -3144400.72646  24159438.2774   24159441.2164 
 08 12 16 10 01 32.0000000  0  1G03                                 
  24158850.2684   -4043273.26347  -3146809.34846  24158850.6174   24158852.4574 
 08 12 16 10 01 33.0000000  0  1G03                                 
  24158262.2214   -4046364.30247  -3149217.95046  24158262.6024   24158265.0054 
 08 12 16 10 01 34.0000000  0  1G03                                 
  24157674.1964   -4049455.40347  -3151626.59946  24157674.8004   24157676.6374 
 08 12 16 10 01 35.0000000  0  1G03                                 
  24157086.2234   -4052546.25947  -3154035.05546  24157086.7944   24157088.4674 
 08 12 16 10 01 36.0000000  0  1G03                                 
  24156498.4814   -4055637.02347  -3156443.44246  24156498.8214   24156501.0484 
 08 12 16 10 01 37.0000000  0  1G03                                 
  24155910.5434   -4058727.56247  -3158851.65346  24155910.6584   24155912.5094 
 08 12 16 10 01 38.0000000  0  1G03                                 
  24155322.6544   -4061817.89847  -3161259.70846  24155322.3084   24155324.5044 
 08 12 16 10 01 39.0000000  0  1G03                                 
  24154734.6124   -4064908.24947  -3163667.77446  24154733.9394   24154736.7214 
 08 12 16 10 01 40.0000000  0  1G03                                 
  24154146.7914   -4067998.40847  -3166075.69146  24154145.9564   24154148.4654 
 08 12 16 10 01 41.0000000  0  1G03                                 
  24153558.8074   -4071088.87647  -3168483.85046  24153557.7294   24153560.0454 
 08 12 16 10 01 42.0000000  0  1G03                                 
  24152970.4954   -4074179.01547  -3170891.75046  24152969.3324   24152972.2904 
 08 12 16 10 01 43.0000000  0  1G03                                 
  24152382.1314   -4077268.74647  -3173299.33646  24152380.9284   24152384.0604 
 08 12 16 10 01 44.0000000  0  1G03                                 
  24151793.8144   -4080358.66847  -3175707.06946  24151792.2614   24151795.8984 
 08 12 16 10 01 45.0000000  0  1G03                                 
  24151205.6884   -4083448.25947  -3178114.54346  24151204.3914   24151208.0134 
 08 12 16 10 01 46.0000000  0  1G03                                 
  24150617.7014   -4086537.60547  -3180521.82646  24150616.3954   24150619.7824 
 08 12 16 10 01 47.0000000  0  1G03                                 
  24150029.7384   -4089627.12847  -3182929.25046  24150028.4684   24150032.1374 
 08 12 16 10 01 48.0000000  0  1G03                                 
  24149441.2904   -4092716.97747  -3185336.92546  24149440.7604   24149444.3174 
 08 12 16 10 01 49.0000000  0  1G03                                 
  24148853.4884   -4095806.43347  -3187744.29446  24148853.4494   24148857.0474 
 08 12 16 10 01 50.0000000  0  1G03                                 
  24148265.8504   -4098895.30047  -3190151.20346  24148265.4694   24148269.1914 
 08 12 16 10 01 51.0000000  0  1G03                                 
  24147677.8834   -4101984.86647  -3192558.65646  24147677.3584   24147680.7064 
 08 12 16 10 01 52.0000000  0  1G03                                 
  24147089.9654   -4105074.11447  -3194965.86146  24147089.4004   24147092.6544 
 08 12 16 10 01 53.0000000  0  1G03                                 
  24146502.2074   -4108163.00147  -3197372.78746  24146501.3344   24146504.7484 
 08 12 16 10 01 54.0000000  0  1G03                                 
  24145914.3614   -4111251.44447  -3199779.36546  24145913.0614   24145917.4294 
 08 12 16 10 01 55.0000000  0  1G03                                 
  24145326.9564   -4114339.87647  -3202185.93546  24145325.7694   24145329.8444 
 08 12 16 10 01 56.0000000  0  1G03                                 
  24144739.5354   -4117428.37047  -3204592.55146  24144738.0994   24144741.8814 
 08 12 16 10 01 57.0000000  0  1G03                                 
  24144151.7014   -4120516.87247  -3206999.17646  24144149.9004   24144154.2564 
 08 12 16 10 01 58.0000000  0  1G03                                 
  24143563.8294   -4123605.29347  -3209405.73646  24143562.8524   24143565.8624 
 08 12 16 10 01 59.0000000  0  1G03                                 
  24142976.1944   -4126693.13247  -3211811.84246  24142975.4244   24142977.5064 
 08 12 16 10 02 00.0000000  0  1G03                                 
  24142388.5794   -4129780.92247  -3214217.91146  24142387.7344   24142390.2084 
 08 12 16 10 02 01.0000000  0  1G03                                 
  24141801.0664   -4132868.51647  -3216623.82746  24141799.4404   24141803.1454 
 08 12 16 10 02 02.0000000  0  1G03                                 
  24141213.2154   -4135955.88847  -3219029.56946  24141212.2584   24141215.7914 
 08 12 16 10 02 03.0000000  0  1G03                                 
  24140625.4254   -4139043.15347  -3221435.22746  24140623.9134   24140627.9314 
 08 12 16 10 02 04.0000000  0  1G03                                 
  24140037.8804   -4142130.49547  -3223840.94746  24140036.3134   24140040.5724 
 08 12 16 10 02 05.0000000  0  1G03                                 
  24139450.3274   -4145217.92247  -3226246.73446  24139448.7984   24139453.1844 
 08 12 16 10 02 06.0000000  0  1G03                                 
  24138862.8054   -4148305.56647  -3228652.68946  24138861.8914   24138866.3084 
 08 12 16 10 02 07.0000000  0  1G03                                 
  24138275.2184   -4151393.16947  -3231058.61146  24138274.4584   24138278.2954 
 08 12 16 10 02 08.0000000  0  1G03                                 
  24137687.8444   -4154480.67447  -3233464.45846  24137686.6024   24137691.0984 
 08 12 16 10 02 09.0000000  0  1G03                                 
  24137100.3024   -4157567.79647  -3235870.00846  24137099.0954   24137103.8824 
 08 12 16 10 02 10.0000000  0  1G03                                 
  24136512.9664   -4160654.70047  -3238275.38446  24136511.8974   24136516.0104 
 08 12 16 10 02 11.0000000  0  1G03                                 
  24135925.5634   -4163741.75547  -3240680.88046  24135924.4564   24135928.6744 
 08 12 16 10 02 12.0000000  0  1G03                                 
  24135338.3064   -4166828.41747  -3243086.07046  24135336.8224   24135340.6374 
 08 12 16 10 02 13.0000000  0  1G03                                 
  24134750.8114   -4169914.78447  -3245491.03246  24134749.3314   24134753.3994 
 08 12 16 10 02 14.0000000  0  1G03                                 
  24134163.6394   -4173001.37447  -3247896.16746  24134162.3264   24134165.6344 
 08 12 16 10 02 15.0000000  0  1G03                                 
  24133576.4464   -4176087.89747  -3250301.25046  24133575.1304   24133578.6654 
 08 12 16 10 02 16.0000000  0  1G03                                 
  24132989.2244   -4179174.00547  -3252706.00846  24132987.9824   24132990.9814 
 08 12 16 10 02 17.0000000  0  1G03                                 
  24132401.7794   -4182260.18447  -3255110.82446  24132400.0574   24132403.7584 
 08 12 16 10 02 18.0000000  0  1G03                                 
  24131814.5614   -4185346.52947  -3257515.76946  24131812.8914   24131816.5544 
 08 12 16 10 02 19.0000000  0  1G03                                 
  24131227.3974   -4188432.43947  -3259920.37646  24131226.2314   24131229.1804 
 08 12 16 10 02 20.0000000  0  1G03                                 
  24130640.3634   -4191518.18747  -3262324.85546  24130639.0614   24130642.3864 
 08 12 16 10 02 21.0000000  0  1G03                                 
  24130053.3234   -4194603.91847  -3264729.32146  24130051.9174   24130055.4844 
 08 12 16 10 02 22.0000000  0  1G03                                 
  24129466.2704   -4197689.52047  -3267133.68846  24129464.8624   24129467.9344 
 08 12 16 10 02 23.0000000  0  1G03                                 
  24128878.9904   -4200775.07047  -3269538.01646  24128876.9984   24128880.8464 
 08 12 16 10 02 24.0000000  0  1G03                                 
  24128291.7834   -4203860.55047  -3271942.29046  24128290.1484   24128293.2844 
 08 12 16 10 02 25.0000000  0  1G03                                 
  24127704.6964   -4206945.86047  -3274346.42846  24127702.6724   24127706.4874 
 08 12 16 10 02 26.0000000  0  1G03                                 
  24127117.5784   -4210031.04647  -3276750.47346  24127115.8494   24127119.5454 
 08 12 16 10 02 27.0000000  0  1G03                                 
  24126530.4534   -4213116.00347  -3279154.33746  24126528.9714   24126532.4314 
 08 12 16 10 02 28.0000000  0  1G03                                 
  24125943.6154   -4216201.05847  -3281558.27746  24125942.3024   24125945.5174 
 08 12 16 10 02 29.0000000  0  1G03                                 
  24125356.6614   -4219286.09547  -3283962.20346  24125354.9894   24125358.1654 
 08 12 16 10 02 30.0000000  0  1G03                                 
  24124769.7094   -4222371.13047  -3286366.12846  24124768.2164   24124771.2964 
 08 12 16 10 02 31.0000000  0  1G03                                 
  24124182.6504   -4225456.19447  -3288770.07446  24124181.0804   24124184.3984 
 08 12 16 10 02 32.0000000  0  1G03                                 
  24123595.5514   -4228540.85947  -3291173.70946  24123593.5844   24123597.3404 
 08 12 16 10 02 33.0000000  0  1G03                                 
  24123008.8844   -4231625.05647  -3293576.97646  24123006.9054   24123010.9914 
 08 12 16 10 02 34.0000000  0  1G03                                 
  24122421.8924   -4234709.19047  -3295980.19746  24122419.6364   24122424.1314 
 08 12 16 10 02 35.0000000  0  1G03                                 
  24121835.1074   -4237793.20047  -3298383.32146  24121832.6544   24121836.7634 
 08 12 16 10 02 36.0000000  0  1G03                                 
  24121248.2404   -4240877.19347  -3300786.43446  24121245.3954   24121249.5034 
 08 12 16 10 02 37.0000000  0  1G03                                 
  24120661.2174   -4243961.51747  -3303189.80346  24120658.7574   24120662.9054 
 08 12 16 10 02 38.0000000  0  1G03                                 
  24120074.0934   -4247045.38447  -3305592.81546  24120071.6834   24120076.1654 
 08 12 16 10 02 39.0000000  0  1G03                                 
  24119487.2114   -4250129.20747  -3307995.79046  24119485.7094   24119489.3714 
 08 12 16 10 02 40.0000000  0  1G03                                 
  24118900.4144   -4253213.08147  -3310398.80646  24118899.1074   24118902.3544 
 08 12 16 10 02 41.0000000  0  1G03                                 
  24118313.7014   -4256296.68347  -3312801.60946  24118312.8154   24118315.9394 
 08 12 16 10 02 42.0000000  0  1G03                                 
  24117726.8654   -4259379.96747  -3315204.16546  24117726.2424   24117729.1074 
 08 12 16 10 02 43.0000000  0  1G03                                 
  24117140.1264   -4262462.72447  -3317606.31046  24117139.3844   24117142.7254 
 08 12 16 10 02 44.0000000  0  1G03                                 
  24116553.4164   -4265545.59847  -3320008.54946  24116552.9174   24116556.1554 
 08 12 16 10 02 45.0000000  0  1G03                                 
  24115966.6584   -4268628.38647  -3322410.71946  24115965.8474   24115969.5024 
 08 12 16 10 02 46.0000000  0  1G03                                 
  24115380.2604   -4271711.07147  -3324812.81046  24115379.5054   24115383.3954 
 08 12 16 10 02 47.0000000  0  1G03                                 
  24114793.6514   -4274793.72147  -3327214.87546  24114793.2064   24114796.6794 
 08 12 16 10 02 48.0000000  0  1G03                                 
  24114206.9044   -4277876.53047  -3329617.06346  24114206.2704   24114209.9634 
 08 12 16 10 02 49.0000000  0  1G03                                 
  24113620.3024   -4280959.34547  -3332019.25746  24113619.1174   24113623.1664 
 08 12 16 10 02 50.0000000  0  1G03                                 
  24113033.5814   -4284042.16647  -3334421.45446  24113032.2144   24113036.3144 
 08 12 16 10 02 51.0000000  0  1G03                                 
  24112446.8404   -4287124.84447  -3336823.53946  24112445.3834   24112449.9854 
 08 12 16 10 02 52.0000000  0  1G03                                 
  24111860.0584   -4290207.55347  -3339225.65046  24111859.5524   24111862.9614 
 08 12 16 10 02 53.0000000  0  1G03                                 
  24111273.6784   -4293290.00547  -3341627.55946  24111273.3864   24111276.8214 
 08 12 16 10 02 54.0000000  0  1G03                                 
  24110687.0864   -4296371.96347  -3344029.08446  24110686.7024   24110689.9804 
 08 12 16 10 02 55.0000000  0  1G03                                 
  24110100.4204   -4299453.75847  -3346430.48346  24110099.9944   24110103.7784 
 08 12 16 10 02 56.0000000  0  1G03                                 
  24109513.9784   -4302535.43747  -3348831.79046  24109513.9324   24109517.5344 
 08 12 16 10 02 57.0000000  0  1G03                                 
  24108927.6724   -4305617.06547  -3351233.05546  24108927.7654   24108931.6244 
 08 12 16 10 02 58.0000000  0  1G03                                 
  24108341.2884   -4308698.63247  -3353634.27746  24108341.0854   24108345.2714 
 08 12 16 10 02 59.0000000  0  1G03                                 
  24107755.3834   -4311780.32147  -3356035.59246  24107754.6294   24107758.6064 
 08 12 16 10 03 00.0000000  0  1G03                                 
  24107168.9944   -4314861.70747  -3358436.66946  24107167.8204   24107172.5884 
 08 12 16 10 03 01.0000000  0  1G03                                 
  24106582.8324   -4317943.22847  -3360837.85346  24106581.6814   24106585.8864 
 08 12 16 10 03 02.0000000  0  1G03                                 
  24105996.6514   -4321024.85547  -3363239.12146  24105995.4834   24105998.9254 
 08 12 16 10 03 03.0000000  0  1G03                                 
  24105410.5864   -4324105.98247  -3365639.99846  24105409.4854   24105412.6964 
 08 12 16 10 03 04.0000000  0  1G03                                 
  24104824.4044   -4327187.08447  -3368040.85646  24104823.3054   24104826.0354 
 08 12 16 10 03 05.0000000  0  1G03                                 
  24104238.3794   -4330267.99647  -3370441.56746  24104236.8884   24104239.8504 
 08 12 16 10 03 06.0000000  0  1G03                                 
  24103652.2254   -4333348.98747  -3372842.34146  24103650.1264   24103654.0964 
 08 12 16 10 03 07.0000000  0  1G03                                 
  24103065.9564   -4336429.73847  -3375242.92746  24103063.7634   24103068.1334 
 08 12 16 10 03 08.0000000  0  1G03                                 
  24102479.5974   -4339510.43647  -3377643.47346  24102477.1864   24102481.7344 
 08 12 16 10 03 09.0000000  0  1G03                                 
  24101893.1324   -4342591.28647  -3380044.13646  24101890.3614   24101894.4794 
 08 12 16 10 03 10.0000000  0  1G03                                 
  24101306.8574   -4345672.03247  -3382444.71646  24101303.9074   24101308.3694 
 08 12 16 10 03 11.0000000  0  1G03                                 
  24100720.3984   -4348752.44747  -3384845.03946  24100717.5724   24100722.0994 
 08 12 16 10 03 12.0000000  0  1G03                                 
  24100133.9684   -4351832.81547  -3387245.32846  24100131.9954   24100136.4774 
 08 12 16 10 03 13.0000000  0  1G03                                 
  24099547.3354   -4354913.40947  -3389645.79046  24099545.4204   24099549.5154 
 08 12 16 10 03 14.0000000  0  1G03                                 
  24098961.2114   -4357993.78647  -3392046.08346  24098959.9994   24098962.9194 
 08 12 16 10 03 15.0000000  0  1G03                                 
  24098375.2874   -4361073.92147  -3394446.18746  24098373.4464   24098377.2354 
 08 12 16 10 03 16.0000000  0  1G03                                 
  24097789.1684   -4364153.65547  -3396845.97646  24097787.4344   24097791.2344 
 08 12 16 10 03 17.0000000  0  1G03                                 
  24097203.2174   -4367233.22647  -3399245.64046  24097202.1424   24097205.6934 
 08 12 16 10 03 18.0000000  0  1G03                                 
  24096616.9974   -4370312.73647  -3401645.25746  24096615.5874   24096619.9244 
 08 12 16 10 03 19.0000000  0  1G03                                 
  24096030.8924   -4373392.47247  -3404045.05046  24096029.0274   24096033.7544 
 08 12 16 10 03 20.0000000  0  1G03                                 
  24095444.8884   -4376471.82747  -3406444.54446  24095443.4484   24095447.6154 
 08 12 16 10 03 21.0000000  0  1G03                                 
  24094858.9734   -4379550.77047  -3408843.71746  24094857.8274   24094861.6234 
 08 12 16 10 03 22.0000000  0  1G03                                 
  24094273.4234   -4382630.15747  -3411243.23846  24094272.2374   24094275.8814 
 08 12 16 10 03 23.0000000  0  1G03                                 
  24093687.8284   -4385709.28347  -3413642.55446  24093686.4154   24093690.2704 
 08 12 16 10 03 24.0000000  0  1G03                                 
  24093102.1074   -4388787.97447  -3416041.53146  24093100.7874   24093104.7834 
 08 12 16 10 03 25.0000000  0  1G03                                 
  24092516.2454   -4391866.70947  -3418440.54346  24092515.0794   24092518.4744 
 08 12 16 10 03 26.0000000  0  1G03                                 
  24091930.4554   -4394945.41247  -3420839.52946  24091929.0574   24091932.6724 
 08 12 16 10 03 27.0000000  0  1G03                                 
  24091344.6474   -4398023.67547  -3423238.17246  24091343.4594   24091346.3114 
 08 12 16 10 03 28.0000000  0  1G03                                 
  24090758.3514   -4401101.58847  -3425636.54346  24090757.1654   24090760.0704 
 08 12 16 10 03 29.0000000  0  1G03                                 
  24090172.1284   -4404179.68247  -3428035.05746  24090170.8774   24090173.6994 
 08 12 16 10 03 30.0000000  0  1G03                                 
  24089586.2434   -4407257.92947  -3430433.69046  24089584.9174   24089588.0554 
 08 12 16 10 03 31.0000000  0  1G03                                 
  24089000.2334   -4410335.97347  -3432832.16346  24088999.2884   24089001.8064 
 08 12 16 10 03 32.0000000  0  1G03                                 
  24088414.2814   -4413413.92547  -3435230.56546  24088413.8194   24088415.9224 
 08 12 16 10 03 33.0000000  0  1G03                                 
  24087828.4494   -4416491.94847  -3437629.02346  24087828.2584   24087830.2994 
 08 12 16 10 03 34.0000000  0  1G03                                 
  24087243.0204   -4419569.80647  -3440027.35546  24087242.5254   24087245.0174 
 08 12 16 10 03 35.0000000  0  1G03                                 
  24086657.5474   -4422647.10847  -3442425.25246  24086656.5794   24086659.5434 
 08 12 16 10 03 36.0000000  0  1G03                                 
  24086071.9544   -4425723.99747  -3444822.82646  24086070.5474   24086074.6704 
 08 12 16 10 03 37.0000000  0  1G03                                 
  24085486.1134   -4428801.13447  -3447220.59546  24085484.4174   24085489.1824 
 08 12 16 10 03 38.0000000  0  1G03                                 
  24084900.3964   -4431878.10747  -3449618.23546  24084898.8394   24084903.0864 
 08 12 16 10 03 39.0000000  0  1G03                                 
  24084314.8574   -4434954.61047  -3452015.50646  24084313.7554   24084317.7914 
 08 12 16 10 03 40.0000000  0  1G03                                 
  24083729.5534   -4438031.13147  -3454412.79346  24083728.7254   24083732.5894 
 08 12 16 10 03 41.0000000  0  1G03                                 
  24083144.1684   -4441107.86847  -3456810.24846  24083143.4464   24083147.0984 
 08 12 16 10 03 42.0000000  0  1G03                                 
  24082558.6914   -4444184.58347  -3459207.68846  24082557.7074   24082562.1234 
 08 12 16 10 03 43.0000000  0  1G03                                 
  24081973.1904   -4447261.15447  -3461605.01646  24081972.3504   24081976.5084 
 08 12 16 10 03 44.0000000  0  1G03                                 
  24081387.8214   -4450338.06047  -3464002.60546  24081386.8864   24081391.0984 
 08 12 16 10 03 45.0000000  0  1G03                                 
  24080802.2304   -4453414.33247  -3466399.69946  24080800.9004   24080805.0034 
 08 12 16 10 03 46.0000000  0  1G03                                 
  24080217.1044   -4456490.54347  -3468796.74546  24080215.4964   24080219.8634 
 08 12 16 10 03 47.0000000  0  1G03                                 
  24079632.0424   -4459566.69547  -3471193.74546  24079630.4234   24079634.6794 
 08 12 16 10 03 48.0000000  0  1G03                                 
  24079046.5434   -4462642.90847  -3473590.79146  24079044.9314   24079049.1884 
 08 12 16 10 03 49.0000000  0  1G03                                 
  24078461.2534   -4465719.21647  -3475987.91546  24078459.6684   24078463.3844 
 08 12 16 10 03 50.0000000  0  1G03                                 
  24077876.5244   -4468795.44447  -3478384.97446  24077874.5354   24077878.4504 
 08 12 16 10 03 51.0000000  0  1G03                                 
  24077291.6154   -4471871.28647  -3480781.73046  24077288.5364   24077292.8974 
 08 12 16 10 03 52.0000000  0  1G03                                 
  24076706.6144   -4474946.81347  -3483178.24446  24076704.6514   24076707.9804 
 08 12 16 10 03 53.0000000  0  1G03                                 
  24076121.6014   -4478022.48347  -3485574.86846  24076119.0124   24076121.9514 
 08 12 16 10 03 54.0000000  0  1G03                                 
  24075536.2114   -4481098.35647  -3487971.65046  24075533.0424   24075536.2234 
 08 12 16 10 03 55.0000000  0  1G03                                 
  24074950.8924   -4484173.84347  -3490368.13146  24074948.2584   24074950.7394 
 08 12 16 10 03 56.0000000  0  1G03                                 
  24074365.4834   -4487249.34847  -3492764.62846  24074362.8494   24074365.2094 
 08 12 16 10 03 57.0000000  0  1G03                                 
  24073780.0394   -4490324.87047  -3495161.13746  24073778.0094   24073779.7694 
 08 12 16 10 03 58.0000000  0  1G03                                 
  24073194.6404   -4493400.08247  -3497557.40546  24073192.8264   24073194.2394 
 08 12 16 10 03 59.0000000  0  1G03                                 
  24072609.4284   -4496475.08147  -3499953.50646  24072608.0254   24072608.8094 
 08 12 16 10 04 00.0000000  0  1G03                                 
  24072024.4974   -4499549.85547  -3502349.43246  24072023.2214   24072024.2824 
 08 12 16 10 04 01.0000000  0  1G03                                 
  24071439.8204   -4502624.60247  -3504745.33646  24071438.2604   24071439.4444 
 08 12 16 10 04 02.0000000  0  1G03                                 
  24070855.2424   -4505699.03147  -3507140.99246  24070853.2644   24070854.8554 
 08 12 16 10 04 03.0000000  0  1G03                                 
  24070270.2924   -4508773.31447  -3509536.53746  24070267.9674   24070269.9054 
 08 12 16 10 04 04.0000000  0  1G03                                 
  24069685.3384   -4511847.56647  -3511932.05846  24069682.8644   24069684.9954 
 08 12 16 10 04 05.0000000  0  1G03                                 
  24069100.0204   -4514921.68147  -3514327.47046  24069098.8224   24069100.0664 
 08 12 16 10 04 06.0000000  0  1G03                                 
  24068514.8074   -4517995.75447  -3516722.85146  24068513.1334   24068514.9704 
 08 12 16 10 04 07.0000000  0  1G03                                 
  24067929.4364   -4521069.65347  -3519118.09946  24067927.3164   24067929.8994 
 08 12 16 10 04 08.0000000  0  1G03                                 
  24067344.3564   -4524143.56347  -3521513.35446  24067342.9224   24067345.0314 
 08 12 16 10 04 09.0000000  0  1G03                                 
  24066759.1604   -4527217.46847  -3523908.60446  24066758.6074   24066760.4704 
 08 12 16 10 04 10.0000000  0  1G03                                 
  24066173.8414   -4530291.27347  -3526303.77646  24066172.5054   24066176.1724 
 08 12 16 10 04 11.0000000  0  1G03                                 
  24065588.8134   -4533364.60247  -3528698.57346  24065588.4344   24065591.7794 
 08 12 16 10 04 12.0000000  0  1G03                                 
  24065003.9754   -4536437.63247  -3531093.14146  24065004.5094   24065006.6484 
 08 12 16 10 04 13.0000000  0  1G03                                 
  24064419.1424   -4539511.03047  -3533487.99546  24064419.4744   24064421.8514 
 08 12 16 10 04 14.0000000  0  1G03                                 
  24063834.3204   -4542584.35647  -3535882.79346  24063834.6404   24063835.8334 
 08 12 16 10 04 15.0000000  0  1G03                                 
  24063249.6894   -4545657.52947  -3538277.47046  24063250.1604   24063251.8944 
 08 12 16 10 04 16.0000000  0  1G03                                 
  24062665.0114   -4548730.73047  -3540672.17346  24062664.5554   24062666.9804 
 08 12 16 10 04 17.0000000  0  1G03                                 
  24062080.2034   -4551803.76847  -3543066.74746  24062080.0464   24062082.1714 
 08 12 16 10 04 18.0000000  0  1G03                                 
  24061495.1504   -4554876.86047  -3545461.36246  24061495.8574   24061496.8684 
 08 12 16 10 04 19.0000000  0  1G03                                 
  24060910.2774   -4557949.76847  -3547855.83246  24060910.3804   24060912.3424 
 08 12 16 10 04 20.0000000  0  1G03                                 
  24060325.9644   -4561022.20147  -3550249.93446  24060324.4894   24060328.4594 
 08 12 16 10 04 21.0000000  0  1G03                                 
  24059741.5404   -4564094.31947  -3552643.79146  24059740.7514   24059743.5444 
 08 12 16 10 04 22.0000000  0  1G03                                 
  24059157.0924   -4567166.60647  -3555037.78146  24059156.6024   24059158.3744 
 08 12 16 10 04 23.0000000  0  1G03                                 
  24058572.7164   -4570238.59847  -3557431.53946  24058572.5124   24058574.5154 
 08 12 16 10 04 24.0000000  0  1G03                                 
  24057988.2344   -4573310.73447  -3559825.41246  24057987.5104   24057989.1644 
 08 12 16 10 04 25.0000000  0  1G03                                 
  24057403.6494   -4576382.77347  -3562219.20846  24057402.9034   24057404.1724 
 08 12 16 10 04 26.0000000  0  1G03                                 
  24056818.9324   -4579454.84247  -3564613.02746  24056817.2724   24056819.9194 
 08 12 16 10 04 27.0000000  0  1G03                                 
  24056234.4004   -4582526.31447  -3567006.37946  24056232.8014   24056235.8854 
 08 12 16 10 04 28.0000000  0  1G03                                 
  24055650.0644   -4585598.02147  -3569399.91446  24055648.5964   24055651.0414 
 08 12 16 10 04 29.0000000  0  1G03                                 
  24055065.6164   -4588669.71847  -3571793.44546  24055064.0964   24055066.6644 
 08 12 16 10 04 30.0000000  0  1G03                                 
  24054481.2794   -4591741.21647  -3574186.82046  24054478.8114   24054482.4644 
 08 12 16 10 04 31.0000000  0  1G03                                 
  24053896.8014   -4594812.60447  -3576580.10746  24053894.7954   24053898.3114 
 08 12 16 10 04 32.0000000  0  1G03                                 
  24053312.3024   -4597883.78647  -3578973.23546  24053310.8384   24053313.7394 
 08 12 16 10 04 33.0000000  0  1G03                                 
  24052728.0004   -4600954.95747  -3581366.35346  24052726.3994   24052729.2464 
 08 12 16 10 04 34.0000000  0  1G03                                 
  24052143.6784   -4604026.52647  -3583759.78446  24052142.0194   24052144.5874 
 08 12 16 10 04 35.0000000  0  1G03                                 
  24051559.4684   -4607097.74547  -3586152.93946  24051557.6554   24051560.5274 
 08 12 16 10 04 36.0000000  0  1G03                                 
  24050974.8584   -4610168.40447  -3588545.66046  24050972.9534   24050976.1084 
 08 12 16 10 04 37.0000000  0  1G03                                 
  24050390.4164   -4613238.83447  -3590938.20246  24050389.0224   24050391.9774 
 08 12 16 10 04 38.0000000  0  1G03                                 
  24049805.9084   -4616309.44847  -3593330.88746  24049804.3964   24049807.4254 
 08 12 16 10 04 39.0000000  0  1G03                                 
  24049221.6664   -4619379.94447  -3595723.48246  24049220.0074   24049223.6674 
 08 12 16 10 04 40.0000000  0  1G03                                 
  24048637.2794   -4622450.32947  -3598115.98946  24048635.8404   24048638.9524 
 08 12 16 10 04 41.0000000  0  1G03                                 
  24048052.7984   -4625520.45747  -3600508.29746  24048051.3794   24048055.2564 
 08 12 16 10 04 42.0000000  0  1G03                                 
  24047468.2994   -4628590.52047  -3602900.55446  24047466.9024   24047471.7104 
 08 12 16 10 04 43.0000000  0  1G03                                 
  24046883.8084   -4631660.54947  -3605292.78446  24046883.3704   24046887.5214 
 08 12 16 10 04 44.0000000  0  1G03                                 
  24046299.2554   -4634730.76547  -3607685.15946  24046298.1894   24046303.1714 
 08 12 16 10 04 45.0000000  0  1G03                                 
  24045715.2744   -4637800.73547  -3610077.34246  24045714.1544   24045719.1594 
 08 12 16 10 04 46.0000000  0  1G03                                 
  24045131.1464   -4640870.78047  -3612469.58546  24045130.2194   24045134.9444 
 08 12 16 10 04 47.0000000  0  1G03                                 
  24044546.8274   -4643940.41347  -3614861.50546  24044545.6644   24044550.8704 
 08 12 16 10 04 48.0000000  0  1G03                                 
  24043962.6534   -4647009.53047  -3617253.02246  24043961.9674   24043967.4434 
 08 12 16 10 04 49.0000000  0  1G03                                 
  24043378.6734   -4650078.75047  -3619644.62346  24043378.0244   24043383.6204 
 08 12 16 10 04 50.0000000  0  1G03                                 
  24042794.5884   -4653148.02947  -3622036.26646  24042793.5134   24042798.8984 
 08 12 16 10 04 51.0000000  0  1G03                                 
  24042210.0854   -4656217.33347  -3624427.93146  24042208.8154   24042214.4014 
 08 12 16 10 04 52.0000000  0  1G03                                 
  24041626.0524   -4659286.19147  -3626819.24946  24041624.5564   24041630.7774 
 08 12 16 10 04 53.0000000  0  1G03                                 
  24041041.9694   -4662355.08847  -3629210.59646  24041040.1364   24041046.1884 
 08 12 16 10 04 54.0000000  0  1G03                                 
  24040457.6634   -4665423.72147  -3631601.73646  24040455.9014   24040461.7254 
 08 12 16 10 04 55.0000000  0  1G03                                 
  24039873.6044   -4668492.36447  -3633992.88446  24039872.6034   24039878.1884 
 08 12 16 10 04 56.0000000  0  1G03                                 
  24039289.7654   -4671560.94447  -3636383.98446  24039288.8534   24039295.0774 
 08 12 16 10 04 57.0000000  0  1G03                                 
  24038705.9724   -4674629.34447  -3638774.94446  24038704.8274   24038712.0704 
 08 12 16 10 04 58.0000000  0  1G03                                 
  24038121.9654   -4677697.81647  -3641165.95946  24038121.2364   24038128.2734 
 08 12 16 10 04 59.0000000  0  1G03                                 
  24037538.2894   -4680765.84447  -3643556.62846  24037537.7564   24037544.4234 
 08 12 16 10 05 00.0000000  0  1G03                                 
  24036954.6184   -4683834.02347  -3645947.41546  24036954.4214   24036960.2004 
 08 12 16 10 05 01.0000000  0  1G03                                 
  24036370.9164   -4686902.15047  -3648338.16146  24036370.1034   24036376.7214 
 08 12 16 10 05 02.0000000  0  1G03                                 
  24035787.2514   -4689970.25447  -3650728.88946  24035786.5454   24035793.0574 
 08 12 16 10 05 03.0000000  0  1G03                                 
  24035203.6044   -4693038.14647  -3653119.45246  24035202.8554   24035209.1124 
 08 12 16 10 05 04.0000000  0  1G03                                 
  24034620.2014   -4696105.74047  -3655509.78546  24034619.7554   24034624.8604 
 08 12 16 10 05 05.0000000  0  1G03                                 
  24034036.2274   -4699173.30447  -3657900.09246  24034035.0084   24034040.0374 
 08 12 16 10 05 06.0000000  0  1G03                                 
  24033452.2684   -4702241.38447  -3660290.80546  24033450.8754   24033455.5034 
 08 12 16 10 05 07.0000000  0  1G03                                 
  24032868.3344   -4705309.16547  -3662681.28346  24032867.0324   24032872.3794 
 08 12 16 10 05 08.0000000  0  1G03                                 
  24032284.4474   -4708376.63747  -3665071.51846  24032283.1254   24032287.9584 
 08 12 16 10 05 09.0000000  0  1G03                                 
  24031700.7974   -4711443.87747  -3667461.57546  24031699.7384   24031704.6544 
 08 12 16 10 05 10.0000000  0  1G03                                 
  24031116.8564   -4714510.99647  -3669851.53646  24031116.1194   24031120.7534 
 08 12 16 10 05 11.0000000  0  1G03                                 
  24030533.0724   -4717578.06547  -3672241.46046  24030532.5394   24030537.2734 
 08 12 16 10 05 12.0000000  0  1G03                                 
  24029949.2034   -4720645.11247  -3674631.36746  24029948.4974   24029954.1734 
 08 12 16 10 05 13.0000000  0  1G03                                 
  24029365.6664   -4723711.66547  -3677020.88746  24029365.1664   24029370.6744 
 08 12 16 10 05 14.0000000  0  1G03                                 
  24028782.1274   -4726777.77747  -3679410.06646  24028781.3884   24028787.2094 
 08 12 16 10 05 15.0000000  0  1G03                                 
  24028198.8784   -4729843.86647  -3681799.22546  24028198.4834   24028204.1134 
 08 12 16 10 05 16.0000000  0  1G03                                 
  24027615.3824   -4732909.88547  -3684188.33146  24027615.0734   24027620.8074 
 08 12 16 10 05 17.0000000  0  1G03                                 
  24027031.8764   -4735975.82247  -3686577.37346  24027031.9664   24027036.8534 
 08 12 16 10 05 18.0000000  0  1G03                                 
  24026448.4434   -4739041.51947  -3688966.22846  24026448.8934   24026453.4094 
 08 12 16 10 05 19.0000000  0  1G03                                 
  24025865.3074   -4742107.26947  -3691355.12246  24025865.2714   24025869.6994 
 08 12 16 10 05 20.0000000  0  1G03                                 
  24025282.1864   -4745173.32447  -3693744.25846  24025281.9934   24025285.7894 
 08 12 16 10 05 21.0000000  0  1G03                                 
  24024698.8764   -4748239.37447  -3696133.38746  24024698.5454   24024702.3814 
 08 12 16 10 05 22.0000000  0  1G03                                 
  24024115.6434   -4751305.47547  -3698522.55646  24024115.1964   24024118.6364 
 08 12 16 10 05 23.0000000  0  1G03                                 
  24023532.2754   -4754371.06547  -3700911.32646  24023531.8994   24023535.0924 
 08 12 16 10 05 24.0000000  0  1G03                                 
  24022949.1824   -4757436.41047  -3703299.90646  24022948.4334   24022952.4894 
 08 12 16 10 05 25.0000000  0  1G03                                 
  24022366.2054   -4760501.71547  -3705688.45546  24022364.5484   24022368.2844 
 08 12 16 10 05 26.0000000  0  1G03                                 
  24021783.1754   -4763566.73047  -3708076.77746  24021781.0504   24021784.4724 
 08 12 16 10 05 27.0000000  0  1G03                                 
  24021200.1854   -4766631.95247  -3710465.26346  24021198.6094   24021201.2894 
 08 12 16 10 05 28.0000000  0  1G03                                 
  24020617.1274   -4769697.00747  -3712853.61946  24020615.7774   24020618.5594 
 08 12 16 10 05 29.0000000  0  1G03                                 
  24020034.0054   -4772761.58547  -3715241.60146  24020032.0404   24020034.6364 
 08 12 16 10 05 30.0000000  0  1G03                                 
  24019450.8604   -4775826.53047  -3717629.87046  24019448.5524   24019451.3244 
 08 12 16 10 05 31.0000000  0  1G03                                 
  24018867.8804   -4778891.52347  -3720018.17646  24018864.9284   24018867.9364 
 08 12 16 10 05 32.0000000  0  1G03                                 
  24018284.7854   -4781955.96247  -3722406.05146  24018282.0064   24018285.2844 
 08 12 16 10 05 33.0000000  0  1G03                                 
  24017701.3024   -4785020.48547  -3724793.99246  24017698.0594   24017702.1064 
 08 12 16 10 05 34.0000000  0  1G03                                 
  24017118.2154   -4788084.86747  -3727181.82346  24017115.6394   24017119.2454 
 08 12 16 10 05 35.0000000  0  1G03                                 
  24016534.9234   -4791149.00847  -3729569.46746  24016533.4844   24016536.4504 
 08 12 16 10 05 36.0000000  0  1G03                                 
  24015951.7724   -4794213.03347  -3731957.02046  24015950.2444   24015953.1114 
 08 12 16 10 05 37.0000000  0  1G03                                 
  24015368.8354   -4797276.77547  -3734344.35046  24015367.4244   24015369.9474 
 08 12 16 10 05 38.0000000  0  1G03                                 
  24014785.6824   -4800340.51947  -3736731.68546  24014784.3964   24014786.4684 
 08 12 16 10 05 39.0000000  0  1G03                                 
  24014202.7494   -4803404.04847  -3739118.85046  24014201.6284   24014204.0444 
 08 12 16 10 05 40.0000000  0  1G03                                 
  24013619.7114   -4806467.51847  -3741505.97046  24013618.7754   24013621.4944 
 08 12 16 10 05 41.0000000  0  1G03                                 
  24013036.7744   -4809530.87947  -3743893.00746  24013035.6974   24013038.2584 
 08 12 16 10 05 42.0000000  0  1G03                                 
  24012453.9774   -4812593.82147  -3746279.71346  24012452.0994   24012455.5414 
 08 12 16 10 05 43.0000000  0  1G03                                 
  24011871.1584   -4815656.92247  -3748666.54446  24011869.4064   24011872.6154 
 08 12 16 10 05 44.0000000  0  1G03                                 
  24011288.2454   -4818720.19647  -3751053.50946  24011286.9474   24011289.3844 
 08 12 16 10 05 45.0000000  0  1G03                                 
  24010705.4444   -4821783.37747  -3753440.40346  24010703.5224   24010706.3004 
 08 12 16 10 05 46.0000000  0  1G03                                 
  24010122.3704   -4824846.45847  -3755827.21846  24010120.6634   24010122.6184 
 08 12 16 10 05 47.0000000  0  1G03                                 
  24009539.0874   -4827909.63447  -3758214.10846  24009537.7074   24009539.0904 
 08 12 16 10 05 48.0000000  0  1G03                                 
  24008956.2204   -4830972.30847  -3760600.60946  24008955.0414   24008956.4184 
 08 12 16 10 05 49.0000000  0  1G03                                 
  24008373.1974   -4834035.28347  -3762987.34546  24008371.6324   24008373.3564 
 08 12 16 10 05 50.0000000  0  1G03                                 
  24007790.1644   -4837098.16547  -3765374.00846  24007788.9344   24007791.0014 
 08 12 16 10 05 51.0000000  0  1G03                                 
  24007207.2964   -4840160.35847  -3767760.13146  24007206.5084   24007208.6704 
 08 12 16 10 05 52.0000000  0  1G03                                 
  24006624.5544   -4843222.48847  -3770146.20746  24006623.7314   24006626.3314 
 08 12 16 10 05 53.0000000  0  1G03                                 
  24006042.0404   -4846284.42047  -3772532.12946  24006041.3794   24006044.4474 
 08 12 16 10 05 54.0000000  0  1G03                                 
  24005459.7504   -4849346.16347  -3774917.90146  24005458.5934   24005461.9734 
 08 12 16 10 05 55.0000000  0  1G03                                 
  24004877.2034   -4852407.94247  -3777303.70446  24004876.2084   24004879.1414 
 08 12 16 10 05 56.0000000  0  1G03                                 
  24004295.0294   -4855469.81347  -3779689.57746  24004293.4794   24004297.1694 
 08 12 16 10 05 57.0000000  0  1G03                                 
  24003712.5234   -4858531.30547  -3782075.15546  24003710.5424   24003714.8324 
 08 12 16 10 05 58.0000000  0  1G03                                 
  24003130.0224   -4861593.09747  -3784460.96846  24003127.8314   24003131.4534 
 08 12 16 10 05 59.0000000  0  1G03                                 
  24002547.0994   -4864654.68947  -3786846.62246  24002543.9524   24002547.7674 
 08 12 16 10 06 00.0000000  0  1G03                                 
  24001964.3454   -4867715.96647  -3789232.03246  24001961.2614   24001964.9354 
 08 12 16 10 06 01.0000000  0  1G03                                 
  24001381.5254   -4870777.13347  -3791617.35746  24001378.8574   24001381.7464 
 08 12 16 10 06 02.0000000  0  1G03                                 
  24000798.6634   -4873838.48147  -3794002.82446  24000796.5264   24000799.3454 
 08 12 16 10 06 03.0000000  0  1G03                                 
  24000215.9314   -4876899.39547  -3796387.95046  24000213.2364   24000216.7684 
 08 12 16 10 06 04.0000000  0  1G03                                 
  23999633.3834   -4879959.84247  -3798772.71246  23999631.4974   23999634.1034 
 08 12 16 10 06 05.0000000  0  1G03                                 
  23999051.0154   -4883020.15247  -3801157.36746  23999049.8594   23999053.0644 
 08 12 16 10 06 06.0000000  0  1G03                                 
  23998468.7344   -4886080.33047  -3803541.91946  23998468.4434   23998471.3294 
 08 12 16 10 06 07.0000000  0  1G03                                 
  23997886.5664   -4889140.50547  -3805926.47146  23997885.9224   23997889.3834 
 08 12 16 10 06 08.0000000  0  1G03                                 
  23997304.0894   -4892200.84647  -3808311.14946  23997302.6114   23997306.8034 
 08 12 16 10 06 09.0000000  0  1G03                                 
  23996721.8264   -4895260.97247  -3810695.66246  23996720.2634   23996725.0674 
 08 12 16 10 06 10.0000000  0  1G03                                 
  23996139.6214   -4898321.14947  -3813080.21446  23996138.1324   23996142.1754 
 08 12 16 10 06 11.0000000  0  1G03                                 
  23995557.1994   -4901381.44647  -3815464.86046  23995555.1144   23995559.5464 
 08 12 16 10 06 12.0000000  0  1G03                                 
  23994975.0784   -4904441.52247  -3817849.33146  23994973.5204   23994978.1654 
 08 12 16 10 06 13.0000000  0  1G03                                 
  23994392.9054   -4907501.40847  -3820233.65646  23994390.9824   23994395.7574 
 08 12 16 10 06 14.0000000  0  1G03                                 
  23993810.6814   -4910561.14247  -3822617.86546  23993808.5334   23993813.7524 
 08 12 16 10 06 15.0000000  0  1G03                                 
  23993228.5784   -4913620.82847  -3825002.03346  23993226.7584   23993231.9664 
 08 12 16 10 06 16.0000000  0  1G03                                 
  23992646.2704   -4916680.38047  -3827386.09646  23992644.1714   23992649.4504 
 08 12 16 10 06 17.0000000  0  1G03                                 
  23992064.0194   -4919740.00247  -3829770.21846  23992062.0254   23992066.6064 
 08 12 16 10 06 18.0000000  0  1G03                                 
  23991481.9614   -4922799.47547  -3832154.22046  23991480.7804   23991484.5144 
 08 12 16 10 06 19.0000000  0  1G03                                 
  23990899.8944   -4925858.82147  -3834538.12546  23990898.8314   23990903.4014 
 08 12 16 10 06 20.0000000  0  1G03                                 
  23990317.5154   -4928918.04047  -3836921.93046  23990316.3954   23990321.9304 
 08 12 16 10 06 21.0000000  0  1G03                                 
  23989735.1704   -4931976.96347  -3839305.50346  23989734.1464   23989739.4924 
 08 12 16 10 06 22.0000000  0  1G03                                 
  23989153.1144   -4935035.63647  -3841688.88346  23989152.1204   23989157.2514 
 08 12 16 10 06 23.0000000  0  1G03                                 
  23988571.0764   -4938094.72147  -3844072.58446  23988569.8774   23988574.9704 
 08 12 16 10 06 24.0000000  0  1G03                                 
  23987989.0894   -4941153.70147  -3846456.20446  23987987.4084   23987993.0894 
 08 12 16 10 06 25.0000000  0  1G03                                 
  23987406.5594   -4944212.47747  -3848839.66546  23987405.1574   23987410.9924 
 08 12 16 10 06 26.0000000  0  1G03                                 
  23986824.4504   -4947271.13847  -3851223.03546  23986822.2114   23986828.5694 
 08 12 16 10 06 27.0000000  0  1G03                                 
  23986242.4134   -4950329.55547  -3853606.21646  23986240.7634   23986246.1624 
 08 12 16 10 06 28.0000000  0  1G03                                 
  23985660.7424   -4953387.61947  -3855989.12146  23985658.6684   23985664.4324 
 08 12 16 10 06 29.0000000  0  1G03                                 
  23985079.1954   -4956445.28647  -3858371.71846  23985077.5214   23985082.9434 
 08 12 16 10 06 30.0000000  0  1G03                                 
  23984497.5284   -4959503.12947  -3860754.45046  23984495.8894   23984500.9334 
 08 12 16 10 06 31.0000000  0  1G03                                 
  23983915.7184   -4962560.64247  -3863136.92546  23983914.0864   23983919.0194 
 08 12 16 10 06 32.0000000  0  1G03                                 
  23983333.8024   -4965618.28147  -3865519.50146  23983331.9424   23983337.5004 
 08 12 16 10 06 33.0000000  0  1G03                                 
  23982751.8614   -4968675.98147  -3867902.12146  23982749.8604   23982755.7034 
 08 12 16 10 06 34.0000000  0  1G03                                 
  23982170.2054   -4971733.47747  -3870284.58346  23982168.1314   23982174.1624 
 08 12 16 10 06 35.0000000  0  1G03                                 
  23981588.3594   -4974790.89747  -3872666.98646  23981586.1634   23981592.0044 
 08 12 16 10 06 36.0000000  0  1G03                                 
  23981006.3814   -4977848.20547  -3875049.30246  23981004.6904   23981009.7814 
 08 12 16 10 06 37.0000000  0  1G03                                 
  23980424.5684   -4980905.54647  -3877431.64446  23980422.9584   23980428.5614 
 08 12 16 10 06 38.0000000  0  1G03                                 
  23979842.5274   -4983962.65447  -3879813.80746  23979841.4064   23979846.3494 
 08 12 16 10 06 39.0000000  0  1G03                                 
  23979261.0124   -4987019.61447  -3882195.85246  23979260.1904   23979265.2124 
 08 12 16 10 06 40.0000000  0  1G03                                 
  23978679.3764   -4990076.51447  -3884577.85146  23978678.2674   23978683.4154 
 08 12 16 10 06 41.0000000  0  1G03                                 
  23978097.8264   -4993133.40947  -3886959.84746  23978096.8604   23978102.3044 
 08 12 16 10 06 42.0000000  0  1G03                                 
  23977516.0594   -4996190.15647  -3889341.72546  23977514.9454   23977519.5974 
 08 12 16 10 06 43.0000000  0  1G03                                 
  23976934.3894   -4999246.84647  -3891723.56146  23976932.9884   23976938.3364 
 08 12 16 10 06 44.0000000  0  1G03                                 
  23976352.8324   -5002303.61547  -3894105.45846  23976351.5564   23976356.6334 
 08 12 16 10 06 45.0000000  0  1G03                                 
  23975771.1914   -5005360.00347  -3896487.06046  23975770.1194   23975775.3814 
 08 12 16 10 06 46.0000000  0  1G03                                 
  23975189.7404   -5008416.18347  -3898868.49846  23975189.1924   23975194.0414 
 08 12 16 10 06 47.0000000  0  1G03                                 
  23974608.2684   -5011472.11447  -3901249.74246  23974607.7164   23974612.5984 
 08 12 16 10 06 48.0000000  0  1G03                                 
  23974026.7174   -5014528.25047  -3903631.14746  23974026.4124   23974031.2414 
 08 12 16 10 06 49.0000000  0  1G03                                 
  23973445.3104   -5017583.98347  -3906012.23746  23973444.3474   23973449.9504 
 08 12 16 10 06 50.0000000  0  1G03                                 
  23972863.9294   -5020639.59747  -3908393.23346  23972862.7514   23972868.3194 
 08 12 16 10 06 51.0000000  0  1G03                                 
  23972282.4794   -5023695.39247  -3910774.37146  23972281.2474   23972286.8294 
 08 12 16 10 06 52.0000000  0  1G03                                 
  23971700.8824   -5026751.27447  -3913155.57746  23971699.3564   23971705.0924 
 08 12 16 10 06 53.0000000  0  1G03                                 
  23971119.3574   -5029806.81147  -3915536.51446  23971117.4484   23971122.9244 
 08 12 16 10 06 54.0000000  0  1G03                                 
  23970537.8634   -5032861.93747  -3917917.12946  23970536.2354   23970541.0814 
 08 12 16 10 06 55.0000000  0  1G03                                 
  23969956.4284   -5035917.03947  -3920297.72646  23969955.1174   23969959.8064 
 08 12 16 10 06 56.0000000  0  1G03                                 
  23969375.0004   -5038972.18147  -3922678.35546  23969373.4254   23969378.3174 
 08 12 16 10 06 57.0000000  0  1G03                                 
  23968793.7044   -5042026.97547  -3925058.71246  23968792.3134   23968796.5554 
 08 12 16 10 06 58.0000000  0  1G03                                 
  23968212.5974   -5045081.45847  -3927438.82746  23968211.2034   23968216.1814 
 08 12 16 10 06 59.0000000  0  1G03                                 
  23967631.3974   -5048135.62547  -3929818.69646  23967630.1754   23967634.9654 
 08 12 16 10 07 00.0000000  0  1G03                                 
  23967050.1974   -5051189.68247  -3932198.47746  23967048.9554   23967054.0964 
 08 12 16 10 07 01.0000000  0  1G03                                 
  23966469.2814   -5054243.93247  -3934578.41046  23966467.9104   23966473.4964 
 08 12 16 10 07 02.0000000  0  1G03                                 
  23965888.2334   -5057298.00847  -3936958.20546  23965886.3474   23965891.6144 
 08 12 16 10 07 03.0000000  0  1G03                                 
  23965306.9274   -5060352.21347  -3939338.10246  23965305.3974   23965310.2014 
 08 12 16 10 07 04.0000000  0  1G03                                 
  23964725.6164   -5063406.31947  -3941717.92146  23964724.5004   23964728.0564 
 08 12 16 10 07 05.0000000  0  1G03                                 
  23964144.5784   -5066460.31147  -3944097.65246  23964143.0804   23964146.7124 
 08 12 16 10 07 06.0000000  0  1G03                                 
  23963563.4044   -5069514.32047  -3946477.39846  23963561.6524   23963565.7194 
 08 12 16 10 07 07.0000000  0  1G03                                 
  23962982.4814   -5072568.14547  -3948856.99846  23962980.9704   23962984.7424 
 08 12 16 10 07 08.0000000  0  1G03                                 
  23962401.6344   -5075621.55847  -3951236.27946  23962400.3134   23962403.3364 
 08 12 16 10 07 09.0000000  0  1G03                                 
  23961820.6204   -5078675.01247  -3953615.59246  23961819.1834   23961822.2604 
 08 12 16 10 07 10.0000000  0  1G03                                 
  23961239.2914   -5081728.46647  -3955994.90646  23961237.2324   23961240.5974 
 08 12 16 10 07 11.0000000  0  1G03                                 
  23960658.3524   -5084781.70447  -3958374.04946  23960656.2534   23960659.2334 
 08 12 16 10 07 12.0000000  0  1G03                                 
  23960077.6574   -5087835.08047  -3960753.30346  23960075.6014   23960078.5494 
 08 12 16 10 07 13.0000000  0  1G03                                 
  23959496.6924   -5090888.35847  -3963132.47946  23959494.7794   23959497.0784 
 08 12 16 10 07 14.0000000  0  1G03                                 
  23958915.8334   -5093941.65047  -3965511.66746  23958914.3414   23958916.1494 
 08 12 16 10 07 15.0000000  0  1G03                                 
  23958334.7984   -5096994.78247  -3967890.73246  23958332.4614   23958335.3704 
 08 12 16 10 07 16.0000000  0  1G03                                 
  23957753.8294   -5100047.78147  -3970269.69246  23957751.1294   23957754.3154 
 08 12 16 10 07 17.0000000  0  1G03                                 
  23957172.8644   -5103100.47247  -3972648.40946  23957169.8534   23957173.6974 
 08 12 16 10 07 18.0000000  0  1G03                                 
  23956591.6854   -5106153.08347  -3975027.06646  23956588.4934   23956592.9034 
 08 12 16 10 07 19.0000000  0  1G03                                 
  23956010.9274   -5109205.80847  -3977405.81246  23956008.0284   23956012.0174 
 08 12 16 10 07 20.0000000  0  1G03                                 
  23955430.1144   -5112258.38447  -3979784.44246  23955427.3354   23955431.3834 
 08 12 16 10 07 21.0000000  0  1G03                                 
  23954849.2264   -5115310.42747  -3982162.65546  23954846.5314   23954850.5264 
 08 12 16 10 07 22.0000000  0  1G03                                 
  23954268.4874   -5118362.09047  -3984540.57346  23954266.5204   23954269.8364 
 08 12 16 10 07 23.0000000  0  1G03                                 
  23953687.6114   -5121413.39747  -3986918.21446  23953685.3754   23953688.9124 
 08 12 16 10 07 24.0000000  0  1G03                                 
  23953107.0024   -5124464.64047  -3989295.80446  23953104.8304   23953107.8764 
 08 12 16 10 07 25.0000000  0  1G03                                 
  23952526.2914   -5127515.78047  -3991673.31546  23952524.6754   23952527.5864 
 08 12 16 10 07 26.0000000  0  1G03                                 
  23951945.4754   -5130567.09647  -3994050.96346  23951944.0834   23951947.0434 
 08 12 16 10 07 27.0000000  0  1G03                                 
  23951364.6154   -5133618.38347  -3996428.58746  23951363.1574   23951366.0144 
 08 12 16 10 07 28.0000000  0  1G03                                 
  23950783.7974   -5136669.74247  -3998806.26846  23950782.8604   23950785.2554 
 08 12 16 10 07 29.0000000  0  1G03                                 
  23950203.0944   -5139720.90847  -4001183.80146  23950201.6474   23950204.8144 
 08 12 16 10 07 30.0000000  0  1G03                                 
  23949621.8314   -5142771.98547  -4003561.26146  23949620.6954   23949623.9704 
 08 12 16 10 07 31.0000000  0  1G03                                 
  23949040.6884   -5145822.98847  -4005938.66446  23949039.6694   23949042.9424 
 08 12 16 10 07 32.0000000  0  1G03                                 
  23948459.6644   -5148873.76347  -4008315.88946  23948459.2304   23948462.3634 
 08 12 16 10 07 33.0000000  0  1G03                                 
  23947879.0274   -5151924.45747  -4010693.05146  23947878.6204   23947882.1684 
 08 12 16 10 07 34.0000000  0  1G03                                 
  23947298.3374   -5154974.98347  -4013070.08246  23947298.0304   23947302.1404 
 08 12 16 10 07 35.0000000  0  1G03                                 
  23946717.6494   -5158025.58847  -4015447.17246  23946717.5764   23946721.7614 
 08 12 16 10 07 36.0000000  0  1G03                                 
  23946137.2904   -5161076.21547  -4017824.28046  23946138.2264   23946141.6944 
 08 12 16 10 07 37.0000000  0  1G03                                 
  23945557.1004   -5164126.72847  -4020201.29946  23945557.8514   23945560.8814 
 08 12 16 10 07 38.0000000  0  1G03                                 
  23944976.7864   -5167177.35647  -4022578.40846  23944977.1894   23944980.4344 
 08 12 16 10 07 39.0000000  0  1G03                                 
  23944396.5734   -5170227.61447  -4024955.22846  23944396.3934   23944400.4264 
 08 12 16 10 07 40.0000000  0  1G03                                 
  23943816.6124   -5173277.51647  -4027331.77246  23943816.3884   23943820.2624 
 08 12 16 10 07 41.0000000  0  1G03                                 
  23943236.6264   -5176327.17447  -4029708.12546  23943235.9724   23943239.6014 
 08 12 16 10 07 42.0000000  0  1G03                                 
  23942656.5504   -5179376.66847  -4032084.35146  23942655.6084   23942659.0844 
 08 12 16 10 07 43.0000000  0  1G03                                 
  23942076.5434   -5182425.80647  -4034460.30046  23942075.2844   23942079.2004 
 08 12 16 10 07 44.0000000  0  1G03                                 
  23941496.4894   -5185474.74547  -4036836.09446  23941495.0174   23941499.0204 
 08 12 16 10 07 45.0000000  0  1G03                                 
  23940916.1274   -5188523.94047  -4039212.08946  23940914.8294   23940918.9654 
 08 12 16 10 07 46.0000000  0  1G03                                 
  23940335.8764   -5191573.13647  -4041588.08446  23940334.5974   23940338.0774 
 08 12 16 10 07 47.0000000  0  1G03                                 
  23939755.9264   -5194622.20447  -4043963.97846  23939754.5134   23939758.2374 
 08 12 16 10 07 48.0000000  0  1G03                                 
  23939175.7774   -5197671.40047  -4046339.97546  23939174.3994   23939177.7284 
 08 12 16 10 07 49.0000000  0  1G03                                 
  23938595.1044   -5200720.73347  -4048716.07746  23938593.6494   23938596.4664 
 08 12 16 10 07 50.0000000  0  1G03                                 
  23938014.4844   -5203769.17447  -4051091.48146  23938012.8884   23938016.1064 
 08 12 16 10 07 51.0000000  0  1G03                                 
  23937434.5564   -5206817.23547  -4053466.58946  23937432.9634   23937437.0624 
 08 12 16 10 07 52.0000000  0  1G03                                 
  23936854.5034   -5209865.36947  -4055841.75546  23936852.6464   23936857.4164 
 08 12 16 10 07 53.0000000  0  1G03                                 
  23936274.7814   -5212912.86047  -4058216.41946  23936272.5394   23936277.7654 
 08 12 16 10 07 54.0000000  0  1G03                                 
  23935694.8884   -5215959.97747  -4060590.79046  23935692.7894   23935697.8824 
 08 12 16 10 07 55.0000000  0  1G03                                 
  23935115.1444   -5219007.28447  -4062965.31246  23935113.0014   23935118.0114 
 08 12 16 10 07 56.0000000  0  1G03                                 
  23934535.2054   -5222054.74947  -4065339.95746  23934532.9014   23934538.1144 
 08 12 16 10 07 57.0000000  0  1G03                                 
  23933955.3304   -5225102.14547  -4067714.54846  23933954.0424   23933958.1934 
 08 12 16 10 07 58.0000000  0  1G03                                 
  23933375.5064   -5228149.82847  -4070089.36346  23933373.9244   23933378.5104 
 08 12 16 10 07 59.0000000  0  1G03                                 
  23932795.7344   -5231197.64247  -4072464.27946  23932794.3024   23932798.7784 
 08 12 16 10 08 00.0000000  0  1G03                                 
  23932216.0154   -5234245.70947  -4074839.39546  23932214.1944   23932218.6244 
 08 12 16 10 08 01.0000000  0  1G03                                 
  23931636.2444   -5237293.70047  -4077214.44846  23931633.8954   23931638.8964 
 08 12 16 10 08 02.0000000  0  1G03                                 
  23931056.5464   -5240341.18847  -4079589.11046  23931053.8164   23931058.4384 
 08 12 16 10 08 03.0000000  0  1G03                                 
  23930476.8194   -5243388.27047  -4081963.45446  23930473.8354   23930478.0194 
 08 12 16 10 08 04.0000000  0  1G03                                 
  23929897.0894   -5246435.18247  -4084337.66946  23929894.4834   23929897.5804 
 08 12 16 10 08 05.0000000  0  1G03                                 
  23929317.3204   -5249482.05847  -4086711.85646  23929314.1354   23929318.1484 
 08 12 16 10 08 06.0000000  0  1G03                                 
  23928737.2904   -5252529.08847  -4089086.16246  23928734.4294   23928737.8834 
 08 12 16 10 08 07.0000000  0  1G03                                 
  23928157.6884   -5255575.91647  -4091460.31246  23928155.4894   23928158.2094 
 08 12 16 10 08 08.0000000  0  1G03                                 
  23927577.8764   -5258622.55247  -4093834.31446  23927575.5794   23927578.4954 
 08 12 16 10 08 09.0000000  0  1G03                                 
  23926998.0264   -5261669.32547  -4096208.42246  23926995.6834   23926998.8284 
 08 12 16 10 08 10.0000000  0  1G03                                 
  23926417.8144   -5264715.89547  -4098582.37146  23926415.5624   23926418.4724 
 08 12 16 10 08 11.0000000  0  1G03                                 
  23925837.5794   -5267762.28747  -4100956.18146  23925835.3124   23925838.4444 
 08 12 16 10 08 12.0000000  0  1G03                                 
  23925257.6914   -5270808.43547  -4103329.79946  23925255.7724   23925258.9254 
 08 12 16 10 08 13.0000000  0  1G03                                 
  23924677.5904   -5273854.52447  -4105703.37446  23924675.5284   23924679.1554 
 08 12 16 10 08 14.0000000  0  1G03                                 
  23924097.9404   -5276900.36347  -4108076.75246  23924096.2904   23924100.2784 
 08 12 16 10 08 15.0000000  0  1G03                                 
  23923518.4754   -5279946.13947  -4110450.08246  23923516.6094   23923521.2564 
 08 12 16 10 08 16.0000000  0  1G03                                 
  23922938.9184   -5282991.59447  -4112823.16446  23922937.1794   23922942.0954 
 08 12 16 10 08 17.0000000  0  1G03                                 
  23922359.1324   -5286037.50147  -4115196.59746  23922358.0374   23922362.3514 
 08 12 16 10 08 18.0000000  0  1G03                                 
  23921779.4444   -5289083.21747  -4117569.88246  23921778.4864   23921783.1524 
 08 12 16 10 08 19.0000000  0  1G03                                 
  23921200.2324   -5292128.26347  -4119942.64046  23921199.5234   23921203.9284 
 08 12 16 10 08 20.0000000  0  1G03                                 
  23920620.8704   -5295173.06747  -4122315.21146  23920620.3974   23920624.4174 
 08 12 16 10 08 21.0000000  0  1G03                                 
  23920041.3564   -5298217.91647  -4124687.81646  23920041.0164   23920044.5374 
 08 12 16 10 08 22.0000000  0  1G03                                 
  23919461.8184   -5301262.70347  -4127060.37446  23919461.8444   23919465.3094 
 08 12 16 10 08 23.0000000  0  1G03                                 
  23918882.5434   -5304307.80247  -4129433.17546  23918882.5084   23918885.8964 
 08 12 16 10 08 24.0000000  0  1G03                                 
  23918303.4964   -5307352.70647  -4131805.82446  23918303.1384   23918307.1744 
 08 12 16 10 08 25.0000000  0  1G03                                 
  23917724.0804   -5310397.66347  -4134178.51346  23917723.7254   23917727.7964 
 08 12 16 10 08 26.0000000  0  1G03                                 
  23917144.9874   -5313442.79947  -4136551.34346  23917144.7184   23917148.2674 
 08 12 16 10 08 27.0000000  0  1G03                                 
  23916565.7214   -5316487.54347  -4138923.86646  23916565.0504   23916568.5664 
 08 12 16 10 08 28.0000000  0  1G03                                 
  23915986.4404   -5319532.34947  -4141296.43846  23915985.4824   23915988.8324 
 08 12 16 10 08 29.0000000  0  1G03                                 
  23915407.1654   -5322576.88547  -4143668.80046  23915406.2834   23915409.5424 
 08 12 16 10 08 30.0000000  0  1G03                                 
  23914828.0504   -5325621.28147  -4146041.05346  23914827.1214   23914829.4174 
 08 12 16 10 08 31.0000000  0  1G03                                 
  23914249.0064   -5328665.27147  -4148412.99146  23914247.7874   23914250.1744 
 08 12 16 10 08 32.0000000  0  1G03                                 
  23913670.0594   -5331708.81947  -4150784.58246  23913668.9054   23913670.4574 
 08 12 16 10 08 33.0000000  0  1G03                                 
  23913091.1864   -5334752.10647  -4153155.97346  23913089.7274   23913091.5464 
 08 12 16 10 08 34.0000000  0  1G03                                 
  23912512.2874   -5337795.59347  -4155527.51846  23912511.1824   23912512.2964 
 08 12 16 10 08 35.0000000  0  1G03                                 
  23911933.0974   -5340839.01847  -4157899.01646  23911931.2054   23911932.8284 
 08 12 16 10 08 36.0000000  0  1G03                                 
  23911353.8974   -5343882.41447  -4160270.49446  23911351.8624   23911353.4844 
 08 12 16 10 08 37.0000000  0  1G03                                 
  23910774.4484   -5346926.00147  -4162642.12146  23910772.1814   23910774.4364 
 08 12 16 10 08 38.0000000  0  1G03                                 
  23910195.1644   -5349969.55647  -4165013.72146  23910192.8974   23910195.3994 
 08 12 16 10 08 39.0000000  0  1G03                                 
  23909615.8044   -5353012.99747  -4167385.23146  23909613.8214   23909616.3954 
 08 12 16 10 08 40.0000000  0  1G03                                 
  23909036.5844   -5356056.02447  -4169756.41746  23909035.3194   23909037.7994 
 08 12 16 10 08 41.0000000  0  1G03                                 
  23908457.4764   -5359099.08247  -4172127.62946  23908456.2634   23908459.1194 
 08 12 16 10 08 42.0000000  0  1G03                                 
  23907878.5614   -5362141.82747  -4174498.59746  23907877.2414   23907880.0374 
 08 12 16 10 08 43.0000000  0  1G03                                 
  23907299.5044   -5365184.28847  -4176869.34546  23907298.1474   23907300.7844 
 08 12 16 10 08 44.0000000  0  1G03                                 
  23906720.4564   -5368226.36947  -4179239.79546  23906719.1024   23906721.2854 
 08 12 16 10 08 45.0000000  0  1G03                                 
  23906141.8264   -5371268.22847  -4181610.07246  23906140.7064   23906142.6164 
 08 12 16 10 08 46.0000000  0  1G03                                 
  23905563.2634   -5374309.85747  -4183980.16846  23905562.5594   23905564.4574 
 08 12 16 10 08 47.0000000  0  1G03                                 
  23904984.6874   -5377351.71947  -4186350.45046  23904983.5574   23904985.9434 
 08 12 16 10 08 48.0000000  0  1G03                                 
  23904405.9904   -5380393.55547  -4188720.70946  23904404.7204   23904407.3444 
 08 12 16 10 08 49.0000000  0  1G03                                 
  23903827.0834   -5383435.24947  -4191090.85646  23903825.0984   23903828.4604 
 08 12 16 10 08 50.0000000  0  1G03                                 
  23903247.9754   -5386476.88047  -4193460.95746  23903245.9404   23903249.1254 
 08 12 16 10 08 51.0000000  0  1G03                                 
  23902669.1344   -5389518.59547  -4195831.12346  23902666.7124   23902670.3984 
 08 12 16 10 08 52.0000000  0  1G03                                 
  23902090.2684   -5392559.99247  -4198201.03946  23902088.0664   23902091.5864 
 08 12 16 10 08 53.0000000  0  1G03                                 
  23901511.4444   -5395601.16947  -4200570.78546  23901509.2234   23901512.7814 
 08 12 16 10 08 54.0000000  0  1G03                                 
  23900932.4584   -5398642.16747  -4202940.38946  23900930.2034   23900933.9704 
 08 12 16 10 08 55.0000000  0  1G03                                 
  23900353.5854   -5401683.38247  -4205310.16546  23900351.8174   23900355.2794 
 08 12 16 10 08 56.0000000  0  1G03                                 
  23899774.6834   -5404724.31947  -4207679.72346  23899773.1704   23899776.5574 
 08 12 16 10 08 57.0000000  0  1G03                                 
  23899195.6514   -5407765.31347  -4210049.32546  23899194.2514   23899197.3344 
 08 12 16 10 08 58.0000000  0  1G03                                 
  23898616.7534   -5410806.10747  -4212418.77346  23898615.6574   23898618.6114 
 08 12 16 10 08 59.0000000  0  1G03                                 
  23898038.1304   -5413846.83047  -4214788.16346  23898037.5394   23898039.6624 
 08 12 16 10 09 00.0000000  0  1G03                                 
  23897459.7434   -5416887.08947  -4217157.19246  23897459.2514   23897461.6874 
 08 12 16 10 09 01.0000000  0  1G03                                 
  23896880.9924   -5419927.14547  -4219526.06246  23896880.8634   23896883.1544 
 08 12 16 10 09 02.0000000  0  1G03                                 
  23896302.2824   -5422967.30747  -4221895.01746  23896302.0754   23896304.2674 
 08 12 16 10 09 03.0000000  0  1G03                                 
  23895723.5634   -5426007.39847  -4224263.91746  23895723.4004   23895725.6164 
 08 12 16 10 09 04.0000000  0  1G03                                 
  23895144.9094   -5429047.26747  -4226632.64346  23895144.5144   23895147.3014 
 08 12 16 10 09 05.0000000  0  1G03                                 
  23894566.1644   -5432087.11147  -4229001.34946  23894565.9264   23894569.1024 
 08 12 16 10 09 06.0000000  0  1G03                                 
  23893987.4404   -5435126.98547  -4231370.08046  23893987.1004   23893990.4074 
 08 12 16 10 09 07.0000000  0  1G03                                 
  23893408.8264   -5438166.58147  -4233738.59146  23893408.9464   23893412.1214 
 08 12 16 10 09 08.0000000  0  1G03                                 
  23892830.1814   -5441205.99247  -4236106.95946  23892830.4664   23892833.7554 
 08 12 16 10 09 09.0000000  0  1G03                                 
  23892251.5034   -5444245.90847  -4238475.72446  23892251.7264   23892255.3774 
 08 12 16 10 09 10.0000000  0  1G03                                 
  23891673.2984   -5447285.56447  -4240844.28446  23891673.9344   23891676.9204 
 08 12 16 10 09 11.0000000  0  1G03                                 
  23891095.3434   -5450324.96247  -4243212.64246  23891095.7804   23891098.6674 
 08 12 16 10 09 12.0000000  0  1G03                                 
  23890517.1194   -5453363.90947  -4245580.64946  23890516.4754   23890519.8404 
 08 12 16 10 09 13.0000000  0  1G03                                 
  23889938.7864   -5456402.66747  -4247948.50946  23889938.3924   23889941.0784 
 08 12 16 10 09 14.0000000  0  1G03                                 
  23889360.5224   -5459441.09147  -4250316.10946  23889360.3154   23889362.8264 
 08 12 16 10 09 15.0000000  0  1G03                                 
  23888782.4664   -5462479.42747  -4252683.64246  23888781.1924   23888784.8884 
 08 12 16 10 09 16.0000000  0  1G03                                 
  23888204.2474   -5465517.80847  -4255051.20946  23888203.0694   23888207.3134 
 08 12 16 10 09 17.0000000  0  1G03                                 
  23887626.1554   -5468556.27847  -4257418.84546  23887624.9404   23887629.1864 
 08 12 16 10 09 18.0000000  0  1G03                                 
  23887048.1754   -5471594.30347  -4259786.13646  23887046.7814   23887051.4774 
 08 12 16 10 09 19.0000000  0  1G03                                 
  23886469.9814   -5474632.27947  -4262153.38746  23886468.3454   23886473.8404 
 08 12 16 10 09 20.0000000  0  1G03                                 
  23885891.7544   -5477670.85247  -4264521.10446  23885890.0244   23885896.0674 
 08 12 16 10 09 21.0000000  0  1G03                                 
  23885313.9784   -5480709.07247  -4266888.54246  23885312.3094   23885317.4264 
 08 12 16 10 09 22.0000000  0  1G03                                 
  23884736.1604   -5483747.43747  -4269256.09646  23884734.0194   23884738.7434 
 08 12 16 10 09 23.0000000  0  1G03                                 
  23884158.3104   -5486785.24547  -4271623.21446  23884156.1924   23884160.7374 
 08 12 16 10 09 24.0000000  0  1G03                                 
  23883580.3854   -5489822.99347  -4273990.28946  23883578.2464   23883582.7364 
 08 12 16 10 09 25.0000000  0  1G03                                 
  23883002.6344   -5492860.56247  -4276357.22446  23883000.9454   23883004.8644 
 08 12 16 10 09 26.0000000  0  1G03                                 
  23882425.1594   -5495898.11647  -4278724.14746  23882423.0384   23882427.0254 
 08 12 16 10 09 27.0000000  0  1G03                                 
  23881847.4764   -5498935.90547  -4281091.25746  23881844.6444   23881848.2594 
 08 12 16 10 09 28.0000000  0  1G03                                 
  23881269.5264   -5501973.90547  -4283458.53046  23881266.4434   23881270.0094 
 08 12 16 10 09 29.0000000  0  1G03                                 
  23880691.6184   -5505011.42847  -4285825.42946  23880688.1674   23880691.3244 
 08 12 16 10 09 30.0000000  0  1G03                                 
  23880113.6014   -5508048.64847  -4288192.09346  23880110.3144   23880113.4714 
 08 12 16 10 09 31.0000000  0  1G03                                 
  23879535.3904   -5511085.91947  -4290558.79946  23879532.0474   23879535.4564 
 08 12 16 10 09 32.0000000  0  1G03                                 
  23878956.9024   -5514122.82547  -4292925.21746  23878954.2514   23878957.1544 
 08 12 16 10 09 33.0000000  0  1G03                                 
  23878378.6434   -5517159.60847  -4295291.54146  23878376.0324   23878379.9874 
 08 12 16 10 09 34.0000000  0  1G03                                 
  23877800.5624   -5520195.87147  -4297657.45946  23877798.1324   23877802.2604 
 08 12 16 10 09 35.0000000  0  1G03                                 
  23877222.4354   -5523231.92747  -4300023.21746  23877221.4114   23877224.9714 
 08 12 16 10 09 36.0000000  0  1G03                                 
  23876644.6274   -5526267.93447  -4302388.93746  23876643.9824   23876647.3184 
 08 12 16 10 09 37.0000000  0  1G03                                 
  23876066.9414   -5529303.78047  -4304754.53346  23876066.9624   23876069.9334 
 08 12 16 10 09 38.0000000  0  1G03                                 
  23875489.0364   -5532339.68547  -4307120.17446  23875488.5244   23875492.0234 
 08 12 16 10 09 39.0000000  0  1G03                                 
  23874911.1414   -5535375.54047  -4309485.77646  23874911.3594   23874914.0224 
 08 12 16 10 09 40.0000000  0  1G03                                 
  23874333.5354   -5538411.29647  -4311851.30046  23874334.0774   23874335.9744 
 08 12 16 10 09 41.0000000  0  1G03                                 
  23873756.1064   -5541446.98147  -4314216.76846  23873755.7554   23873758.9134 
 08 12 16 10 09 42.0000000  0  1G03                                 
  23873178.5164   -5544482.51847  -4316582.12046  23873178.3004   23873180.4764 
 08 12 16 10 09 43.0000000  0  1G03                                 
  23872600.8144   -5547517.91847  -4318947.36746  23872600.0434   23872603.2634 
 08 12 16 10 09 44.0000000  0  1G03                                 
  23872023.3674   -5550553.28647  -4321312.59046  23872022.4764   23872026.2274 
 08 12 16 10 09 45.0000000  0  1G03                                 
  23871445.8384   -5553588.56547  -4323677.74046  23871444.3634   23871448.5544 
 08 12 16 10 09 46.0000000  0  1G03                                 
  23870868.2004   -5556623.71847  -4326042.79346  23870866.8854   23870870.5704 
 08 12 16 10 09 47.0000000  0  1G03                                 
  23870290.7034   -5559658.48847  -4328407.54646  23870289.1154   23870293.6944 
 08 12 16 10 09 48.0000000  0  1G03                                 
  23869713.3014   -5562693.05247  -4330772.13746  23869712.0314   23869716.2774 
 08 12 16 10 09 49.0000000  0  1G03                                 
  23869135.9974   -5565727.67147  -4333136.77446  23869134.3674   23869139.4224 
 08 12 16 10 09 50.0000000  0  1G03                                 
  23868558.5204   -5568762.49047  -4335501.56546  23868556.7784   23868561.8344 
 08 12 16 10 09 51.0000000  0  1G03                                 
  23867981.3084   -5571797.03147  -4337866.14046  23867979.5814   23867984.4524 
 08 12 16 10 09 52.0000000  0  1G03                                 
  23867404.2484   -5574831.14447  -4340230.38046  23867402.2524   23867406.4834 
 08 12 16 10 09 53.0000000  0  1G03                                 
  23866827.2904   -5577865.04147  -4342594.45346  23866825.3114   23866829.4844 
 08 12 16 10 09 54.0000000  0  1G03                                 
  23866249.9034   -5580899.22547  -4344958.75246  23866247.9174   23866251.6384 
 08 12 16 10 09 55.0000000  0  1G03                                 
  23865672.5524   -5583933.65547  -4347323.24346  23865670.2954   23865674.2274 
 08 12 16 10 09 56.0000000  0  1G03                                 
  23865095.2404   -5586967.92547  -4349687.60646  23865092.6614   23865096.3644 
 08 12 16 10 09 57.0000000  0  1G03                                 
  23864517.9714   -5590002.11947  -4352051.91246  23864514.9254   23864518.7724 
 08 12 16 10 09 58.0000000  0  1G03                                 
  23863940.5814   -5593036.06747  -4354416.02546  23863937.9354   23863941.1764 
 08 12 16 10 09 59.0000000  0  1G03                                 
  23863363.0854   -5596070.06247  -4356780.17846  23863360.6914   23863363.7614 
 08 12 16 10 10 00.0000000  0  1G03                                 
  23862785.8534   -5599104.04947  -4359144.32346  23862784.1764   23862787.0354 
 08 12 16 10 10 01.0000000  0  1G03                                 
  23862208.5754   -5602138.17047  -4361508.57146  23862207.3284   23862209.8544 
 08 12 16 10 10 02.0000000  0  1G03                                 
  23861631.4684   -5605171.73247  -4363872.38646  23861629.8054   23861633.0454 
 08 12 16 10 10 03.0000000  0  1G03                                 
  23861054.4654   -5608204.92447  -4366235.91046  23861052.3444   23861056.3384 
 08 12 16 10 10 04.0000000  0  1G03                                 
  23860477.4624   -5611237.76047  -4368599.15746  23860475.7754   23860479.2514 
 08 12 16 10 10 05.0000000  0  1G03                                 
  23859900.4814   -5614270.51447  -4370962.34046  23859898.9584   23859901.6754 
 08 12 16 10 10 06.0000000  0  1G03                                 
  23859323.5214   -5617303.02347  -4373325.33146  23859322.5134   23859324.6564 
 08 12 16 10 10 07.0000000  0  1G03                                 
  23858746.6084   -5620335.56747  -4375688.35046  23858745.6434   23858748.0104 
 08 12 16 10 10 08.0000000  0  1G03                                 
  23858169.7654   -5623367.79347  -4378051.12246  23858168.9204   23858170.8704 
 08 12 16 10 10 09.0000000  0  1G03                                 
  23857592.8454   -5626399.66747  -4380413.62046  23857591.5944   23857594.0414 
 08 12 16 10 10 10.0000000  0  1G03                                 
  23857015.9114   -5629431.67947  -4382776.22646  23857014.2034   23857017.2104 
 08 12 16 10 10 11.0000000  0  1G03                                 
  23856438.8234   -5632463.53847  -4385138.71246  23856436.6884   23856440.4164 
 08 12 16 10 10 12.0000000  0  1G03                                 
  23855861.7764   -5635495.60347  -4387501.36046  23855859.8264   23855863.0784 
 08 12 16 10 10 13.0000000  0  1G03                                 
  23855284.5264   -5638527.49847  -4389863.87546  23855282.4034   23855286.1474 
 08 12 16 10 10 14.0000000  0  1G03                                 
  23854707.4044   -5641559.52347  -4392226.49246  23854705.0544   23854709.2414 
 08 12 16 10 10 15.0000000  0  1G03                                 
  23854130.2424   -5644591.51347  -4394589.08046  23854127.9964   23854132.7954 
 08 12 16 10 10 16.0000000  0  1G03                                 
  23853553.2144   -5647623.08947  -4396951.34646  23853551.3394   23853555.9704 
 08 12 16 10 10 17.0000000  0  1G03                                 
  23852976.1704   -5650654.87647  -4399313.77646  23852974.3684   23852979.0994 
 08 12 16 10 10 18.0000000  0  1G03                                 
  23852399.0444   -5653686.40747  -4401676.00746  23852396.9274   23852401.8444 
 08 12 16 10 10 19.0000000  0  1G03                                 
  23851821.9524   -5656717.86047  -4404038.17646  23851820.5334   23851824.8204 
 08 12 16 10 10 20.0000000  0  1G03                                 
  23851244.6534   -5659749.04947  -4406400.14146  23851244.0164   23851247.8624 
 08 12 16 10 10 21.0000000  0  1G03                                 
  23850667.6814   -5662779.66347  -4408761.65646  23850666.8504   23850671.4504 
 08 12 16 10 10 22.0000000  0  1G03                                 
  23850091.0834   -5665810.19947  -4411123.11446  23850090.4364   23850095.3134 
 08 12 16 10 10 23.0000000  0  1G03                                 
  23849514.4964   -5668840.58747  -4413484.45246  23849514.7364   23849519.1214 
 08 12 16 10 10 24.0000000  0  1G03                                 
  23848937.9554   -5671871.01047  -4415845.82046  23848938.0944   23848942.1044 
 08 12 16 10 10 25.0000000  0  1G03                                 
  23848361.3244   -5674901.10047  -4418206.92746  23848361.2444   23848364.7944 
 08 12 16 10 10 26.0000000  0  1G03                                 
  23847784.6914   -5677931.22647  -4420568.06446  23847785.0244   23847788.2974 
 08 12 16 10 10 27.0000000  0  1G03                                 
  23847208.2304   -5680961.39247  -4422929.23146  23847207.9844   23847211.7974 
 08 12 16 10 10 28.0000000  0  1G03                                 
  23846631.4984   -5683991.17447  -4425290.09946  23846631.4554   23846634.9964 
 08 12 16 10 10 29.0000000  0  1G03                                 
  23846054.7214   -5687020.81047  -4427650.85346  23846054.6464   23846058.3994 
 08 12 16 10 10 30.0000000  0  1G03                                 
  23845478.1934   -5690050.12347  -4430011.35646  23845477.7674   23845481.9784 
 08 12 16 10 10 31.0000000  0  1G03                                 
  23844901.7234   -5693079.62547  -4432372.00446  23844900.8424   23844905.2974 
 08 12 16 10 10 32.0000000  0  1G03                                 
  23844325.0554   -5696109.50147  -4434732.94746  23844324.2764   23844329.0034 
 08 12 16 10 10 33.0000000  0  1G03                                 
  23843748.3934   -5699138.97747  -4437093.57646  23843747.0484   23843752.3504 
 08 12 16 10 10 34.0000000  0  1G03                                 
  23843171.8084   -5702168.47947  -4439454.22646  23843169.8534   23843175.4344 
 08 12 16 10 10 35.0000000  0  1G03                                 
  23842595.3044   -5705198.03247  -4441814.91446  23842593.3654   23842598.2604 
 08 12 16 10 10 36.0000000  0  1G03                                 
  23842018.8884   -5708227.32347  -4444175.40146  23842016.8854   23842021.6934 
 08 12 16 10 10 37.0000000  0  1G03                                 
  23841442.5434   -5711256.29547  -4446535.63746  23841441.4094   23841445.9124 
 08 12 16 10 10 38.0000000  0  1G03                                 
  23840866.2574   -5714285.07347  -4448895.72246  23840865.0064   23840869.4374 
 08 12 16 10 10 39.0000000  0  1G03                                 
  23840289.9814   -5717313.60047  -4451255.61446  23840288.7664   23840293.4594 
 08 12 16 10 10 40.0000000  0  1G03                                 
  23839713.8044   -5720342.23447  -4453615.58846  23839713.0924   23839717.1144 
 08 12 16 10 10 41.0000000  0  1G03                                 
  23839137.7404   -5723370.70247  -4455975.43346  23839136.9904   23839141.1594 
 08 12 16 10 10 42.0000000  0  1G03                                 
  23838561.4114   -5726399.14247  -4458335.25746  23838559.5044   23838564.5824 
 08 12 16 10 10 43.0000000  0  1G03                                 
  23837984.5594   -5729427.59747  -4460695.09146  23837983.4814   23837987.9324 
 08 12 16 10 10 44.0000000  0  1G03                                 
  23837407.7464   -5732456.12347  -4463054.98246  23837407.0444   23837410.9664 
 08 12 16 10 10 45.0000000  0  1G03                                 
  23836831.2484   -5735484.19447  -4465414.51846  23836830.6764   23836835.0094 
 08 12 16 10 10 46.0000000  0  1G03                                 
  23836254.9484   -5738512.05847  -4467773.89246  23836254.5334   23836259.2934 
 08 12 16 10 10 47.0000000  0  1G03                                 
  23835678.5144   -5741540.03547  -4470133.35446  23835677.9314   23835683.2224 
 08 12 16 10 10 48.0000000  0  1G03                                 
  23835102.0894   -5744568.06647  -4472492.85846  23835101.7894   23835106.5114 
 08 12 16 10 10 49.0000000  0  1G03                                 
  23834525.6944   -5747595.52747  -4474851.91746  23834525.1784   23834529.4664 
 08 12 16 10 10 50.0000000  0  1G03                                 
  23833949.6814   -5750622.75447  -4477210.79546  23833949.7444   23833953.8954 
 08 12 16 10 10 51.0000000  0  1G03                                 
  23833373.8814   -5753650.03747  -4479569.71646  23833373.7444   23833378.2124 
 08 12 16 10 10 52.0000000  0  1G03                                 
  23832798.0014   -5756677.12847  -4481928.48646  23832798.1234   23832801.7814 
 08 12 16 10 10 53.0000000  0  1G03                                 
  23832222.1364   -5759703.90547  -4484287.01346  23832222.3844   23832226.2184 
 08 12 16 10 10 54.0000000  0  1G03                                 
  23831646.0344   -5762730.88647  -4486645.69846  23831645.7494   23831650.0914 
 08 12 16 10 10 55.0000000  0  1G03                                 
  23831070.2944   -5765758.05247  -4489004.52846  23831069.3744   23831074.4734 
 08 12 16 10 10 56.0000000  0  1G03                                 
  23830494.6834   -5768784.67247  -4491362.92946  23830493.4794   23830498.3574 
 08 12 16 10 10 57.0000000  0  1G03                                 
  23829919.0204   -5771811.25347  -4493721.30346  23829918.0494   23829922.4274 
 08 12 16 10 10 58.0000000  0  1G03                                 
  23829343.1724   -5774837.90647  -4496079.73446  23829342.3604   23829346.3144 
 08 12 16 10 10 59.0000000  0  1G03                                 
  23828767.3394   -5777864.25547  -4498437.92546  23828766.0864   23828770.5874 
 08 12 16 10 11 00.0000000  0  1G03                                 
  23828191.9554   -5780890.16347  -4500795.77246  23828190.3134   23828195.5714 
 08 12 16 10 11 01.0000000  0  1G03                                 
  23827616.4204   -5783916.33047  -4503153.82246  23827614.3344   23827618.8004 
 08 12 16 10 11 02.0000000  0  1G03                                 
  23827040.7914   -5786942.31147  -4505511.72546  23827038.4324   23827042.5614 
 08 12 16 10 11 03.0000000  0  1G03                                 
  23826465.0884   -5789968.29747  -4507869.63646  23826461.9294   23826466.8854 
 08 12 16 10 11 04.0000000  0  1G03                                 
  23825889.5094   -5792994.27747  -4510227.54146  23825886.4874   23825890.9974 
 08 12 16 10 11 05.0000000  0  1G03                                 
  23825313.6894   -5796019.90347  -4512585.17046  23825310.5434   23825315.1464 
 08 12 16 10 11 06.0000000  0  1G03                                 
  23824737.7044   -5799045.50047  -4514942.77746  23824734.2804   23824738.7094 
 08 12 16 10 11 07.0000000  0  1G03                                 
  23824161.6724   -5802070.88147  -4517300.21746  23824159.3064   23824162.5664 
 08 12 16 10 11 08.0000000  0  1G03                                 
  23823585.8834   -5805095.98047  -4519657.43446  23823583.6614   23823587.4144 
 08 12 16 10 11 09.0000000  0  1G03                                 
  23823010.0844   -5808121.15747  -4522014.71446  23823008.6104   23823011.8034 
 08 12 16 10 11 10.0000000  0  1G03                                 
  23822434.2494   -5811146.10847  -4524371.81946  23822433.1534   23822436.4404 
 08 12 16 10 11 11.0000000  0  1G03                                 
  23821858.6624   -5814170.79447  -4526728.71646  23821857.3804   23821860.5934 
 08 12 16 10 11 12.0000000  0  1G03                                 
  23821283.1274   -5817195.23647  -4529085.42446  23821282.2084   23821285.1204 
 08 12 16 10 11 13.0000000  0  1G03                                 
  23820707.7924   -5820219.62747  -4531442.09146  23820706.3104   23820710.6014 
 08 12 16 10 11 14.0000000  0  1G03                                 
  23820132.7344   -5823243.75247  -4533798.54946  23820130.9834   23820135.3984 
 08 12 16 10 11 15.0000000  0  1G03                                 
  23819557.3194   -5826267.99447  -4536155.10046  23819554.7724   23819559.6654 
 08 12 16 10 11 16.0000000  0  1G03                                 
  23818981.9254   -5829292.53547  -4538511.88346  23818979.2904   23818984.1334 
 08 12 16 10 11 17.0000000  0  1G03                                 
  23818406.8394   -5832316.63147  -4540868.32346  23818404.3864   23818408.5994 
 08 12 16 10 11 18.0000000  0  1G03                                 
  23817831.3764   -5835340.74247  -4543224.77146  23817828.2354   23817833.3844 
 08 12 16 10 11 19.0000000  0  1G03                                 
  23817255.8454   -5838364.69147  -4545581.09646  23817252.5654   23817257.6574 
 08 12 16 10 11 20.0000000  0  1G03                                 
  23816680.4744   -5841388.86047  -4547937.59246  23816677.3224   23816682.2124 
 08 12 16 10 11 21.0000000  0  1G03                                 
  23816105.2754   -5844412.94447  -4550294.02146  23816101.8234   23816106.8484 
 08 12 16 10 11 22.0000000  0  1G03                                 
  23815529.8384   -5847436.96747  -4552650.40246  23815526.9124   23815531.7544 
 08 12 16 10 11 23.0000000  0  1G03                                 
  23814954.6334   -5850460.73847  -4555006.58346  23814952.5654   23814956.0554 
 08 12 16 10 11 24.0000000  0  1G03                                 
  23814379.1084   -5853484.20347  -4557362.53046  23814376.9904   23814380.5504 
 08 12 16 10 11 25.0000000  0  1G03                                 
  23813803.3724   -5856507.53847  -4559718.37646  23813801.2684   23813804.9454 
 08 12 16 10 11 26.0000000  0  1G03                                 
  23813227.7634   -5859531.06347  -4562074.36946  23813226.2254   23813229.4834 
 08 12 16 10 11 27.0000000  0  1G03                                 
  23812652.0194   -5862554.56447  -4564430.34246  23812651.0104   23812653.9524 
 08 12 16 10 11 28.0000000  0  1G03                                 
  23812076.8234   -5865577.44847  -4566785.83646  23812076.0464   23812079.6294 
 08 12 16 10 11 29.0000000  0  1G03                                 
  23811501.5734   -5868600.24747  -4569141.26546  23811500.6824   23811504.4324 
 08 12 16 10 11 30.0000000  0  1G03                                 
  23810926.2594   -5871623.40347  -4571496.97246  23810925.4524   23810928.8614 
 08 12 16 10 11 31.0000000  0  1G03                                 
  23810351.1024   -5874646.13147  -4573852.34346  23810351.2264   23810353.3164 
 08 12 16 10 11 32.0000000  0  1G03                                 
  23809776.0704   -5877668.84547  -4576207.70646  23809775.9214   23809778.0614 
 08 12 16 10 11 33.0000000  0  1G03                                 
  23809200.9024   -5880691.54447  -4578563.05846  23809200.2654   23809203.0504 
 08 12 16 10 11 34.0000000  0  1G03                                 
  23808626.0544   -5883713.74247  -4580918.01646  23808624.8364   23808628.2744 
 08 12 16 10 11 35.0000000  0  1G03                                 
  23808051.1094   -5886735.83747  -4583272.89746  23808049.8254   23808053.6034 
 08 12 16 10 11 36.0000000  0  1G03                                 
  23807476.1944   -5889757.97747  -4585627.81046  23807474.8234   23807478.1734 
 08 12 16 10 11 37.0000000  0  1G03                                 
  23806901.1284   -5892780.12947  -4587982.73446  23806899.5704   23806903.3444 
 08 12 16 10 11 38.0000000  0  1G03                                 
  23806325.9114   -5895802.19647  -4590337.59246  23806324.1874   23806328.1294 
 08 12 16 10 11 39.0000000  0  1G03                                 
  23805750.7404   -5898824.01147  -4592692.25246  23805749.3044   23805752.6964 
 08 12 16 10 11 40.0000000  0  1G03                                 
  23805175.8744   -5901845.47447  -4595046.63946  23805174.5264   23805178.1614 
 08 12 16 10 11 41.0000000  0  1G03                                 
  23804601.1244   -5904866.90047  -4597400.99746  23804600.0144   23804603.7664 
 08 12 16 10 11 42.0000000  0  1G03                                 
  23804026.1534   -5907887.88447  -4599755.01046  23804024.8494   23804029.0174 
 08 12 16 10 11 43.0000000  0  1G03                                 
  23803451.2554   -5910908.76447  -4602108.94346  23803449.7474   23803454.5894 
 08 12 16 10 11 44.0000000  0  1G03                                 
  23802876.4774   -5913929.28947  -4604462.59546  23802874.5934   23802879.7624 
 08 12 16 10 11 45.0000000  0  1G03                                 
  23802301.6244   -5916949.86147  -4606816.28746  23802299.7054   23802304.5734 
 08 12 16 10 11 46.0000000  0  1G03                                 
  23801726.5224   -5919970.68347  -4609170.17346  23801724.8094   23801729.8014 
 08 12 16 10 11 47.0000000  0  1G03                                 
  23801151.4744   -5922991.47947  -4611524.03846  23801150.2574   23801155.0004 
 08 12 16 10 11 48.0000000  0  1G03                                 
  23800576.8024   -5926012.42747  -4613878.02246  23800576.3164   23800580.6144 
 08 12 16 10 11 49.0000000  0  1G03                                 
  23800001.9614   -5929033.42047  -4616232.04146  23800001.3634   23800005.6514 
 08 12 16 10 11 50.0000000  0  1G03                                 
  23799426.9844   -5932054.21147  -4618585.90446  23799426.2864   23799430.6814 
 08 12 16 10 11 51.0000000  0  1G03                                 
  23798852.0484   -5935074.75747  -4620939.57746  23798851.6334   23798855.2464 
 08 12 16 10 11 52.0000000  0  1G03                                 
  23798277.3194   -5938095.01647  -4623293.02446  23798276.9724   23798281.0714 
 08 12 16 10 11 53.0000000  0  1G03                                 
  23797702.6994   -5941114.95347  -4625646.22046  23797702.2664   23797706.5604 
 08 12 16 10 11 54.0000000  0  1G03                                 
  23797128.2034   -5944134.69347  -4627999.26246  23797127.7994   23797131.9024 
 08 12 16 10 11 55.0000000  0  1G03                                 
  23796553.7874   -5947154.44047  -4630352.31346  23796552.9304   23796557.6194 
 08 12 16 10 11 56.0000000  0  1G03                                 
  23795979.2014   -5950174.06947  -4632705.26746  23795978.1384   23795982.3034 
 08 12 16 10 11 57.0000000  0  1G03                                 
  23795404.2734   -5953193.45847  -4635058.03746  23795403.0984   23795407.6214 
 08 12 16 10 11 58.0000000  0  1G03                                 
  23794829.7094   -5956212.56147  -4637410.58146  23794828.7344   23794833.3014 
 08 12 16 10 11 59.0000000  0  1G03                                 
  23794255.1844   -5959231.84247  -4639763.26646  23794254.4084   23794259.0664 
 08 12 16 10 12 00.0000000  0  1G03                                 
  23793680.8304   -5962251.19947  -4642116.01046  23793679.6834   23793685.0494 
 08 12 16 10 12 01.0000000  0  1G03                                 
  23793106.2654   -5965270.28647  -4644468.54446  23793105.3864   23793110.3654 
 08 12 16 10 12 02.0000000  0  1G03                                 
  23792531.8974   -5968288.70247  -4646820.55346  23792530.7144   23792535.5304 
 08 12 16 10 12 03.0000000  0  1G03                                 
  23791957.0634   -5971306.78647  -4649172.30446  23791955.3154   23791960.8714 
 08 12 16 10 12 04.0000000  0  1G03                                 
  23791382.5294   -5974325.00447  -4651524.16046  23791381.2894   23791386.6134 
 08 12 16 10 12 05.0000000  0  1G03                                 
  23790808.2624   -5977343.33947  -4653876.10646  23790806.6124   23790812.4714 
 08 12 16 10 12 06.0000000  0  1G03                                 
  23790233.8544   -5980361.41247  -4656227.84946  23790232.5764   23790238.3854 
 08 12 16 10 12 07.0000000  0  1G03                                 
  23789659.5884   -5983379.60047  -4658579.68146  23789658.7864   23789664.0124 
 08 12 16 10 12 08.0000000  0  1G03                                 
  23789085.4924   -5986397.68247  -4660931.42946  23789084.9364   23789089.7214 
 08 12 16 10 12 09.0000000  0  1G03                                 
  23788511.1794   -5989415.88947  -4663283.27746  23788509.9654   23788515.5064 
 08 12 16 10 12 10.0000000  0  1G03                                 
  23787936.8314   -5992433.62347  -4665634.75446  23787935.7784   23787941.3134 
 08 12 16 10 12 11.0000000  0  1G03                                 
  23787362.3604   -5995451.29647  -4667986.18546  23787361.6964   23787366.1174 
 08 12 16 10 12 12.0000000  0  1G03                                 
  23786787.9664   -5998468.98547  -4670337.63046  23786787.1444   23786791.9124 
 08 12 16 10 12 13.0000000  0  1G03                                 
  23786213.7694   -6001486.46247  -4672688.90846  23786213.4474   23786217.2884 
 08 12 16 10 12 14.0000000  0  1G03                                 
  23785639.6754   -6004503.64147  -4675039.95646  23785638.8934   23785643.4624 
 08 12 16 10 12 15.0000000  0  1G03                                 
  23785065.2534   -6007520.89147  -4677391.05946  23785064.8204   23785069.3294 
 08 12 16 10 12 16.0000000  0  1G03                                 
  23784491.3394   -6010537.74447  -4679741.85346  23784491.0354   23784495.3204 
 08 12 16 10 12 17.0000000  0  1G03                                 
  23783917.3504   -6013554.58647  -4682092.63846  23783916.8394   23783921.1064 
 08 12 16 10 12 18.0000000  0  1G03                                 
  23783343.2704   -6016571.32747  -4684443.34546  23783342.4884   23783346.8624 
 08 12 16 10 12 19.0000000  0  1G03                                 
  23782769.0884   -6019588.35847  -4686794.27846  23782767.7014   23782772.8574 
 08 12 16 10 12 20.0000000  0  1G03                                 
  23782194.9694   -6022605.41647  -4689145.23146  23782193.3184   23782199.1574 
 08 12 16 10 12 21.0000000  0  1G03                                 
  23781620.9954   -6025621.69147  -4691495.57246  23781619.1134   23781625.3064 
 08 12 16 10 12 22.0000000  0  1G03                                 
  23781046.9644   -6028637.77547  -4693845.76646  23781044.9304   23781050.9724 
 08 12 16 10 12 23.0000000  0  1G03                                 
  23780472.8364   -6031653.58247  -4696195.74346  23780471.0944   23780477.1894 
 08 12 16 10 12 24.0000000  0  1G03                                 
  23779898.7134   -6034669.28847  -4698545.64046  23779897.3634   23779902.5734 
 08 12 16 10 12 25.0000000  0  1G03                                 
  23779324.7754   -6037685.16947  -4700895.67646  23779323.4934   23779328.8584 
 08 12 16 10 12 26.0000000  0  1G03                                 
  23778750.9154   -6040701.06947  -4703245.72346  23778749.8854   23778754.6334 
 08 12 16 10 12 27.0000000  0  1G03                                 
  23778177.2234   -6043716.81047  -4705595.64746  23778175.8034   23778180.8854 
 08 12 16 10 12 28.0000000  0  1G03                                 
  23777603.5994   -6046732.56847  -4707945.58646  23777602.6944   23777606.9634 
 08 12 16 10 12 29.0000000  0  1G03                                 
  23777030.0984   -6049748.11247  -4710295.35746  23777029.0634   23777033.3794 
 08 12 16 10 12 30.0000000  0  1G03                                 
  23776456.5614   -6052763.51747  -4712645.02146  23776455.6044   23776460.0804 
 08 12 16 10 12 31.0000000  0  1G03                                 
  23775883.0604   -6055779.07147  -4714994.80246  23775881.2524   23775886.5274 
 08 12 16 10 12 32.0000000  0  1G03                                 
  23775309.2304   -6058794.89747  -4717344.79546  23775307.0804   23775311.9044 
 08 12 16 10 12 33.0000000  0  1G03                                 
  23774735.3884   -6061810.74747  -4719694.80946  23774732.6714   23774737.7194 
 08 12 16 10 12 34.0000000  0  1G03                                 
  23774161.4204   -6064826.05147  -4722044.39446  23774158.8894   23774163.4294 
 08 12 16 10 12 35.0000000  0  1G03                                 
  23773587.7094   -6067840.78847  -4724393.53746  23773585.6054   23773589.3524 
 08 12 16 10 12 36.0000000  0  1G03                                 
  23773014.1454   -6070855.30447  -4726742.51146  23773011.7224   23773015.4564 
 08 12 16 10 12 37.0000000  0  1G03                                 
  23772440.8154   -6073869.64847  -4729091.34946  23772438.6164   23772442.4354 
 08 12 16 10 12 38.0000000  0  1G03                                 
  23771867.3854   -6076883.98647  -4731440.18346  23771864.9774   23771868.8114 
 08 12 16 10 12 39.0000000  0  1G03                                 
  23771293.8604   -6079898.04247  -4733788.79846  23771291.4754   23771294.8974 
 08 12 16 10 12 40.0000000  0  1G03                                 
  23770720.3594   -6082911.70647  -4736137.10446  23770718.0574   23770721.2324 
 08 12 16 10 12 41.0000000  0  1G03                                 
  23770146.6634   -6085925.45847  -4738485.48246  23770144.8034   23770148.3384 
 08 12 16 10 12 42.0000000  0  1G03                                 
  23769573.3534   -6088939.02747  -4740833.71746  23769571.2544   23769575.2824 
 08 12 16 10 12 43.0000000  0  1G03                                 
  23768999.6234   -6091952.91647  -4743182.20146  23768997.4204   23769001.7444 
 08 12 16 10 12 44.0000000  0  1G03                                 
  23768426.1834   -6094967.00147  -4745530.83746  23768423.9204   23768428.4534 
 08 12 16 10 12 45.0000000  0  1G03                                 
  23767852.7504   -6097980.93847  -4747879.35846  23767850.2774   23767854.5404 
 08 12 16 10 12 46.0000000  0  1G03                                 
  23767279.1674   -6100994.47747  -4750227.56746  23767276.8354   23767280.1984 
 08 12 16 10 12 47.0000000  0  1G03                                 
  23766705.5584   -6104007.94347  -4752575.72146  23766703.7644   23766706.3474 
 08 12 16 10 12 48.0000000  0  1G03                                 
  23766132.0244   -6107021.42347  -4754923.88646  23766130.8134   23766133.5454 
 08 12 16 10 12 49.0000000  0  1G03                                 
  23765558.9984   -6110034.72947  -4757271.91646  23765558.6234   23765560.2944 
 08 12 16 10 12 50.0000000  0  1G03                                 
  23764985.9424   -6113047.93647  -4759619.86846  23764985.3864   23764986.3664 
 08 12 16 10 12 51.0000000  0  1G03                                 
  23764412.7754   -6116060.92647  -4761967.65346  23764411.7304   23764413.1004 
 08 12 16 10 12 52.0000000  0  1G03                                 
  23763839.6634   -6119073.65947  -4764315.23846  23763838.1984   23763840.4374 
 08 12 16 10 12 53.0000000  0  1G03                                 
  23763266.5204   -6122086.51047  -4766662.91646  23763264.4374   23763266.7504 
 08 12 16 10 12 54.0000000  0  1G03                                 
  23762693.5134   -6125099.10747  -4769010.39646  23762692.0704   23762693.3944 
 08 12 16 10 12 55.0000000  0  1G03                                 
  23762120.4514   -6128111.45947  -4771357.68446  23762118.2344   23762119.5514 
 08 12 16 10 12 56.0000000  0  1G03                                 
  23761547.1604   -6131123.80347  -4773704.96446  23761544.6774   23761546.3024 
 08 12 16 10 12 57.0000000  0  1G03                                 
  23760973.8984   -6134136.01547  -4776052.14446  23760971.2124   23760973.4994 
 08 12 16 10 12 58.0000000  0  1G03                                 
  23760400.5694   -6137148.16247  -4778399.27246  23760398.1234   23760400.1194 
 08 12 16 10 12 59.0000000  0  1G03                                 
  23759827.4404   -6140160.07947  -4780746.22246  23759825.0894   23759827.8214 
 08 12 16 10 13 00.0000000  0  1G03                                 
  23759254.3634   -6143172.25147  -4783093.37246  23759252.3984   23759255.0444 
 08 12 16 10 13 01.0000000  0  1G03                                 
  23758681.2924   -6146183.90147  -4785440.11346  23758679.6944   23758681.9744 
 08 12 16 10 13 02.0000000  0  1G03                                 
  23758108.4134   -6149195.47147  -4787786.79246  23758106.6454   23758109.2604 
 08 12 16 10 13 03.0000000  0  1G03                                 
  23757535.2644   -6152206.85247  -4790133.32346  23757533.2594   23757536.0784 
 08 12 16 10 13 04.0000000  0  1G03                                 
  23756961.9754   -6155218.19847  -4792479.82946  23756960.2154   23756963.2834 
 08 12 16 10 13 05.0000000  0  1G03                                 
  23756388.9074   -6158229.16647  -4794826.03846  23756387.4464   23756390.3884 
 08 12 16 10 13 06.0000000  0  1G03                                 
  23755815.9964   -6161240.20547  -4797172.30446  23755814.5044   23755817.6124 
 08 12 16 10 13 07.0000000  0  1G03                                 
  23755242.7414   -6164251.37747  -4799518.67346  23755241.5474   23755244.2554 
 08 12 16 10 13 08.0000000  0  1G03                                 
  23754669.4714   -6167262.37847  -4801864.90946  23754668.5694   23754670.5204 
 08 12 16 10 13 09.0000000  0  1G03                                 
  23754096.2014   -6170273.05447  -4804210.89046  23754095.4704   23754097.5254 
 08 12 16 10 13 10.0000000  0  1G03                                 
  23753522.9574   -6173283.67047  -4806556.82746  23753522.3814   23753524.7614 
 08 12 16 10 13 11.0000000  0  1G03                                 
  23752949.6974   -6176294.19847  -4808902.69346  23752949.1734   23752952.1694 
 08 12 16 10 13 12.0000000  0  1G03                                 
  23752376.5134   -6179304.55847  -4811248.42746  23752375.9704   23752379.4264 
 08 12 16 10 13 13.0000000  0  1G03                                 
  23751803.1714   -6182314.59047  -4813593.90446  23751802.3744   23751805.7014 
 08 12 16 10 13 14.0000000  0  1G03                                 
  23751230.2574   -6185324.49047  -4815939.27946  23751230.2004   23751233.2734 
 08 12 16 10 13 15.0000000  0  1G03                                 
  23750657.3894   -6188334.30447  -4818284.58746  23750657.0094   23750661.1824 
 08 12 16 10 13 16.0000000  0  1G03                                 
  23750084.5294   -6191343.93547  -4820629.75346  23750084.6814   23750088.4854 
 08 12 16 10 13 17.0000000  0  1G03                                 
  23749511.7464   -6194353.54547  -4822974.90046  23749511.9774   23749516.3444 
 08 12 16 10 13 18.0000000  0  1G03                                 
  23748938.9204   -6197362.87847  -4825319.83246  23748939.6644   23748943.3404 
 08 12 16 10 13 19.0000000  0  1G03                                 
  23748365.9724   -6200372.07147  -4827664.65546  23748366.5474   23748370.3454 
 08 12 16 10 13 20.0000000  0  1G03                                 
  23747793.3074   -6203381.00847  -4830009.27946  23747793.7834   23747798.2614 
 08 12 16 10 13 21.0000000  0  1G03                                 
  23747220.7464   -6206389.95247  -4832353.90746  23747221.5184   23747225.6574 
 08 12 16 10 13 22.0000000  0  1G03                                 
  23746648.3134   -6209398.94747  -4834698.57846  23746648.9504   23746653.0174 
 08 12 16 10 13 23.0000000  0  1G03                                 
  23746075.9984   -6212408.06347  -4837043.34546  23746077.1034   23746080.7184 
 08 12 16 10 13 24.0000000  0  1G03                                 
  23745503.3264   -6215416.81447  -4839387.82546  23745504.2054   23745507.1794 
 08 12 16 10 13 25.0000000  0  1G03                                 
  23744930.7184   -6218425.32747  -4841732.12146  23744931.2014   23744934.6044 
 08 12 16 10 13 26.0000000  0  1G03                                 
  23744358.2794   -6221433.75647  -4844076.35246  23744358.8094   23744362.1114 
 08 12 16 10 13 27.0000000  0  1G03                                 
  23743785.6784   -6224442.38347  -4846420.73846  23743785.4014   23743789.5454 
 08 12 16 10 13 28.0000000  0  1G03                                 
  23743212.9244   -6227450.53047  -4848764.74946  23743211.9714   23743217.1234 
 08 12 16 10 13 29.0000000  0  1G03                                 
  23742640.5074   -6230458.46947  -4851108.59746  23742640.2574   23742644.8854 
 08 12 16 10 13 30.0000000  0  1G03                                 
  23742068.1004   -6233466.42547  -4853452.45646  23742067.7784   23742073.2204 
 08 12 16 10 13 31.0000000  0  1G03                                 
  23741496.2874   -6236474.00047  -4855796.02046  23741496.3354   23741501.7984 
 08 12 16 10 13 32.0000000  0  1G03                                 
  23740924.2294   -6239481.52247  -4858139.54046  23740924.4974   23740929.9474 
 08 12 16 10 13 33.0000000  0  1G03                                 
  23740352.1344   -6242488.89447  -4860482.94446  23740351.3064   23740357.4424 
 08 12 16 10 13 34.0000000  0  1G03                                 
  23739779.8494   -6245496.20147  -4862826.29846  23739778.8494   23739784.8554 
 08 12 16 10 13 35.0000000  0  1G03                                 
  23739207.7104   -6248503.35347  -4865169.53046  23739206.6954   23739212.6004 
 08 12 16 10 13 36.0000000  0  1G03                                 
  23738635.8394   -6251510.29747  -4867512.60146  23738634.9454   23738640.2024 
 08 12 16 10 13 37.0000000  0  1G03                                 
  23738063.7994   -6254517.46547  -4869855.84746  23738062.3534   23738067.2084 
 08 12 16 10 13 38.0000000  0  1G03                                 
  23737491.9734   -6257524.41847  -4872198.92546  23737490.1384   23737495.3404 
 08 12 16 10 13 39.0000000  0  1G03                                 
  23736919.9244   -6260530.77747  -4874541.54046  23736917.6904   23736923.2134 
 08 12 16 10 13 40.0000000  0  1G03                                 
  23736347.8074   -6263537.34647  -4876884.31946  23736346.0124   23736350.5304 
 08 12 16 10 13 41.0000000  0  1G03                                 
  23735775.5334   -6266544.36247  -4879227.44946  23735773.6904   23735778.7874 
 08 12 16 10 13 42.0000000  0  1G03                                 
  23735203.2604   -6269551.15747  -4881570.40446  23735201.1394   23735206.4314 
 08 12 16 10 13 43.0000000  0  1G03                                 
  23734631.0894   -6272557.72547  -4883913.18346  23734628.8634   23734634.4234 
 08 12 16 10 13 44.0000000  0  1G03                                 
  23734058.8204   -6275564.44047  -4886256.07646  23734056.8624   23734061.8464 
 08 12 16 10 13 45.0000000  0  1G03                                 
  23733486.5904   -6278570.75547  -4888598.65946  23733484.3454   23733489.8464 
 08 12 16 10 13 46.0000000  0  1G03                                 
  23732914.5234   -6281576.95647  -4890941.15146  23732911.9604   23732917.7624 
 08 12 16 10 13 47.0000000  0  1G03                                 
  23732342.4854   -6284582.67247  -4893283.26846  23732339.6834   23732345.6224 
 08 12 16 10 13 48.0000000  0  1G03                                 
  23731770.5084   -6287588.17647  -4895625.21746  23731767.6464   23731773.6414 
 08 12 16 10 13 49.0000000  0  1G03                                 
  23731198.4574   -6290593.99747  -4897967.41546  23731196.5054   23731202.2134 
 08 12 16 10 13 50.0000000  0  1G03                                 
  23730626.2814   -6293599.92747  -4900309.69846  23730624.1264   23730630.2134 
 08 12 16 10 13 51.0000000  0  1G03                                 
  23730054.0834   -6296605.97547  -4902652.07146  23730052.0244   23730057.6114 
 08 12 16 10 13 52.0000000  0  1G03                                 
  23729482.0174   -6299611.82047  -4904994.28946  23729479.6734   23729485.2974 
 08 12 16 10 13 53.0000000  0  1G03                                 
  23728909.9034   -6302617.30747  -4907336.22346  23728908.2374   23728913.1594 
 08 12 16 10 13 54.0000000  0  1G03                                 
  23728338.1124   -6305622.45847  -4909677.89946  23728336.1544   23728341.3594 
 08 12 16 10 13 55.0000000  0  1G03                                 
  23727766.1374   -6308627.56947  -4912019.54346  23727764.4654   23727769.8654 
 08 12 16 10 13 56.0000000  0  1G03                                 
  23727193.7254   -6311632.74447  -4914361.23946  23727192.2674   23727197.8664 
 08 12 16 10 13 57.0000000  0  1G03                                 
  23726622.0654   -6314637.63047  -4916702.70846  23726621.4064   23726626.8324 
 08 12 16 10 13 58.0000000  0  1G03                                 
  23726050.3934   -6317642.45147  -4919044.12646  23726049.6394   23726055.3594 
 08 12 16 10 13 59.0000000  0  1G03                                 
  23725479.0254   -6320647.03347  -4921385.35946  23725478.0174   23725483.1644 
 08 12 16 10 14 00.0000000  0  1G03                                 
  23724907.3834   -6323651.62547  -4923726.60046  23724905.8144   23724911.6204 
 08 12 16 10 14 01.0000000  0  1G03                                 
  23724335.7804   -6326655.35747  -4926067.17046  23724334.1294   23724339.6434 
 08 12 16 10 14 02.0000000  0  1G03                                 
  23723764.1134   -6329660.26647  -4928408.65746  23723762.5224   23723767.4024 
 08 12 16 10 14 03.0000000  0  1G03                                 
  23723192.5674   -6332664.82247  -4930749.86846  23723190.3884   23723194.6204 
 08 12 16 10 14 04.0000000  0  1G03                                 
  23722621.2054   -6335668.99447  -4933090.78046  23722619.6014   23722622.6634 
 08 12 16 10 14 05.0000000  0  1G03                                 
  23722049.3554   -6338673.08147  -4935431.62746  23722047.2824   23722050.8634 
 08 12 16 10 14 06.0000000  0  1G03                                 
  23721477.6474   -6341677.08847  -4937772.40946  23721475.2564   23721479.9154 
 08 12 16 10 14 07.0000000  0  1G03                                 
  23720905.9304   -6344680.91647  -4940113.05446  23720903.3514   23720908.5244 
 08 12 16 10 14 08.0000000  0  1G03                                 
  23720334.3994   -6347684.89047  -4942453.81346  23720331.9214   23720336.6264 
 08 12 16 10 14 09.0000000  0  1G03                                 
  23719762.8824   -6350688.61947  -4944794.38146  23719760.3104   23719765.9804 
 08 12 16 10 14 10.0000000  0  1G03                                 
  23719191.4554   -6353691.62847  -4947134.38546  23719189.3494   23719193.9564 
 08 12 16 10 14 11.0000000  0  1G03                                 
  23718619.9214   -6356694.64347  -4949474.39446  23718617.9924   23718622.0804 
 08 12 16 10 14 12.0000000  0  1G03                                 
  23718048.5514   -6359697.40047  -4951814.20446  23718046.4184   23718051.1964 
 08 12 16 10 14 13.0000000  0  1G03                                 
  23717477.0464   -6362700.09347  -4954153.96446  23717476.1344   23717479.5744 
 08 12 16 10 14 14.0000000  0  1G03                                 
  23716905.6864   -6365702.81647  -4956493.74746  23716905.2464   23716907.9594 
 08 12 16 10 14 15.0000000  0  1G03                                 
  23716334.4384   -6368705.34647  -4958833.37946  23716333.4434   23716337.3354 
 08 12 16 10 14 16.0000000  0  1G03                                 
  23715763.5194   -6371707.73147  -4961172.89846  23715762.6284   23715766.0924 
 08 12 16 10 14 17.0000000  0  1G03                                 
  23715192.3954   -6374710.06347  -4963512.37546  23715191.2034   23715194.8494 
 08 12 16 10 14 18.0000000  0  1G03                                 
  23714621.3214   -6377712.36147  -4965851.82746  23714620.2294   23714622.8704 
 08 12 16 10 14 19.0000000  0  1G03                                 
  23714050.1724   -6380714.53947  -4968191.18646  23714048.7574   23714051.1354 
 08 12 16 10 14 20.0000000  0  1G03                                 
  23713479.3954   -6383716.71847  -4970530.54546  23713477.5324   23713480.0864 
 08 12 16 10 14 21.0000000  0  1G03                                 
  23712908.6294   -6386718.41047  -4972869.52346  23712906.3024   23712908.5654 
 08 12 16 10 14 22.0000000  0  1G03                                 
  23712337.4534   -6389720.19047  -4975208.57346  23712334.5114   23712337.0494 
 08 12 16 10 14 23.0000000  0  1G03                                 
  23711766.2754   -6392721.85847  -4977547.53646  23711763.0524   23711765.8374 
 08 12 16 10 14 24.0000000  0  1G03                                 
  23711195.3934   -6395723.04247  -4979886.12246  23711192.4164   23711194.8374 
 08 12 16 10 14 25.0000000  0  1G03                                 
  23710624.6044   -6398724.06447  -4982224.58246  23710621.0944   23710623.5964 
 08 12 16 10 14 26.0000000  0  1G03                                 
  23710053.5374   -6401724.97447  -4984562.95746  23710050.1984   23710052.8364 
 08 12 16 10 14 27.0000000  0  1G03                                 
  23709482.4894   -6404725.67247  -4986901.16446  23709479.2894   23709481.7194 
 08 12 16 10 14 28.0000000  0  1G03                                 
  23708911.5344   -6407726.28347  -4989239.30346  23708908.0264   23708910.5534 
 08 12 16 10 14 29.0000000  0  1G03                                 
  23708340.1434   -6410727.21647  -4991577.69646  23708336.6164   23708339.2324 
 08 12 16 10 14 30.0000000  0  1G03                                 
  23707768.7464   -6413727.73147  -4993915.76046  23707765.4774   23707767.9124 
 08 12 16 10 14 31.0000000  0  1G03                                 
  23707197.6724   -6416728.14647  -4996253.74646  23707194.8034   23707197.4824 
 08 12 16 10 14 32.0000000  0  1G03                                 
  23706626.3654   -6419728.53347  -4998591.71046  23706624.0754   23706626.2594 
 08 12 16 10 14 33.0000000  0  1G03                                 
  23706055.0494   -6422728.78047  -5000929.56646  23706053.5524   23706055.9034 
 08 12 16 10 14 34.0000000  0  1G03                                 
  23705483.7224   -6425728.94747  -5003267.35846  23705483.3994   23705484.8694 
 08 12 16 10 14 35.0000000  0  1G03                                 
  23704912.5234   -6428729.02247  -5005605.07846  23704912.6714   23704913.8224 
 08 12 16 10 14 36.0000000  0  1G03                                 
  23704341.6994   -6431729.16047  -5007942.84946  23704342.0664   23704343.4504 
 08 12 16 10 14 37.0000000  0  1G03                                 
  23703770.6374   -6434729.19047  -5010280.53646  23703770.6414   23703772.3104 
 08 12 16 10 14 38.0000000  0  1G03                                 
  23703199.4194   -6437729.23247  -5012618.23146  23703199.8034   23703201.2804 
 08 12 16 10 14 39.0000000  0  1G03                                 
  23702628.4084   -6440728.98947  -5014955.70546  23702629.2014   23702630.7984 
 08 12 16 10 14 40.0000000  0  1G03                                 
  23702057.7514   -6443728.75147  -5017293.18146  23702058.2084   23702059.5644 
 08 12 16 10 14 41.0000000  0  1G03                                 
  23701487.2734   -6446728.31447  -5019630.50346  23701487.6974   23701489.1884 
 08 12 16 10 14 42.0000000  0  1G03                                 
  23700916.7794   -6449727.69347  -5021967.67946  23700917.0384   23700918.3904 
 08 12 16 10 14 43.0000000  0  1G03                                 
  23700346.3634   -6452726.86347  -5024304.69446  23700346.2544   23700347.6924 
 08 12 16 10 14 44.0000000  0  1G03                                 
  23699775.6294   -6455725.66647  -5026641.42446  23699774.8174   23699776.8354 
 08 12 16 10 14 45.0000000  0  1G03                                 
  23699205.4484   -6458724.20947  -5028977.95146  23699204.7804   23699205.9304 
 08 12 16 10 14 46.0000000  0  1G03                                 
  23698635.1204   -6461722.46547  -5031314.25446  23698633.7704   23698635.4534 
 08 12 16 10 14 47.0000000  0  1G03                                 
  23698064.5274   -6464720.89947  -5033650.69746  23698062.8184   23698064.3824 
 08 12 16 10 14 48.0000000  0  1G03                                 
  23697493.9814   -6467719.35947  -5035987.15746  23697492.3394   23697493.2704 
 08 12 16 10 14 49.0000000  0  1G03                                 
  23696923.2234   -6470717.81847  -5038323.61846  23696921.3114   23696922.7874 
 08 12 16 10 14 50.0000000  0  1G03                                 
  23696352.3874   -6473715.85947  -5040659.75346  23696351.3484   23696351.7704 
 08 12 16 10 14 51.0000000  0  1G03                                 
  23695781.0524   -6476713.69747  -5042995.72846  23695779.5084   23695780.6304 
 08 12 16 10 14 52.0000000  0  1G03                                 
  23695210.2024   -6479711.43247  -5045331.62646  23695208.4884   23695210.3784 
 08 12 16 10 14 53.0000000  0  1G03                                 
  23694639.4094   -6482709.10447  -5047667.47646  23694638.1004   23694640.1474 
 08 12 16 10 14 54.0000000  0  1G03                                 
  23694068.8204   -6485706.68947  -5050003.25646  23694067.6104   23694070.5254 
 08 12 16 10 14 55.0000000  0  1G03                                 
  23693498.2664   -6488704.32047  -5052339.07346  23693496.9574   23693501.2404 
 08 12 16 10 14 56.0000000  0  1G03                                 
  23692927.6394   -6491701.76547  -5054674.74346  23692926.9784   23692930.5524 
 08 12 16 10 14 57.0000000  0  1G03                                 
  23692357.0864   -6494699.03747  -5057010.28046  23692357.0164   23692361.0564 
 08 12 16 10 14 58.0000000  0  1G03                                 
  23691786.8834   -6497696.42447  -5059345.90446  23691786.6604   23691790.6484 
 08 12 16 10 14 59.0000000  0  1G03                                 
  23691216.4704   -6500693.58247  -5061681.35046  23691215.5514   23691220.1804 
 08 12 16 10 15 00.0000000  0  1G03                                 
  23690646.1774   -6503690.56547  -5064016.66046  23690645.3064   23690649.3804 
 08 12 16 10 15 01.0000000  0  1G03                                 
  23690075.7644   -6506687.33147  -5066351.80146  23690074.7454   23690078.6844 
 08 12 16 10 15 02.0000000  0  1G03                                 
  23689505.3774   -6509683.92347  -5068686.80846  23689503.8494   23689508.4144 
 08 12 16 10 15 03.0000000  0  1G03                                 
  23688935.0824   -6512680.14947  -5071021.52946  23688933.5794   23688938.1044 
 08 12 16 10 15 04.0000000  0  1G03                                 
  23688364.9064   -6515676.38847  -5073356.25946  23688363.5934   23688368.6864 
 08 12 16 10 15 05.0000000  0  1G03                                 
  23687794.3404   -6518672.50947  -5075690.89546  23687793.2174   23687798.5984 
 08 12 16 10 15 06.0000000  0  1G03                                 
  23687224.2664   -6521668.63547  -5078025.53646  23687223.3224   23687228.5814 
 08 12 16 10 15 07.0000000  0  1G03                                 
  23686654.4714   -6524664.43447  -5080359.92146  23686653.6474   23686659.0274 
 08 12 16 10 15 08.0000000  0  1G03                                 
  23686085.0984   -6527659.97647  -5082694.10746  23686083.7184   23686089.3234 
 08 12 16 10 15 09.0000000  0  1G03                                 
  23685515.3504   -6530655.87047  -5085028.56946  23685513.7244   23685519.3794 
 08 12 16 10 15 10.0000000  0  1G03                                 
  23684945.5924   -6533651.70647  -5087362.98546  23684944.5364   23684949.1754 
 08 12 16 10 15 11.0000000  0  1G03                                 
  23684375.7734   -6536647.61447  -5089697.45746  23684374.2654   23684378.9284 
 08 12 16 10 15 12.0000000  0  1G03                                 
  23683806.1454   -6539643.14447  -5092031.63346  23683804.3354   23683808.3884 
 08 12 16 10 15 13.0000000  0  1G03                                 
  23683236.3694   -6542638.67247  -5094365.80746  23683234.4794   23683238.9094 
 08 12 16 10 15 14.0000000  0  1G03                                 
  23682666.4624   -6545634.18647  -5096699.97346  23682663.5784   23682669.0964 
 08 12 16 10 15 15.0000000  0  1G03                                 
  23682096.3654   -6548629.53547  -5099034.00946  23682093.0404   23682098.5014 
 08 12 16 10 15 16.0000000  0  1G03                                 
  23681526.1404   -6551624.46847  -5101367.72146  23681522.6294   23681528.5364 
 08 12 16 10 15 17.0000000  0  1G03                                 
  23680956.0074   -6554619.12047  -5103701.21446  23680952.4034   23680958.7974 
 08 12 16 10 15 18.0000000  0  1G03                                 
  23680385.9484   -6557613.43047  -5106034.43946  23680382.6774   23680388.7964 
 08 12 16 10 15 19.0000000  0  1G03                                 
  23679816.1434   -6560607.76947  -5108367.68946  23679812.7204   23679819.4944 
 08 12 16 10 15 20.0000000  0  1G03                                 
  23679246.1954   -6563601.94547  -5110700.81246  23679243.3454   23679249.5514 
 08 12 16 10 15 21.0000000  0  1G03                                 
  23678675.6944   -6566596.15947  -5113033.96646  23678673.1294   23678679.7564 
 08 12 16 10 15 22.0000000  0  1G03                                 
  23678105.8114   -6569589.96147  -5115366.79646  23678103.4514   23678110.5644 
 08 12 16 10 15 23.0000000  0  1G03                                 
  23677535.9204   -6572583.62947  -5117699.52046  23677534.0584   23677541.0564 
 08 12 16 10 15 24.0000000  0  1G03                                 
  23676966.0914   -6575577.32747  -5120032.27246  23676964.8694   23676971.2944 
 08 12 16 10 15 25.0000000  0  1G03                                 
  23676396.7364   -6578571.00947  -5122365.00846  23676395.8594   23676401.2874 
 08 12 16 10 15 26.0000000  0  1G03                                 
  23675827.2644   -6581564.51947  -5124697.60946  23675826.6264   23675831.3124 
 08 12 16 10 15 27.0000000  0  1G03                                 
  23675257.9314   -6584558.02647  -5127030.21146  23675257.2484   23675262.0884 
 08 12 16 10 15 28.0000000  0  1G03                                 
  23674688.4374   -6587551.41547  -5129362.72046  23674687.4324   23674692.3364 
 08 12 16 10 15 29.0000000  0  1G03                                 
  23674119.2364   -6590545.10847  -5131695.46846  23674118.4874   23674122.7074 
 08 12 16 10 15 30.0000000  0  1G03                                 
  23673549.8984   -6593538.36547  -5134027.87346  23673549.6894   23673552.9714 
 08 12 16 10 15 31.0000000  0  1G03                                 
  23672980.2564   -6596531.71647  -5136360.35346  23672979.7004   23672983.6244 
 08 12 16 10 15 32.0000000  0  1G03                                 
  23672410.6504   -6599525.07947  -5138692.84446  23672409.9654   23672414.6394 
 08 12 16 10 15 33.0000000  0  1G03                                 
  23671841.3324   -6602518.21147  -5141025.15446  23671840.1714   23671845.2594 
 08 12 16 10 15 34.0000000  0  1G03                                 
  23671272.0144   -6605511.59147  -5143357.65746  23671270.8174   23671275.3484 
 08 12 16 10 15 35.0000000  0  1G03                                 
  23670702.8234   -6608504.28247  -5145689.62146  23670702.0694   23670705.4204 
 08 12 16 10 15 36.0000000  0  1G03                                 
  23670133.6144   -6611496.16147  -5148020.95946  23670132.2134   23670136.5854 
 08 12 16 10 15 37.0000000  0  1G03                                 
  23669564.6394   -6614487.26347  -5150351.68746  23669563.1404   23669567.5424 
 08 12 16 10 15 38.0000000  0  1G03                                 
  23668995.4454   -6617478.37547  -5152682.42346  23668994.3744   23668998.2734 
 08 12 16 10 15 39.0000000  0  1G03                                 
  23668426.5304   -6620469.35247  -5155013.05446  23668425.8014   23668429.6504 
 08 12 16 10 15 40.0000000  0  1G03                                 
  23667857.5764   -6623460.47547  -5157343.79846  23667856.7824   23667860.3864 
 08 12 16 10 15 41.0000000  0  1G03                                 
  23667288.2994   -6626451.35747  -5159674.35346  23667287.3144   23667290.6784 
 08 12 16 10 15 42.0000000  0  1G03                                 
  23666719.3244   -6629442.31447  -5162004.96746  23666717.9954   23666721.2234 
 08 12 16 10 15 43.0000000  0  1G03                                 
  23666150.0544   -6632433.56747  -5164335.81546  23666148.4284   23666151.6384 
 08 12 16 10 15 44.0000000  0  1G03                                 
  23665580.6594   -6635425.04547  -5166666.83846  23665578.9914   23665582.4534 
 08 12 16 10 15 45.0000000  0  1G03                                 
  23665011.2324   -6638416.24547  -5168997.64146  23665009.7854   23665012.7784 
 08 12 16 10 15 46.0000000  0  1G03                                 
  23664441.9004   -6641407.37347  -5171328.38946  23664440.5114   23664443.3664 
 08 12 16 10 15 47.0000000  0  1G03                                 
  23663872.4294   -6644398.54147  -5173659.17046  23663871.4804   23663874.2694 
 08 12 16 10 15 48.0000000  0  1G03                                 
  23663303.1324   -6647389.61947  -5175989.88146  23663302.3374   23663305.3004 
 08 12 16 10 15 49.0000000  0  1G03                                 
  23662733.7924   -6650380.78447  -5178320.66046  23662733.1154   23662735.8334 
 08 12 16 10 15 50.0000000  0  1G03                                 
  23662164.7184   -6653371.56447  -5180651.13946  23662164.9164   23662167.1254 
 08 12 16 10 15 51.0000000  0  1G03                                 
  23661595.7074   -6656362.03347  -5182981.37446  23661596.2114   23661598.1394 
 08 12 16 10 15 52.0000000  0  1G03                                 
  23661026.9304   -6659352.30147  -5185311.45446  23661027.4694   23661029.5834 
 08 12 16 10 15 53.0000000  0  1G03                                 
  23660458.1254   -6662342.72247  -5187641.65246  23660458.4704   23660460.5644 
 08 12 16 10 15 54.0000000  0  1G03                                 
  23659889.1724   -6665333.08747  -5189971.80646  23659889.4994   23659891.2154 
 08 12 16 10 15 55.0000000  0  1G03                                 
  23659320.5054   -6668323.41347  -5192301.93246  23659320.7054   23659322.5684 
 08 12 16 10 15 56.0000000  0  1G03                                 
  23658751.5814   -6671313.70147  -5194632.02946  23658751.3064   23658753.7514 
 08 12 16 10 15 57.0000000  0  1G03                                 
  23658182.7304   -6674303.58047  -5196961.80646  23658182.1974   23658185.1764 
 08 12 16 10 15 58.0000000  0  1G03                                 
  23657613.8794   -6677293.08747  -5199291.29346  23657612.9864   23657615.6274 
 08 12 16 10 15 59.0000000  0  1G03                                 
  23657044.7604   -6680282.61347  -5201620.79546  23657043.4934   23657046.2974 
 08 12 16 10 16 00.0000000  0  1G03                                 
  23656475.7354   -6683272.06047  -5203950.23546  23656474.5384   23656477.6244 
 08 12 16 10 16 01.0000000  0  1G03                                 
  23655906.6604   -6686261.46347  -5206279.63946  23655905.4994   23655908.6734 
 08 12 16 10 16 02.0000000  0  1G03                                 
  23655337.9474   -6689250.70047  -5208608.91746  23655336.8904   23655340.1504 
 08 12 16 10 16 03.0000000  0  1G03                                 
  23654769.2004   -6692239.89147  -5210938.15746  23654768.2344   23654771.4494 
 08 12 16 10 16 04.0000000  0  1G03                                 
  23654200.0294   -6695228.86147  -5213267.22446  23654198.8624   23654202.0594 
 08 12 16 10 16 05.0000000  0  1G03                                 
  23653631.0054   -6698217.56647  -5215596.08646  23653629.9574   23653633.1094 
 08 12 16 10 16 06.0000000  0  1G03                                 
  23653062.0844   -6701205.96947  -5217924.71146  23653061.0144   23653063.9914 
